{
"type": "FeatureCollection",
"name": "place_village",
"crs": { "type": "name", "properties": { "name": "urn:ogc:def:crs:OGC:1.3:CRS84" } },
"features": [
{ "type": "Feature", "properties": { "fid": 1.0, "name": "Бачко Градиште", "place": "village", "2000": null, "2001": null, "2002": null, "2003": null, "2004": null, "2005": null, "2006": null, "2007": null, "2008": null, "2009": null, "2010": null, "2011": null, "2012": null, "2013": null, "2014": null, "2015": null, "2016": null, "2017": null, "2018": null, "2019": null, "2020": null }, "geometry": { "type": "Point", "coordinates": [ 20.0270428, 45.5334357 ] } },
{ "type": "Feature", "properties": { "fid": 2.0, "name": "Клек", "place": "village", "2000": null, "2001": null, "2002": null, "2003": null, "2004": null, "2005": null, "2006": null, "2007": null, "2008": null, "2009": null, "2010": null, "2011": null, "2012": null, "2013": null, "2014": null, "2015": null, "2016": null, "2017": null, "2018": null, "2019": null, "2020": null }, "geometry": { "type": "Point", "coordinates": [ 20.4797385, 45.4213594 ] } },
{ "type": "Feature", "properties": { "fid": 3.0, "name": "Јасенак", "place": "village", "2000": null, "2001": null, "2002": null, "2003": null, "2004": null, "2005": null, "2006": null, "2007": null, "2008": null, "2009": null, "2010": null, "2011": null, "2012": null, "2013": null, "2014": null, "2015": null, "2016": null, "2017": null, "2018": null, "2019": null, "2020": null }, "geometry": { "type": "Point", "coordinates": [ 20.2503929, 44.6147023 ] } },
{ "type": "Feature", "properties": { "fid": 4.0, "name": "Деспотово", "place": "village", "2000": null, "2001": null, "2002": null, "2003": null, "2004": null, "2005": null, "2006": null, "2007": null, "2008": null, "2009": null, "2010": null, "2011": null, "2012": null, "2013": null, "2014": null, "2015": null, "2016": null, "2017": null, "2018": null, "2019": null, "2020": null }, "geometry": { "type": "Point", "coordinates": [ 19.5263672, 45.4578901 ] } },
{ "type": "Feature", "properties": { "fid": 5.0, "name": "Равно Село", "place": "village", "2000": null, "2001": null, "2002": null, "2003": null, "2004": null, "2005": null, "2006": null, "2007": null, "2008": null, "2009": null, "2010": null, "2011": null, "2012": null, "2013": null, "2014": null, "2015": null, "2016": null, "2017": null, "2018": null, "2019": null, "2020": null }, "geometry": { "type": "Point", "coordinates": [ 19.6223232, 45.4491119 ] } },
{ "type": "Feature", "properties": { "fid": 6.0, "name": "Змајево", "place": "village", "2000": null, "2001": null, "2002": null, "2003": null, "2004": null, "2005": null, "2006": null, "2007": null, "2008": null, "2009": null, "2010": null, "2011": null, "2012": null, "2013": null, "2014": null, "2015": null, "2016": null, "2017": null, "2018": null, "2019": null, "2020": null }, "geometry": { "type": "Point", "coordinates": [ 19.6906852, 45.4533871 ] } },
{ "type": "Feature", "properties": { "fid": 7.0, "name": "Руменка", "place": "village", "2000": null, "2001": null, "2002": null, "2003": null, "2004": null, "2005": null, "2006": null, "2007": null, "2008": null, "2009": null, "2010": null, "2011": null, "2012": null, "2013": null, "2014": null, "2015": null, "2016": null, "2017": null, "2018": null, "2019": null, "2020": null }, "geometry": { "type": "Point", "coordinates": [ 19.7431048, 45.2931053 ] } },
{ "type": "Feature", "properties": { "fid": 8.0, "name": "Кулпин", "place": "village", "2000": null, "2001": null, "2002": null, "2003": null, "2004": null, "2005": null, "2006": null, "2007": null, "2008": null, "2009": null, "2010": null, "2011": null, "2012": null, "2013": null, "2014": null, "2015": null, "2016": null, "2017": null, "2018": null, "2019": null, "2020": null }, "geometry": { "type": "Point", "coordinates": [ 19.5924038, 45.4009247 ] } },
{ "type": "Feature", "properties": { "fid": 9.0, "name": "Степановићево", "place": "village", "2000": null, "2001": null, "2002": null, "2003": null, "2004": null, "2005": null, "2006": null, "2007": null, "2008": null, "2009": null, "2010": null, "2011": null, "2012": null, "2013": null, "2014": null, "2015": null, "2016": null, "2017": null, "2018": null, "2019": null, "2020": null }, "geometry": { "type": "Point", "coordinates": [ 19.6997016, 45.4137131 ] } },
{ "type": "Feature", "properties": { "fid": 10.0, "name": "Маглић", "place": "village", "2000": null, "2001": null, "2002": null, "2003": null, "2004": null, "2005": null, "2006": null, "2007": null, "2008": null, "2009": null, "2010": null, "2011": null, "2012": null, "2013": null, "2014": null, "2015": null, "2016": null, "2017": null, "2018": null, "2019": null, "2020": null }, "geometry": { "type": "Point", "coordinates": [ 19.5320721, 45.3627931 ] } },
{ "type": "Feature", "properties": { "fid": 11.0, "name": "Ђурђево", "place": "village", "2000": null, "2001": null, "2002": null, "2003": null, "2004": null, "2005": null, "2006": null, "2007": null, "2008": null, "2009": null, "2010": null, "2011": null, "2012": null, "2013": null, "2014": null, "2015": null, "2016": null, "2017": null, "2018": null, "2019": null, "2020": null }, "geometry": { "type": "Point", "coordinates": [ 20.064911, 45.3243388 ] } },
{ "type": "Feature", "properties": { "fid": 12.0, "name": "Чуруг", "place": "village", "2000": null, "2001": null, "2002": null, "2003": null, "2004": null, "2005": null, "2006": null, "2007": null, "2008": null, "2009": null, "2010": null, "2011": null, "2012": null, "2013": null, "2014": null, "2015": null, "2016": null, "2017": null, "2018": null, "2019": null, "2020": null }, "geometry": { "type": "Point", "coordinates": [ 20.0693856, 45.4712309 ] } },
{ "type": "Feature", "properties": { "fid": 13.0, "name": "Бачки Јарак", "place": "village", "2000": null, "2001": null, "2002": null, "2003": null, "2004": null, "2005": null, "2006": null, "2007": null, "2008": null, "2009": null, "2010": null, "2011": null, "2012": null, "2013": null, "2014": null, "2015": null, "2016": null, "2017": null, "2018": null, "2019": null, "2020": null }, "geometry": { "type": "Point", "coordinates": [ 19.8761213, 45.3700119 ] } },
{ "type": "Feature", "properties": { "fid": 14.0, "name": "Госпођинци", "place": "village", "2000": null, "2001": null, "2002": null, "2003": null, "2004": null, "2005": null, "2006": null, "2007": null, "2008": null, "2009": null, "2010": null, "2011": null, "2012": null, "2013": null, "2014": null, "2015": null, "2016": null, "2017": null, "2018": null, "2019": null, "2020": null }, "geometry": { "type": "Point", "coordinates": [ 19.9859367, 45.4025554 ] } },
{ "type": "Feature", "properties": { "fid": 15.0, "name": "Каћ", "place": "village", "2000": null, "2001": null, "2002": null, "2003": null, "2004": null, "2005": null, "2006": null, "2007": null, "2008": null, "2009": null, "2010": null, "2011": null, "2012": null, "2013": null, "2014": null, "2015": null, "2016": null, "2017": null, "2018": null, "2019": null, "2020": null }, "geometry": { "type": "Point", "coordinates": [ 19.9394926, 45.3049857 ] } },
{ "type": "Feature", "properties": { "fid": 16.0, "name": "Сириг", "place": "village", "2000": null, "2001": null, "2002": null, "2003": null, "2004": null, "2005": null, "2006": null, "2007": null, "2008": null, "2009": null, "2010": null, "2011": null, "2012": null, "2013": null, "2014": null, "2015": null, "2016": null, "2017": null, "2018": null, "2019": null, "2020": null }, "geometry": { "type": "Point", "coordinates": [ 19.8099027, 45.4400549 ] } },
{ "type": "Feature", "properties": { "fid": 17.0, "name": "Кумане", "place": "village", "2000": null, "2001": null, "2002": null, "2003": null, "2004": null, "2005": null, "2006": null, "2007": null, "2008": null, "2009": null, "2010": null, "2011": null, "2012": null, "2013": null, "2014": null, "2015": null, "2016": null, "2017": null, "2018": null, "2019": null, "2020": null }, "geometry": { "type": "Point", "coordinates": [ 20.2274206, 45.5400113 ] } },
{ "type": "Feature", "properties": { "fid": 18.0, "name": "Бегеч", "place": "village", "2000": null, "2001": null, "2002": null, "2003": null, "2004": null, "2005": null, "2006": null, "2007": null, "2008": null, "2009": null, "2010": null, "2011": null, "2012": null, "2013": null, "2014": null, "2015": null, "2016": null, "2017": null, "2018": null, "2019": null, "2020": null }, "geometry": { "type": "Point", "coordinates": [ 19.6225197, 45.2372383 ] } },
{ "type": "Feature", "properties": { "fid": 19.0, "name": "Сремска Рача", "place": "village", "2000": null, "2001": null, "2002": null, "2003": null, "2004": null, "2005": null, "2006": null, "2007": null, "2008": null, "2009": null, "2010": null, "2011": null, "2012": null, "2013": null, "2014": null, "2015": null, "2016": null, "2017": null, "2018": null, "2019": null, "2020": null }, "geometry": { "type": "Point", "coordinates": [ 19.2885586, 44.9176154 ] } },
{ "type": "Feature", "properties": { "fid": 20.0, "name": "Босут", "place": "village", "2000": null, "2001": null, "2002": null, "2003": null, "2004": null, "2005": null, "2006": null, "2007": null, "2008": null, "2009": null, "2010": null, "2011": null, "2012": null, "2013": null, "2014": null, "2015": null, "2016": null, "2017": null, "2018": null, "2019": null, "2020": null }, "geometry": { "type": "Point", "coordinates": [ 19.3627092, 44.932235 ] } },
{ "type": "Feature", "properties": { "fid": 21.0, "name": "Вишњићево", "place": "village", "2000": null, "2001": null, "2002": null, "2003": null, "2004": null, "2005": null, "2006": null, "2007": null, "2008": null, "2009": null, "2010": null, "2011": null, "2012": null, "2013": null, "2014": null, "2015": null, "2016": null, "2017": null, "2018": null, "2019": null, "2020": null }, "geometry": { "type": "Point", "coordinates": [ 19.2886445, 44.9653361 ] } },
{ "type": "Feature", "properties": { "fid": 22.0, "name": "Кузмин", "place": "village", "2000": null, "2001": null, "2002": null, "2003": null, "2004": null, "2005": null, "2006": null, "2007": null, "2008": null, "2009": null, "2010": null, "2011": null, "2012": null, "2013": null, "2014": null, "2015": null, "2016": null, "2017": null, "2018": null, "2019": null, "2020": null }, "geometry": { "type": "Point", "coordinates": [ 19.4056819, 45.0205917 ] } },
{ "type": "Feature", "properties": { "fid": 23.0, "name": "Лазарево", "place": "village", "2000": null, "2001": null, "2002": null, "2003": null, "2004": null, "2005": null, "2006": null, "2007": null, "2008": null, "2009": null, "2010": null, "2011": null, "2012": null, "2013": null, "2014": null, "2015": null, "2016": null, "2017": null, "2018": null, "2019": null, "2020": null }, "geometry": { "type": "Point", "coordinates": [ 20.5364856, 45.3871277 ] } },
{ "type": "Feature", "properties": { "fid": 24.0, "name": "Палић", "place": "village", "2000": null, "2001": null, "2002": null, "2003": null, "2004": null, "2005": null, "2006": null, "2007": null, "2008": null, "2009": null, "2010": null, "2011": null, "2012": null, "2013": null, "2014": null, "2015": null, "2016": null, "2017": null, "2018": null, "2019": null, "2020": null }, "geometry": { "type": "Point", "coordinates": [ 19.7634537, 46.1022848 ] } },
{ "type": "Feature", "properties": { "fid": 25.0, "name": "Хоргош", "place": "village", "2000": null, "2001": null, "2002": null, "2003": null, "2004": null, "2005": null, "2006": null, "2007": null, "2008": null, "2009": null, "2010": null, "2011": null, "2012": null, "2013": null, "2014": null, "2015": null, "2016": null, "2017": null, "2018": null, "2019": null, "2020": null }, "geometry": { "type": "Point", "coordinates": [ 19.9655907, 46.152713 ] } },
{ "type": "Feature", "properties": { "fid": 26.0, "name": "Хајдуково", "place": "village", "2000": null, "2001": null, "2002": null, "2003": null, "2004": null, "2005": null, "2006": null, "2007": null, "2008": null, "2009": null, "2010": null, "2011": null, "2012": null, "2013": null, "2014": null, "2015": null, "2016": null, "2017": null, "2018": null, "2019": null, "2020": null }, "geometry": { "type": "Point", "coordinates": [ 19.8219481, 46.1066044 ] } },
{ "type": "Feature", "properties": { "fid": 27.0, "name": "Бачки Виногради", "place": "village", "2000": null, "2001": null, "2002": null, "2003": null, "2004": null, "2005": null, "2006": null, "2007": null, "2008": null, "2009": null, "2010": null, "2011": null, "2012": null, "2013": null, "2014": null, "2015": null, "2016": null, "2017": null, "2018": null, "2019": null, "2020": null }, "geometry": { "type": "Point", "coordinates": [ 19.8546368, 46.126079 ] } },
{ "type": "Feature", "properties": { "fid": 28.0, "name": "Келебија", "place": "village", "2000": null, "2001": null, "2002": null, "2003": null, "2004": null, "2005": null, "2006": null, "2007": null, "2008": null, "2009": null, "2010": null, "2011": null, "2012": null, "2013": null, "2014": null, "2015": null, "2016": null, "2017": null, "2018": null, "2019": null, "2020": null }, "geometry": { "type": "Point", "coordinates": [ 19.5776048, 46.1523488 ] } },
{ "type": "Feature", "properties": { "fid": 29.0, "name": "Стара Моравица", "place": "village", "2000": null, "2001": null, "2002": null, "2003": null, "2004": null, "2005": null, "2006": null, "2007": null, "2008": null, "2009": null, "2010": null, "2011": null, "2012": null, "2013": null, "2014": null, "2015": null, "2016": null, "2017": null, "2018": null, "2019": null, "2020": null }, "geometry": { "type": "Point", "coordinates": [ 19.4666165, 45.8693425 ] } },
{ "type": "Feature", "properties": { "fid": 30.0, "name": "Риђица", "place": "village", "2000": null, "2001": null, "2002": null, "2003": null, "2004": null, "2005": null, "2006": null, "2007": null, "2008": null, "2009": null, "2010": null, "2011": null, "2012": null, "2013": null, "2014": null, "2015": null, "2016": null, "2017": null, "2018": null, "2019": null, "2020": null }, "geometry": { "type": "Point", "coordinates": [ 19.1062079, 45.991571 ] } },
{ "type": "Feature", "properties": { "fid": 31.0, "name": "Станишић", "place": "village", "2000": null, "2001": null, "2002": null, "2003": null, "2004": null, "2005": null, "2006": null, "2007": null, "2008": null, "2009": null, "2010": null, "2011": null, "2012": null, "2013": null, "2014": null, "2015": null, "2016": null, "2017": null, "2018": null, "2019": null, "2020": null }, "geometry": { "type": "Point", "coordinates": [ 19.1645788, 45.9385555 ] } },
{ "type": "Feature", "properties": { "fid": 32.0, "name": "Светозар Милетић", "place": "village", "2000": null, "2001": null, "2002": null, "2003": null, "2004": null, "2005": null, "2006": null, "2007": null, "2008": null, "2009": null, "2010": null, "2011": null, "2012": null, "2013": null, "2014": null, "2015": null, "2016": null, "2017": null, "2018": null, "2019": null, "2020": null }, "geometry": { "type": "Point", "coordinates": [ 19.2048515, 45.8533938 ] } },
{ "type": "Feature", "properties": { "fid": 33.0, "name": "Гаково", "place": "village", "2000": null, "2001": null, "2002": null, "2003": null, "2004": null, "2005": null, "2006": null, "2007": null, "2008": null, "2009": null, "2010": null, "2011": null, "2012": null, "2013": null, "2014": null, "2015": null, "2016": null, "2017": null, "2018": null, "2019": null, "2020": null }, "geometry": { "type": "Point", "coordinates": [ 19.0611893, 45.9006097 ] } },
{ "type": "Feature", "properties": { "fid": 34.0, "name": "Бачки Моноштор", "place": "village", "2000": null, "2001": null, "2002": null, "2003": null, "2004": null, "2005": null, "2006": null, "2007": null, "2008": null, "2009": null, "2010": null, "2011": null, "2012": null, "2013": null, "2014": null, "2015": null, "2016": null, "2017": null, "2018": null, "2019": null, "2020": null }, "geometry": { "type": "Point", "coordinates": [ 18.9339346, 45.7937186 ] } },
{ "type": "Feature", "properties": { "fid": 35.0, "name": "Бездан", "place": "village", "2000": null, "2001": null, "2002": null, "2003": null, "2004": null, "2005": null, "2006": null, "2007": null, "2008": null, "2009": null, "2010": null, "2011": null, "2012": null, "2013": null, "2014": null, "2015": null, "2016": null, "2017": null, "2018": null, "2019": null, "2020": null }, "geometry": { "type": "Point", "coordinates": [ 18.925943, 45.8501704 ] } },
{ "type": "Feature", "properties": { "fid": 36.0, "name": "Дероње", "place": "village", "2000": null, "2001": null, "2002": null, "2003": null, "2004": null, "2005": null, "2006": null, "2007": null, "2008": null, "2009": null, "2010": null, "2011": null, "2012": null, "2013": null, "2014": null, "2015": null, "2016": null, "2017": null, "2018": null, "2019": null, "2020": null }, "geometry": { "type": "Point", "coordinates": [ 19.2206219, 45.4543171 ] } },
{ "type": "Feature", "properties": { "fid": 37.0, "name": "Каравуково", "place": "village", "2000": null, "2001": null, "2002": null, "2003": null, "2004": null, "2005": null, "2006": null, "2007": null, "2008": null, "2009": null, "2010": null, "2011": null, "2012": null, "2013": null, "2014": null, "2015": null, "2016": null, "2017": null, "2018": null, "2019": null, "2020": null }, "geometry": { "type": "Point", "coordinates": [ 19.1960432, 45.4976668 ] } },
{ "type": "Feature", "properties": { "fid": 38.0, "name": "Богојево", "place": "village", "2000": null, "2001": null, "2002": null, "2003": null, "2004": null, "2005": null, "2006": null, "2007": null, "2008": null, "2009": null, "2010": null, "2011": null, "2012": null, "2013": null, "2014": null, "2015": null, "2016": null, "2017": null, "2018": null, "2019": null, "2020": null }, "geometry": { "type": "Point", "coordinates": [ 19.1313233, 45.5316555 ] } },
{ "type": "Feature", "properties": { "fid": 39.0, "name": "Српски Милетић", "place": "village", "2000": null, "2001": null, "2002": null, "2003": null, "2004": null, "2005": null, "2006": null, "2007": null, "2008": null, "2009": null, "2010": null, "2011": null, "2012": null, "2013": null, "2014": null, "2015": null, "2016": null, "2017": null, "2018": null, "2019": null, "2020": null }, "geometry": { "type": "Point", "coordinates": [ 19.2035291, 45.559439 ] } },
{ "type": "Feature", "properties": { "fid": 40.0, "name": "Дорослово", "place": "village", "2000": null, "2001": null, "2002": null, "2003": null, "2004": null, "2005": null, "2006": null, "2007": null, "2008": null, "2009": null, "2010": null, "2011": null, "2012": null, "2013": null, "2014": null, "2015": null, "2016": null, "2017": null, "2018": null, "2019": null, "2020": null }, "geometry": { "type": "Point", "coordinates": [ 19.187792, 45.606071 ] } },
{ "type": "Feature", "properties": { "fid": 41.0, "name": "Товаришево", "place": "village", "2000": null, "2001": null, "2002": null, "2003": null, "2004": null, "2005": null, "2006": null, "2007": null, "2008": null, "2009": null, "2010": null, "2011": null, "2012": null, "2013": null, "2014": null, "2015": null, "2016": null, "2017": null, "2018": null, "2019": null, "2020": null }, "geometry": { "type": "Point", "coordinates": [ 19.3242439, 45.355595 ] } },
{ "type": "Feature", "properties": { "fid": 42.0, "name": "Обровац", "place": "village", "2000": null, "2001": null, "2002": null, "2003": null, "2004": null, "2005": null, "2006": null, "2007": null, "2008": null, "2009": null, "2010": null, "2011": null, "2012": null, "2013": null, "2014": null, "2015": null, "2016": null, "2017": null, "2018": null, "2019": null, "2020": null }, "geometry": { "type": "Point", "coordinates": [ 19.3514396, 45.320216 ] } },
{ "type": "Feature", "properties": { "fid": 43.0, "name": "Селенча", "place": "village", "2000": null, "2001": null, "2002": null, "2003": null, "2004": null, "2005": null, "2006": null, "2007": null, "2008": null, "2009": null, "2010": null, "2011": null, "2012": null, "2013": null, "2014": null, "2015": null, "2016": null, "2017": null, "2018": null, "2019": null, "2020": null }, "geometry": { "type": "Point", "coordinates": [ 19.3005456, 45.4097406 ] } },
{ "type": "Feature", "properties": { "fid": 44.0, "name": "Параге", "place": "village", "2000": null, "2001": null, "2002": null, "2003": null, "2004": null, "2005": null, "2006": null, "2007": null, "2008": null, "2009": null, "2010": null, "2011": null, "2012": null, "2013": null, "2014": null, "2015": null, "2016": null, "2017": null, "2018": null, "2019": null, "2020": null }, "geometry": { "type": "Point", "coordinates": [ 19.4043598, 45.413835 ] } },
{ "type": "Feature", "properties": { "fid": 45.0, "name": "Ратково", "place": "village", "2000": null, "2001": null, "2002": null, "2003": null, "2004": null, "2005": null, "2006": null, "2007": null, "2008": null, "2009": null, "2010": null, "2011": null, "2012": null, "2013": null, "2014": null, "2015": null, "2016": null, "2017": null, "2018": null, "2019": null, "2020": null }, "geometry": { "type": "Point", "coordinates": [ 19.3363581, 45.4542427 ] } },
{ "type": "Feature", "properties": { "fid": 46.0, "name": "Бачки Брестовац", "place": "village", "2000": null, "2001": null, "2002": null, "2003": null, "2004": null, "2005": null, "2006": null, "2007": null, "2008": null, "2009": null, "2010": null, "2011": null, "2012": null, "2013": null, "2014": null, "2015": null, "2016": null, "2017": null, "2018": null, "2019": null, "2020": null }, "geometry": { "type": "Point", "coordinates": [ 19.2701805, 45.6161513 ] } },
{ "type": "Feature", "properties": { "fid": 47.0, "name": "Стапар", "place": "village", "2000": null, "2001": null, "2002": null, "2003": null, "2004": null, "2005": null, "2006": null, "2007": null, "2008": null, "2009": null, "2010": null, "2011": null, "2012": null, "2013": null, "2014": null, "2015": null, "2016": null, "2017": null, "2018": null, "2019": null, "2020": null }, "geometry": { "type": "Point", "coordinates": [ 19.2018979, 45.6640973 ] } },
{ "type": "Feature", "properties": { "fid": 48.0, "name": "Бачки Грачац", "place": "village", "2000": null, "2001": null, "2002": null, "2003": null, "2004": null, "2005": null, "2006": null, "2007": null, "2008": null, "2009": null, "2010": null, "2011": null, "2012": null, "2013": null, "2014": null, "2015": null, "2016": null, "2017": null, "2018": null, "2019": null, "2020": null }, "geometry": { "type": "Point", "coordinates": [ 19.3245845, 45.5552073 ] } },
{ "type": "Feature", "properties": { "fid": 49.0, "name": "Свилојево", "place": "village", "2000": null, "2001": null, "2002": null, "2003": null, "2004": null, "2005": null, "2006": null, "2007": null, "2008": null, "2009": null, "2010": null, "2011": null, "2012": null, "2013": null, "2014": null, "2015": null, "2016": null, "2017": null, "2018": null, "2019": null, "2020": null }, "geometry": { "type": "Point", "coordinates": [ 19.0671319, 45.6476825 ] } },
{ "type": "Feature", "properties": { "fid": 50.0, "name": "Пригревица", "place": "village", "2000": null, "2001": null, "2002": null, "2003": null, "2004": null, "2005": null, "2006": null, "2007": null, "2008": null, "2009": null, "2010": null, "2011": null, "2012": null, "2013": null, "2014": null, "2015": null, "2016": null, "2017": null, "2018": null, "2019": null, "2020": null }, "geometry": { "type": "Point", "coordinates": [ 19.0854039, 45.6776078 ] } },
{ "type": "Feature", "properties": { "fid": 51.0, "name": "Купусина", "place": "village", "2000": null, "2001": null, "2002": null, "2003": null, "2004": null, "2005": null, "2006": null, "2007": null, "2008": null, "2009": null, "2010": null, "2011": null, "2012": null, "2013": null, "2014": null, "2015": null, "2016": null, "2017": null, "2018": null, "2019": null, "2020": null }, "geometry": { "type": "Point", "coordinates": [ 19.0126598, 45.7377766 ] } },
{ "type": "Feature", "properties": { "fid": 52.0, "name": "Сонта", "place": "village", "2000": null, "2001": null, "2002": null, "2003": null, "2004": null, "2005": null, "2006": null, "2007": null, "2008": null, "2009": null, "2010": null, "2011": null, "2012": null, "2013": null, "2014": null, "2015": null, "2016": null, "2017": null, "2018": null, "2019": null, "2020": null }, "geometry": { "type": "Point", "coordinates": [ 19.0991866, 45.5954082 ] } },
{ "type": "Feature", "properties": { "fid": 53.0, "name": "Кљајићево", "place": "village", "2000": null, "2001": null, "2002": null, "2003": null, "2004": null, "2005": null, "2006": null, "2007": null, "2008": null, "2009": null, "2010": null, "2011": null, "2012": null, "2013": null, "2014": null, "2015": null, "2016": null, "2017": null, "2018": null, "2019": null, "2020": null }, "geometry": { "type": "Point", "coordinates": [ 19.2776627, 45.7703765 ] } },
{ "type": "Feature", "properties": { "fid": 54.0, "name": "Чонопља", "place": "village", "2000": null, "2001": null, "2002": null, "2003": null, "2004": null, "2005": null, "2006": null, "2007": null, "2008": null, "2009": null, "2010": null, "2011": null, "2012": null, "2013": null, "2014": null, "2015": null, "2016": null, "2017": null, "2018": null, "2019": null, "2020": null }, "geometry": { "type": "Point", "coordinates": [ 19.248848, 45.812126 ] } },
{ "type": "Feature", "properties": { "fid": 55.0, "name": "Алекса Шантић", "place": "village", "2000": null, "2001": null, "2002": null, "2003": null, "2004": null, "2005": null, "2006": null, "2007": null, "2008": null, "2009": null, "2010": null, "2011": null, "2012": null, "2013": null, "2014": null, "2015": null, "2016": null, "2017": null, "2018": null, "2019": null, "2020": null }, "geometry": { "type": "Point", "coordinates": [ 19.3353395, 45.9259224 ] } },
{ "type": "Feature", "properties": { "fid": 56.0, "name": "Бајмок", "place": "village", "2000": null, "2001": null, "2002": null, "2003": null, "2004": null, "2005": null, "2006": null, "2007": null, "2008": null, "2009": null, "2010": null, "2011": null, "2012": null, "2013": null, "2014": null, "2015": null, "2016": null, "2017": null, "2018": null, "2019": null, "2020": null }, "geometry": { "type": "Point", "coordinates": [ 19.4251214, 45.96601 ] } },
{ "type": "Feature", "properties": { "fid": 57.0, "name": "Сивац", "place": "village", "2000": null, "2001": null, "2002": null, "2003": null, "2004": null, "2005": null, "2006": null, "2007": null, "2008": null, "2009": null, "2010": null, "2011": null, "2012": null, "2013": null, "2014": null, "2015": null, "2016": null, "2017": null, "2018": null, "2019": null, "2020": null }, "geometry": { "type": "Point", "coordinates": [ 19.3822068, 45.7032662 ] } },
{ "type": "Feature", "properties": { "fid": 58.0, "name": "Колут", "place": "village", "2000": null, "2001": null, "2002": null, "2003": null, "2004": null, "2005": null, "2006": null, "2007": null, "2008": null, "2009": null, "2010": null, "2011": null, "2012": null, "2013": null, "2014": null, "2015": null, "2016": null, "2017": null, "2018": null, "2019": null, "2020": null }, "geometry": { "type": "Point", "coordinates": [ 18.9251663, 45.8910436 ] } },
{ "type": "Feature", "properties": { "fid": 59.0, "name": "Бачки Брег", "place": "village", "2000": null, "2001": null, "2002": null, "2003": null, "2004": null, "2005": null, "2006": null, "2007": null, "2008": null, "2009": null, "2010": null, "2011": null, "2012": null, "2013": null, "2014": null, "2015": null, "2016": null, "2017": null, "2018": null, "2019": null, "2020": null }, "geometry": { "type": "Point", "coordinates": [ 18.9321379, 45.9201462 ] } },
{ "type": "Feature", "properties": { "fid": 60.0, "name": "Ђурђин", "place": "village", "2000": null, "2001": null, "2002": null, "2003": null, "2004": null, "2005": null, "2006": null, "2007": null, "2008": null, "2009": null, "2010": null, "2011": null, "2012": null, "2013": null, "2014": null, "2015": null, "2016": null, "2017": null, "2018": null, "2019": null, "2020": null }, "geometry": { "type": "Point", "coordinates": [ 19.5389124, 45.945663 ] } },
{ "type": "Feature", "properties": { "fid": 61.0, "name": "Руски Крстур", "place": "village", "2000": null, "2001": null, "2002": null, "2003": null, "2004": null, "2005": null, "2006": null, "2007": null, "2008": null, "2009": null, "2010": null, "2011": null, "2012": null, "2013": null, "2014": null, "2015": null, "2016": null, "2017": null, "2018": null, "2019": null, "2020": null }, "geometry": { "type": "Point", "coordinates": [ 19.4201714, 45.5625734 ] } },
{ "type": "Feature", "properties": { "fid": 62.0, "name": "Лалић", "place": "village", "2000": null, "2001": null, "2002": null, "2003": null, "2004": null, "2005": null, "2006": null, "2007": null, "2008": null, "2009": null, "2010": null, "2011": null, "2012": null, "2013": null, "2014": null, "2015": null, "2016": null, "2017": null, "2018": null, "2019": null, "2020": null }, "geometry": { "type": "Point", "coordinates": [ 19.3677289, 45.5198425 ] } },
{ "type": "Feature", "properties": { "fid": 63.0, "name": "Михајловац", "place": "village", "2000": null, "2001": null, "2002": null, "2003": null, "2004": null, "2005": null, "2006": null, "2007": null, "2008": null, "2009": null, "2010": null, "2011": null, "2012": null, "2013": null, "2014": null, "2015": null, "2016": null, "2017": null, "2018": null, "2019": null, "2020": null }, "geometry": { "type": "Point", "coordinates": [ 22.4942396, 44.3702151 ] } },
{ "type": "Feature", "properties": { "fid": 64.0, "name": "Мала Каменица", "place": "village", "2000": null, "2001": null, "2002": null, "2003": null, "2004": null, "2005": null, "2006": null, "2007": null, "2008": null, "2009": null, "2010": null, "2011": null, "2012": null, "2013": null, "2014": null, "2015": null, "2016": null, "2017": null, "2018": null, "2019": null, "2020": null }, "geometry": { "type": "Point", "coordinates": [ 22.488103, 44.3494291 ] } },
{ "type": "Feature", "properties": { "fid": 65.0, "name": "Аљиновићи", "place": "village", "2000": null, "2001": null, "2002": null, "2003": null, "2004": null, "2005": null, "2006": null, "2007": null, "2008": null, "2009": null, "2010": null, "2011": null, "2012": null, "2013": null, "2014": null, "2015": null, "2016": null, "2017": null, "2018": null, "2019": null, "2020": null }, "geometry": { "type": "Point", "coordinates": [ 19.8466569, 43.3353333 ] } },
{ "type": "Feature", "properties": { "fid": 66.0, "name": "Кнежевац", "place": "village", "2000": null, "2001": null, "2002": null, "2003": null, "2004": null, "2005": null, "2006": null, "2007": null, "2008": null, "2009": null, "2010": null, "2011": null, "2012": null, "2013": null, "2014": null, "2015": null, "2016": null, "2017": null, "2018": null, "2019": null, "2020": null }, "geometry": { "type": "Point", "coordinates": [ 20.1202851, 43.2582472 ] } },
{ "type": "Feature", "properties": { "fid": 67.0, "name": "Дуга Пољана", "place": "village", "2000": null, "2001": null, "2002": null, "2003": null, "2004": null, "2005": null, "2006": null, "2007": null, "2008": null, "2009": null, "2010": null, "2011": null, "2012": null, "2013": null, "2014": null, "2015": null, "2016": null, "2017": null, "2018": null, "2019": null, "2020": null }, "geometry": { "type": "Point", "coordinates": [ 20.2270585, 43.2509958 ] } },
{ "type": "Feature", "properties": { "fid": 68.0, "name": "Црквине", "place": "village", "2000": null, "2001": null, "2002": null, "2003": null, "2004": null, "2005": null, "2006": null, "2007": null, "2008": null, "2009": null, "2010": null, "2011": null, "2012": null, "2013": null, "2014": null, "2015": null, "2016": null, "2017": null, "2018": null, "2019": null, "2020": null }, "geometry": { "type": "Point", "coordinates": [ 20.3857595, 43.0501236 ] } },
{ "type": "Feature", "properties": { "fid": 69.0, "name": "Радуховце", "place": "village", "2000": null, "2001": null, "2002": null, "2003": null, "2004": null, "2005": null, "2006": null, "2007": null, "2008": null, "2009": null, "2010": null, "2011": null, "2012": null, "2013": null, "2014": null, "2015": null, "2016": null, "2017": null, "2018": null, "2019": null, "2020": null }, "geometry": { "type": "Point", "coordinates": [ 20.4023247, 43.0405813 ] } },
{ "type": "Feature", "properties": { "fid": 70.0, "name": "Дубово", "place": "village", "2000": null, "2001": null, "2002": null, "2003": null, "2004": null, "2005": null, "2006": null, "2007": null, "2008": null, "2009": null, "2010": null, "2011": null, "2012": null, "2013": null, "2014": null, "2015": null, "2016": null, "2017": null, "2018": null, "2019": null, "2020": null }, "geometry": { "type": "Point", "coordinates": [ 20.3391963, 43.0018281 ] } },
{ "type": "Feature", "properties": { "fid": 71.0, "name": "Шпиљани", "place": "village", "2000": null, "2001": null, "2002": null, "2003": null, "2004": null, "2005": null, "2006": null, "2007": null, "2008": null, "2009": null, "2010": null, "2011": null, "2012": null, "2013": null, "2014": null, "2015": null, "2016": null, "2017": null, "2018": null, "2019": null, "2020": null }, "geometry": { "type": "Point", "coordinates": [ 20.3453371, 42.9195347 ] } },
{ "type": "Feature", "properties": { "fid": 72.0, "name": "Ргоште", "place": "village", "2000": null, "2001": null, "2002": null, "2003": null, "2004": null, "2005": null, "2006": null, "2007": null, "2008": null, "2009": null, "2010": null, "2011": null, "2012": null, "2013": null, "2014": null, "2015": null, "2016": null, "2017": null, "2018": null, "2019": null, "2020": null }, "geometry": { "type": "Point", "coordinates": [ 22.2065166, 43.5447208 ] } },
{ "type": "Feature", "properties": { "fid": 73.0, "name": "Шупљак", "place": "village", "2000": null, "2001": null, "2002": null, "2003": null, "2004": null, "2005": null, "2006": null, "2007": null, "2008": null, "2009": null, "2010": null, "2011": null, "2012": null, "2013": null, "2014": null, "2015": null, "2016": null, "2017": null, "2018": null, "2019": null, "2020": null }, "geometry": { "type": "Point", "coordinates": [ 19.8271425, 46.0670371 ] } },
{ "type": "Feature", "properties": { "fid": 74.0, "name": "Овча", "place": "village", "2000": null, "2001": null, "2002": null, "2003": null, "2004": null, "2005": null, "2006": null, "2007": null, "2008": null, "2009": null, "2010": null, "2011": null, "2012": null, "2013": null, "2014": null, "2015": null, "2016": null, "2017": null, "2018": null, "2019": null, "2020": null }, "geometry": { "type": "Point", "coordinates": [ 20.5350122, 44.8876947 ] } },
{ "type": "Feature", "properties": { "fid": 75.0, "name": "Јабука", "place": "village", "2000": null, "2001": null, "2002": null, "2003": null, "2004": null, "2005": null, "2006": null, "2007": null, "2008": null, "2009": null, "2010": null, "2011": null, "2012": null, "2013": null, "2014": null, "2015": null, "2016": null, "2017": null, "2018": null, "2019": null, "2020": null }, "geometry": { "type": "Point", "coordinates": [ 20.595162, 44.9471243 ] } },
{ "type": "Feature", "properties": { "fid": 76.0, "name": "Сефкерин", "place": "village", "2000": null, "2001": null, "2002": null, "2003": null, "2004": null, "2005": null, "2006": null, "2007": null, "2008": null, "2009": null, "2010": null, "2011": null, "2012": null, "2013": null, "2014": null, "2015": null, "2016": null, "2017": null, "2018": null, "2019": null, "2020": null }, "geometry": { "type": "Point", "coordinates": [ 20.4858976, 45.0044137 ] } },
{ "type": "Feature", "properties": { "fid": 77.0, "name": "Опово", "place": "village", "2000": null, "2001": null, "2002": null, "2003": null, "2004": null, "2005": null, "2006": null, "2007": null, "2008": null, "2009": null, "2010": null, "2011": null, "2012": null, "2013": null, "2014": null, "2015": null, "2016": null, "2017": null, "2018": null, "2019": null, "2020": null }, "geometry": { "type": "Point", "coordinates": [ 20.4331827, 45.0487194 ] } },
{ "type": "Feature", "properties": { "fid": 78.0, "name": "Сакуле", "place": "village", "2000": null, "2001": null, "2002": null, "2003": null, "2004": null, "2005": null, "2006": null, "2007": null, "2008": null, "2009": null, "2010": null, "2011": null, "2012": null, "2013": null, "2014": null, "2015": null, "2016": null, "2017": null, "2018": null, "2019": null, "2020": null }, "geometry": { "type": "Point", "coordinates": [ 20.4818833, 45.1452359 ] } },
{ "type": "Feature", "properties": { "fid": 79.0, "name": "Чента", "place": "village", "2000": null, "2001": null, "2002": null, "2003": null, "2004": null, "2005": null, "2006": null, "2007": null, "2008": null, "2009": null, "2010": null, "2011": null, "2012": null, "2013": null, "2014": null, "2015": null, "2016": null, "2017": null, "2018": null, "2019": null, "2020": null }, "geometry": { "type": "Point", "coordinates": [ 20.3865803, 45.1076394 ] } },
{ "type": "Feature", "properties": { "fid": 80.0, "name": "Ковилово", "place": "village", "2000": null, "2001": null, "2002": null, "2003": null, "2004": null, "2005": null, "2006": null, "2007": null, "2008": null, "2009": null, "2010": null, "2011": null, "2012": null, "2013": null, "2014": null, "2015": null, "2016": null, "2017": null, "2018": null, "2019": null, "2020": null }, "geometry": { "type": "Point", "coordinates": [ 20.4315145, 44.9097908 ] } },
{ "type": "Feature", "properties": { "fid": 81.0, "name": "Падинска Скела", "place": "village", "2000": null, "2001": null, "2002": null, "2003": null, "2004": null, "2005": null, "2006": null, "2007": null, "2008": null, "2009": null, "2010": null, "2011": null, "2012": null, "2013": null, "2014": null, "2015": null, "2016": null, "2017": null, "2018": null, "2019": null, "2020": null }, "geometry": { "type": "Point", "coordinates": [ 20.4302644, 44.9391902 ] } },
{ "type": "Feature", "properties": { "fid": 82.0, "name": "Дунавац", "place": "village", "2000": null, "2001": null, "2002": null, "2003": null, "2004": null, "2005": null, "2006": null, "2007": null, "2008": null, "2009": null, "2010": null, "2011": null, "2012": null, "2013": null, "2014": null, "2015": null, "2016": null, "2017": null, "2018": null, "2019": null, "2020": null }, "geometry": { "type": "Point", "coordinates": [ 20.3842059, 45.0665154 ] } },
{ "type": "Feature", "properties": { "fid": 83.0, "name": "Перлез", "place": "village", "2000": null, "2001": null, "2002": null, "2003": null, "2004": null, "2005": null, "2006": null, "2007": null, "2008": null, "2009": null, "2010": null, "2011": null, "2012": null, "2013": null, "2014": null, "2015": null, "2016": null, "2017": null, "2018": null, "2019": null, "2020": null }, "geometry": { "type": "Point", "coordinates": [ 20.3813491, 45.207496 ] } },
{ "type": "Feature", "properties": { "fid": 84.0, "name": "Книћанин", "place": "village", "2000": null, "2001": null, "2002": null, "2003": null, "2004": null, "2005": null, "2006": null, "2007": null, "2008": null, "2009": null, "2010": null, "2011": null, "2012": null, "2013": null, "2014": null, "2015": null, "2016": null, "2017": null, "2018": null, "2019": null, "2020": null }, "geometry": { "type": "Point", "coordinates": [ 20.3186927, 45.187658 ] } },
{ "type": "Feature", "properties": { "fid": 85.0, "name": "Черевић", "place": "village", "2000": null, "2001": null, "2002": null, "2003": null, "2004": null, "2005": null, "2006": null, "2007": null, "2008": null, "2009": null, "2010": null, "2011": null, "2012": null, "2013": null, "2014": null, "2015": null, "2016": null, "2017": null, "2018": null, "2019": null, "2020": null }, "geometry": { "type": "Point", "coordinates": [ 19.6627528, 45.2186356 ] } },
{ "type": "Feature", "properties": { "fid": 86.0, "name": "Ковиљ", "place": "village", "2000": null, "2001": null, "2002": null, "2003": null, "2004": null, "2005": null, "2006": null, "2007": null, "2008": null, "2009": null, "2010": null, "2011": null, "2012": null, "2013": null, "2014": null, "2015": null, "2016": null, "2017": null, "2018": null, "2019": null, "2020": null }, "geometry": { "type": "Point", "coordinates": [ 20.0223418, 45.2275974 ] } },
{ "type": "Feature", "properties": { "fid": 87.0, "name": "Нови Сланкамен", "place": "village", "2000": null, "2001": null, "2002": null, "2003": null, "2004": null, "2005": null, "2006": null, "2007": null, "2008": null, "2009": null, "2010": null, "2011": null, "2012": null, "2013": null, "2014": null, "2015": null, "2016": null, "2017": null, "2018": null, "2019": null, "2020": null }, "geometry": { "type": "Point", "coordinates": [ 20.2391667, 45.1255556 ] } },
{ "type": "Feature", "properties": { "fid": 88.0, "name": "Сурдук", "place": "village", "2000": null, "2001": null, "2002": null, "2003": null, "2004": null, "2005": null, "2006": null, "2007": null, "2008": null, "2009": null, "2010": null, "2011": null, "2012": null, "2013": null, "2014": null, "2015": null, "2016": null, "2017": null, "2018": null, "2019": null, "2020": null }, "geometry": { "type": "Point", "coordinates": [ 20.3192123, 45.0718483 ] } },
{ "type": "Feature", "properties": { "fid": 89.0, "name": "Нови Карловци", "place": "village", "2000": null, "2001": null, "2002": null, "2003": null, "2004": null, "2005": null, "2006": null, "2007": null, "2008": null, "2009": null, "2010": null, "2011": null, "2012": null, "2013": null, "2014": null, "2015": null, "2016": null, "2017": null, "2018": null, "2019": null, "2020": null }, "geometry": { "type": "Point", "coordinates": [ 20.1769049, 45.0811328 ] } },
{ "type": "Feature", "properties": { "fid": 90.0, "name": "Бегаљица", "place": "village", "2000": null, "2001": null, "2002": null, "2003": null, "2004": null, "2005": null, "2006": null, "2007": null, "2008": null, "2009": null, "2010": null, "2011": null, "2012": null, "2013": null, "2014": null, "2015": null, "2016": null, "2017": null, "2018": null, "2019": null, "2020": null }, "geometry": { "type": "Point", "coordinates": [ 20.69511, 44.6319881 ] } },
{ "type": "Feature", "properties": { "fid": 91.0, "name": "Мали Пожаревац", "place": "village", "2000": null, "2001": null, "2002": null, "2003": null, "2004": null, "2005": null, "2006": null, "2007": null, "2008": null, "2009": null, "2010": null, "2011": null, "2012": null, "2013": null, "2014": null, "2015": null, "2016": null, "2017": null, "2018": null, "2019": null, "2020": null }, "geometry": { "type": "Point", "coordinates": [ 20.6542807, 44.5629122 ] } },
{ "type": "Feature", "properties": { "fid": 92.0, "name": "Умчари", "place": "village", "2000": null, "2001": null, "2002": null, "2003": null, "2004": null, "2005": null, "2006": null, "2007": null, "2008": null, "2009": null, "2010": null, "2011": null, "2012": null, "2013": null, "2014": null, "2015": null, "2016": null, "2017": null, "2018": null, "2019": null, "2020": null }, "geometry": { "type": "Point", "coordinates": [ 20.7343029, 44.5820469 ] } },
{ "type": "Feature", "properties": { "fid": 93.0, "name": "Врчин", "place": "village", "2000": null, "2001": null, "2002": null, "2003": null, "2004": null, "2005": null, "2006": null, "2007": null, "2008": null, "2009": null, "2010": null, "2011": null, "2012": null, "2013": null, "2014": null, "2015": null, "2016": null, "2017": null, "2018": null, "2019": null, "2020": null }, "geometry": { "type": "Point", "coordinates": [ 20.5910154, 44.6639616 ] } },
{ "type": "Feature", "properties": { "fid": 94.0, "name": "Салаш", "place": "village", "2000": null, "2001": null, "2002": null, "2003": null, "2004": null, "2005": null, "2006": null, "2007": null, "2008": null, "2009": null, "2010": null, "2011": null, "2012": null, "2013": null, "2014": null, "2015": null, "2016": null, "2017": null, "2018": null, "2019": null, "2020": null }, "geometry": { "type": "Point", "coordinates": [ 22.3200155, 44.1139575 ] } },
{ "type": "Feature", "properties": { "fid": 95.0, "name": "Рготина", "place": "village", "2000": null, "2001": null, "2002": null, "2003": null, "2004": null, "2005": null, "2006": null, "2007": null, "2008": null, "2009": null, "2010": null, "2011": null, "2012": null, "2013": null, "2014": null, "2015": null, "2016": null, "2017": null, "2018": null, "2019": null, "2020": null }, "geometry": { "type": "Point", "coordinates": [ 22.2711874, 44.0078458 ] } },
{ "type": "Feature", "properties": { "fid": 96.0, "name": "Дивчибаре", "place": "village", "2000": null, "2001": null, "2002": null, "2003": null, "2004": null, "2005": null, "2006": null, "2007": null, "2008": null, "2009": null, "2010": null, "2011": null, "2012": null, "2013": null, "2014": null, "2015": null, "2016": null, "2017": null, "2018": null, "2019": null, "2020": null }, "geometry": { "type": "Point", "coordinates": [ 19.9917408, 44.1049677 ] } },
{ "type": "Feature", "properties": { "fid": 97.0, "name": "Мратишић", "place": "village", "2000": null, "2001": null, "2002": null, "2003": null, "2004": null, "2005": null, "2006": null, "2007": null, "2008": null, "2009": null, "2010": null, "2011": null, "2012": null, "2013": null, "2014": null, "2015": null, "2016": null, "2017": null, "2018": null, "2019": null, "2020": null }, "geometry": { "type": "Point", "coordinates": [ 19.9575187, 44.1870471 ] } },
{ "type": "Feature", "properties": { "fid": 98.0, "name": "Буковац", "place": "village", "2000": null, "2001": null, "2002": null, "2003": null, "2004": null, "2005": null, "2006": null, "2007": null, "2008": null, "2009": null, "2010": null, "2011": null, "2012": null, "2013": null, "2014": null, "2015": null, "2016": null, "2017": null, "2018": null, "2019": null, "2020": null }, "geometry": { "type": "Point", "coordinates": [ 19.9772588, 44.1775364 ] } },
{ "type": "Feature", "properties": { "fid": 99.0, "name": "Банатско Ново Село", "place": "village", "2000": null, "2001": null, "2002": null, "2003": null, "2004": null, "2005": null, "2006": null, "2007": null, "2008": null, "2009": null, "2010": null, "2011": null, "2012": null, "2013": null, "2014": null, "2015": null, "2016": null, "2017": null, "2018": null, "2019": null, "2020": null }, "geometry": { "type": "Point", "coordinates": [ 20.7847751, 44.9906809 ] } },
{ "type": "Feature", "properties": { "fid": 100.0, "name": "Рогачица", "place": "village", "2000": null, "2001": null, "2002": null, "2003": null, "2004": null, "2005": null, "2006": null, "2007": null, "2008": null, "2009": null, "2010": null, "2011": null, "2012": null, "2013": null, "2014": null, "2015": null, "2016": null, "2017": null, "2018": null, "2019": null, "2020": null }, "geometry": { "type": "Point", "coordinates": [ 19.6295435, 44.0383298 ] } },
{ "type": "Feature", "properties": { "fid": 101.0, "name": "Балиновић", "place": "village", "2000": null, "2001": null, "2002": null, "2003": null, "2004": null, "2005": null, "2006": null, "2007": null, "2008": null, "2009": null, "2010": null, "2011": null, "2012": null, "2013": null, "2014": null, "2015": null, "2016": null, "2017": null, "2018": null, "2019": null, "2020": null }, "geometry": { "type": "Point", "coordinates": [ 19.7484319, 44.2580904 ] } },
{ "type": "Feature", "properties": { "fid": 102.0, "name": "Дивци", "place": "village", "2000": null, "2001": null, "2002": null, "2003": null, "2004": null, "2005": null, "2006": null, "2007": null, "2008": null, "2009": null, "2010": null, "2011": null, "2012": null, "2013": null, "2014": null, "2015": null, "2016": null, "2017": null, "2018": null, "2019": null, "2020": null }, "geometry": { "type": "Point", "coordinates": [ 20.0273648, 44.30223 ] } },
{ "type": "Feature", "properties": { "fid": 103.0, "name": "Рајковић", "place": "village", "2000": null, "2001": null, "2002": null, "2003": null, "2004": null, "2005": null, "2006": null, "2007": null, "2008": null, "2009": null, "2010": null, "2011": null, "2012": null, "2013": null, "2014": null, "2015": null, "2016": null, "2017": null, "2018": null, "2019": null, "2020": null }, "geometry": { "type": "Point", "coordinates": [ 20.0064393, 44.2269774 ] } },
{ "type": "Feature", "properties": { "fid": 104.0, "name": "Словац", "place": "village", "2000": null, "2001": null, "2002": null, "2003": null, "2004": null, "2005": null, "2006": null, "2007": null, "2008": null, "2009": null, "2010": null, "2011": null, "2012": null, "2013": null, "2014": null, "2015": null, "2016": null, "2017": null, "2018": null, "2019": null, "2020": null }, "geometry": { "type": "Point", "coordinates": [ 20.0885842, 44.3437475 ] } },
{ "type": "Feature", "properties": { "fid": 105.0, "name": "Слатина", "place": "village", "2000": null, "2001": null, "2002": null, "2003": null, "2004": null, "2005": null, "2006": null, "2007": null, "2008": null, "2009": null, "2010": null, "2011": null, "2012": null, "2013": null, "2014": null, "2015": null, "2016": null, "2017": null, "2018": null, "2019": null, "2020": null }, "geometry": { "type": "Point", "coordinates": [ 22.1627445, 44.0406665 ] } },
{ "type": "Feature", "properties": { "fid": 106.0, "name": "Сушица", "place": "village", "2000": null, "2001": null, "2002": null, "2003": null, "2004": null, "2005": null, "2006": null, "2007": null, "2008": null, "2009": null, "2010": null, "2011": null, "2012": null, "2013": null, "2014": null, "2015": null, "2016": null, "2017": null, "2018": null, "2019": null, "2020": null }, "geometry": { "type": "Point", "coordinates": [ 19.8021533, 44.1992862 ] } },
{ "type": "Feature", "properties": { "fid": 107.0, "name": "Крчмар", "place": "village", "2000": null, "2001": null, "2002": null, "2003": null, "2004": null, "2005": null, "2006": null, "2007": null, "2008": null, "2009": null, "2010": null, "2011": null, "2012": null, "2013": null, "2014": null, "2015": null, "2016": null, "2017": null, "2018": null, "2019": null, "2020": null }, "geometry": { "type": "Point", "coordinates": [ 19.9779811, 44.1593154 ] } },
{ "type": "Feature", "properties": { "fid": 108.0, "name": "Осеченица", "place": "village", "2000": null, "2001": null, "2002": null, "2003": null, "2004": null, "2005": null, "2006": null, "2007": null, "2008": null, "2009": null, "2010": null, "2011": null, "2012": null, "2013": null, "2014": null, "2015": null, "2016": null, "2017": null, "2018": null, "2019": null, "2020": null }, "geometry": { "type": "Point", "coordinates": [ 20.023838, 44.1783379 ] } },
{ "type": "Feature", "properties": { "fid": 109.0, "name": "Петница", "place": "village", "2000": null, "2001": null, "2002": null, "2003": null, "2004": null, "2005": null, "2006": null, "2007": null, "2008": null, "2009": null, "2010": null, "2011": null, "2012": null, "2013": null, "2014": null, "2015": null, "2016": null, "2017": null, "2018": null, "2019": null, "2020": null }, "geometry": { "type": "Point", "coordinates": [ 19.9325339, 44.2502148 ] } },
{ "type": "Feature", "properties": { "fid": 110.0, "name": "Клинци", "place": "village", "2000": null, "2001": null, "2002": null, "2003": null, "2004": null, "2005": null, "2006": null, "2007": null, "2008": null, "2009": null, "2010": null, "2011": null, "2012": null, "2013": null, "2014": null, "2015": null, "2016": null, "2017": null, "2018": null, "2019": null, "2020": null }, "geometry": { "type": "Point", "coordinates": [ 19.9517632, 44.2451113 ] } },
{ "type": "Feature", "properties": { "fid": 111.0, "name": "Жабари", "place": "village", "2000": null, "2001": null, "2002": null, "2003": null, "2004": null, "2005": null, "2006": null, "2007": null, "2008": null, "2009": null, "2010": null, "2011": null, "2012": null, "2013": null, "2014": null, "2015": null, "2016": null, "2017": null, "2018": null, "2019": null, "2020": null }, "geometry": { "type": "Point", "coordinates": [ 19.9482507, 44.2244939 ] } },
{ "type": "Feature", "properties": { "fid": 112.0, "name": "Зарубе", "place": "village", "2000": null, "2001": null, "2002": null, "2003": null, "2004": null, "2005": null, "2006": null, "2007": null, "2008": null, "2009": null, "2010": null, "2011": null, "2012": null, "2013": null, "2014": null, "2015": null, "2016": null, "2017": null, "2018": null, "2019": null, "2020": null }, "geometry": { "type": "Point", "coordinates": [ 19.9255583, 44.2135086 ] } },
{ "type": "Feature", "properties": { "fid": 113.0, "name": "Драчић", "place": "village", "2000": null, "2001": null, "2002": null, "2003": null, "2004": null, "2005": null, "2006": null, "2007": null, "2008": null, "2009": null, "2010": null, "2011": null, "2012": null, "2013": null, "2014": null, "2015": null, "2016": null, "2017": null, "2018": null, "2019": null, "2020": null }, "geometry": { "type": "Point", "coordinates": [ 19.9014193, 44.2216406 ] } },
{ "type": "Feature", "properties": { "fid": 114.0, "name": "Дегурић", "place": "village", "2000": null, "2001": null, "2002": null, "2003": null, "2004": null, "2005": null, "2006": null, "2007": null, "2008": null, "2009": null, "2010": null, "2011": null, "2012": null, "2013": null, "2014": null, "2015": null, "2016": null, "2017": null, "2018": null, "2019": null, "2020": null }, "geometry": { "type": "Point", "coordinates": [ 19.8946472, 44.2428517 ] } },
{ "type": "Feature", "properties": { "fid": 115.0, "name": "Бујачић", "place": "village", "2000": null, "2001": null, "2002": null, "2003": null, "2004": null, "2005": null, "2006": null, "2007": null, "2008": null, "2009": null, "2010": null, "2011": null, "2012": null, "2013": null, "2014": null, "2015": null, "2016": null, "2017": null, "2018": null, "2019": null, "2020": null }, "geometry": { "type": "Point", "coordinates": [ 19.9097877, 44.2463626 ] } },
{ "type": "Feature", "properties": { "fid": 116.0, "name": "Равње", "place": "village", "2000": null, "2001": null, "2002": null, "2003": null, "2004": null, "2005": null, "2006": null, "2007": null, "2008": null, "2009": null, "2010": null, "2011": null, "2012": null, "2013": null, "2014": null, "2015": null, "2016": null, "2017": null, "2018": null, "2019": null, "2020": null }, "geometry": { "type": "Point", "coordinates": [ 19.8986041, 44.2009231 ] } },
{ "type": "Feature", "properties": { "fid": 117.0, "name": "Лелић", "place": "village", "2000": null, "2001": null, "2002": null, "2003": null, "2004": null, "2005": null, "2006": null, "2007": null, "2008": null, "2009": null, "2010": null, "2011": null, "2012": null, "2013": null, "2014": null, "2015": null, "2016": null, "2017": null, "2018": null, "2019": null, "2020": null }, "geometry": { "type": "Point", "coordinates": [ 19.827967, 44.2141587 ] } },
{ "type": "Feature", "properties": { "fid": 118.0, "name": "Мрчајевци", "place": "village", "2000": null, "2001": null, "2002": null, "2003": null, "2004": null, "2005": null, "2006": null, "2007": null, "2008": null, "2009": null, "2010": null, "2011": null, "2012": null, "2013": null, "2014": null, "2015": null, "2016": null, "2017": null, "2018": null, "2019": null, "2020": null }, "geometry": { "type": "Point", "coordinates": [ 20.5365239, 43.865226 ] } },
{ "type": "Feature", "properties": { "fid": 119.0, "name": "Прељина", "place": "village", "2000": null, "2001": null, "2002": null, "2003": null, "2004": null, "2005": null, "2006": null, "2007": null, "2008": null, "2009": null, "2010": null, "2011": null, "2012": null, "2013": null, "2014": null, "2015": null, "2016": null, "2017": null, "2018": null, "2019": null, "2020": null }, "geometry": { "type": "Point", "coordinates": [ 20.4178774, 43.9013757 ] } },
{ "type": "Feature", "properties": { "fid": 120.0, "name": "Новаци", "place": "village", "2000": null, "2001": null, "2002": null, "2003": null, "2004": null, "2005": null, "2006": null, "2007": null, "2008": null, "2009": null, "2010": null, "2011": null, "2012": null, "2013": null, "2014": null, "2015": null, "2016": null, "2017": null, "2018": null, "2019": null, "2020": null }, "geometry": { "type": "Point", "coordinates": [ 19.9221529, 44.4946918 ] } },
{ "type": "Feature", "properties": { "fid": 121.0, "name": "Зукве", "place": "village", "2000": null, "2001": null, "2002": null, "2003": null, "2004": null, "2005": null, "2006": null, "2007": null, "2008": null, "2009": null, "2010": null, "2011": null, "2012": null, "2013": null, "2014": null, "2015": null, "2016": null, "2017": null, "2018": null, "2019": null, "2020": null }, "geometry": { "type": "Point", "coordinates": [ 19.8718132, 44.4816802 ] } },
{ "type": "Feature", "properties": { "fid": 122.0, "name": "Пријездић", "place": "village", "2000": null, "2001": null, "2002": null, "2003": null, "2004": null, "2005": null, "2006": null, "2007": null, "2008": null, "2009": null, "2010": null, "2011": null, "2012": null, "2013": null, "2014": null, "2015": null, "2016": null, "2017": null, "2018": null, "2019": null, "2020": null }, "geometry": { "type": "Point", "coordinates": [ 19.9277055, 44.1940501 ] } },
{ "type": "Feature", "properties": { "fid": 123.0, "name": "Голубац", "place": "village", "2000": null, "2001": null, "2002": null, "2003": null, "2004": null, "2005": null, "2006": null, "2007": null, "2008": null, "2009": null, "2010": null, "2011": null, "2012": null, "2013": null, "2014": null, "2015": null, "2016": null, "2017": null, "2018": null, "2019": null, "2020": null }, "geometry": { "type": "Point", "coordinates": [ 19.9938059, 44.1859802 ] } },
{ "type": "Feature", "properties": { "fid": 124.0, "name": "Пауне", "place": "village", "2000": null, "2001": null, "2002": null, "2003": null, "2004": null, "2005": null, "2006": null, "2007": null, "2008": null, "2009": null, "2010": null, "2011": null, "2012": null, "2013": null, "2014": null, "2015": null, "2016": null, "2017": null, "2018": null, "2019": null, "2020": null }, "geometry": { "type": "Point", "coordinates": [ 19.9790323, 44.2452284 ] } },
{ "type": "Feature", "properties": { "fid": 125.0, "name": "Робаје", "place": "village", "2000": null, "2001": null, "2002": null, "2003": null, "2004": null, "2005": null, "2006": null, "2007": null, "2008": null, "2009": null, "2010": null, "2011": null, "2012": null, "2013": null, "2014": null, "2015": null, "2016": null, "2017": null, "2018": null, "2019": null, "2020": null }, "geometry": { "type": "Point", "coordinates": [ 19.9790323, 44.2155848 ] } },
{ "type": "Feature", "properties": { "fid": 126.0, "name": "Мрчић", "place": "village", "2000": null, "2001": null, "2002": null, "2003": null, "2004": null, "2005": null, "2006": null, "2007": null, "2008": null, "2009": null, "2010": null, "2011": null, "2012": null, "2013": null, "2014": null, "2015": null, "2016": null, "2017": null, "2018": null, "2019": null, "2020": null }, "geometry": { "type": "Point", "coordinates": [ 19.9834036, 44.2704978 ] } },
{ "type": "Feature", "properties": { "fid": 127.0, "name": "Белошевац", "place": "village", "2000": null, "2001": null, "2002": null, "2003": null, "2004": null, "2005": null, "2006": null, "2007": null, "2008": null, "2009": null, "2010": null, "2011": null, "2012": null, "2013": null, "2014": null, "2015": null, "2016": null, "2017": null, "2018": null, "2019": null, "2020": null }, "geometry": { "type": "Point", "coordinates": [ 19.9429834, 44.2717842 ] } },
{ "type": "Feature", "properties": { "fid": 128.0, "name": "Бачевци", "place": "village", "2000": null, "2001": null, "2002": null, "2003": null, "2004": null, "2005": null, "2006": null, "2007": null, "2008": null, "2009": null, "2010": null, "2011": null, "2012": null, "2013": null, "2014": null, "2015": null, "2016": null, "2017": null, "2018": null, "2019": null, "2020": null }, "geometry": { "type": "Point", "coordinates": [ 19.8941791, 44.1734513 ] } },
{ "type": "Feature", "properties": { "fid": 129.0, "name": "Биљановац", "place": "village", "2000": null, "2001": null, "2002": null, "2003": null, "2004": null, "2005": null, "2006": null, "2007": null, "2008": null, "2009": null, "2010": null, "2011": null, "2012": null, "2013": null, "2014": null, "2015": null, "2016": null, "2017": null, "2018": null, "2019": null, "2020": null }, "geometry": { "type": "Point", "coordinates": [ 20.6552737, 43.4099954 ] } },
{ "type": "Feature", "properties": { "fid": 130.0, "name": "Ушће", "place": "village", "2000": null, "2001": null, "2002": null, "2003": null, "2004": null, "2005": null, "2006": null, "2007": null, "2008": null, "2009": null, "2010": null, "2011": null, "2012": null, "2013": null, "2014": null, "2015": null, "2016": null, "2017": null, "2018": null, "2019": null, "2020": null }, "geometry": { "type": "Point", "coordinates": [ 20.6150281, 43.4683624 ] } },
{ "type": "Feature", "properties": { "fid": 131.0, "name": "Пецка", "place": "village", "2000": null, "2001": null, "2002": null, "2003": null, "2004": null, "2005": null, "2006": null, "2007": null, "2008": null, "2009": null, "2010": null, "2011": null, "2012": null, "2013": null, "2014": null, "2015": null, "2016": null, "2017": null, "2018": null, "2019": null, "2020": null }, "geometry": { "type": "Point", "coordinates": [ 19.5385594, 44.292186 ] } },
{ "type": "Feature", "properties": { "fid": 132.0, "name": "Каменица", "place": "village", "2000": null, "2001": null, "2002": null, "2003": null, "2004": null, "2005": null, "2006": null, "2007": null, "2008": null, "2009": null, "2010": null, "2011": null, "2012": null, "2013": null, "2014": null, "2015": null, "2016": null, "2017": null, "2018": null, "2019": null, "2020": null }, "geometry": { "type": "Point", "coordinates": [ 19.7218937, 44.3443838 ] } },
{ "type": "Feature", "properties": { "fid": 133.0, "name": "Причевић", "place": "village", "2000": null, "2001": null, "2002": null, "2003": null, "2004": null, "2005": null, "2006": null, "2007": null, "2008": null, "2009": null, "2010": null, "2011": null, "2012": null, "2013": null, "2014": null, "2015": null, "2016": null, "2017": null, "2018": null, "2019": null, "2020": null }, "geometry": { "type": "Point", "coordinates": [ 19.7729201, 44.2799588 ] } },
{ "type": "Feature", "properties": { "fid": 134.0, "name": "Стубо", "place": "village", "2000": null, "2001": null, "2002": null, "2003": null, "2004": null, "2005": null, "2006": null, "2007": null, "2008": null, "2009": null, "2010": null, "2011": null, "2012": null, "2013": null, "2014": null, "2015": null, "2016": null, "2017": null, "2018": null, "2019": null, "2020": null }, "geometry": { "type": "Point", "coordinates": [ 19.7742303, 44.2309696 ] } },
{ "type": "Feature", "properties": { "fid": 135.0, "name": "Ба", "place": "village", "2000": null, "2001": null, "2002": null, "2003": null, "2004": null, "2005": null, "2006": null, "2007": null, "2008": null, "2009": null, "2010": null, "2011": null, "2012": null, "2013": null, "2014": null, "2015": null, "2016": null, "2017": null, "2018": null, "2019": null, "2020": null }, "geometry": { "type": "Point", "coordinates": [ 20.1900143, 44.1536678 ] } },
{ "type": "Feature", "properties": { "fid": 136.0, "name": "Бранковина", "place": "village", "2000": null, "2001": null, "2002": null, "2003": null, "2004": null, "2005": null, "2006": null, "2007": null, "2008": null, "2009": null, "2010": null, "2011": null, "2012": null, "2013": null, "2014": null, "2015": null, "2016": null, "2017": null, "2018": null, "2019": null, "2020": null }, "geometry": { "type": "Point", "coordinates": [ 19.8993916, 44.3529767 ] } },
{ "type": "Feature", "properties": { "fid": 137.0, "name": "Чучуге", "place": "village", "2000": null, "2001": null, "2002": null, "2003": null, "2004": null, "2005": null, "2006": null, "2007": null, "2008": null, "2009": null, "2010": null, "2011": null, "2012": null, "2013": null, "2014": null, "2015": null, "2016": null, "2017": null, "2018": null, "2019": null, "2020": null }, "geometry": { "type": "Point", "coordinates": [ 19.9609595, 44.422475 ] } },
{ "type": "Feature", "properties": { "fid": 138.0, "name": "Војка", "place": "village", "2000": null, "2001": null, "2002": null, "2003": null, "2004": null, "2005": null, "2006": null, "2007": null, "2008": null, "2009": null, "2010": null, "2011": null, "2012": null, "2013": null, "2014": null, "2015": null, "2016": null, "2017": null, "2018": null, "2019": null, "2020": null }, "geometry": { "type": "Point", "coordinates": [ 20.1516279, 44.935625 ] } },
{ "type": "Feature", "properties": { "fid": 139.0, "name": "Владимировац", "place": "village", "2000": null, "2001": null, "2002": null, "2003": null, "2004": null, "2005": null, "2006": null, "2007": null, "2008": null, "2009": null, "2010": null, "2011": null, "2012": null, "2013": null, "2014": null, "2015": null, "2016": null, "2017": null, "2018": null, "2019": null, "2020": null }, "geometry": { "type": "Point", "coordinates": [ 20.8654002, 45.0318784 ] } },
{ "type": "Feature", "properties": { "fid": 140.0, "name": "Пепељевац", "place": "village", "2000": null, "2001": null, "2002": null, "2003": null, "2004": null, "2005": null, "2006": null, "2007": null, "2008": null, "2009": null, "2010": null, "2011": null, "2012": null, "2013": null, "2014": null, "2015": null, "2016": null, "2017": null, "2018": null, "2019": null, "2020": null }, "geometry": { "type": "Point", "coordinates": [ 20.1589779, 44.3401015 ] } },
{ "type": "Feature", "properties": { "fid": 141.0, "name": "Скакавци", "place": "village", "2000": null, "2001": null, "2002": null, "2003": null, "2004": null, "2005": null, "2006": null, "2007": null, "2008": null, "2009": null, "2010": null, "2011": null, "2012": null, "2013": null, "2014": null, "2015": null, "2016": null, "2017": null, "2018": null, "2019": null, "2020": null }, "geometry": { "type": "Point", "coordinates": [ 19.966545, 44.0539318 ] } },
{ "type": "Feature", "properties": { "fid": 142.0, "name": "Росићи", "place": "village", "2000": null, "2001": null, "2002": null, "2003": null, "2004": null, "2005": null, "2006": null, "2007": null, "2008": null, "2009": null, "2010": null, "2011": null, "2012": null, "2013": null, "2014": null, "2015": null, "2016": null, "2017": null, "2018": null, "2019": null, "2020": null }, "geometry": { "type": "Point", "coordinates": [ 19.9415682, 44.0601 ] } },
{ "type": "Feature", "properties": { "fid": 143.0, "name": "Мионица", "place": "village", "2000": null, "2001": null, "2002": null, "2003": null, "2004": null, "2005": null, "2006": null, "2007": null, "2008": null, "2009": null, "2010": null, "2011": null, "2012": null, "2013": null, "2014": null, "2015": null, "2016": null, "2017": null, "2018": null, "2019": null, "2020": null }, "geometry": { "type": "Point", "coordinates": [ 19.9565028, 44.0293143 ] } },
{ "type": "Feature", "properties": { "fid": 144.0, "name": "Мрчићи", "place": "village", "2000": null, "2001": null, "2002": null, "2003": null, "2004": null, "2005": null, "2006": null, "2007": null, "2008": null, "2009": null, "2010": null, "2011": null, "2012": null, "2013": null, "2014": null, "2015": null, "2016": null, "2017": null, "2018": null, "2019": null, "2020": null }, "geometry": { "type": "Point", "coordinates": [ 19.9111614, 44.0977287 ] } },
{ "type": "Feature", "properties": { "fid": 145.0, "name": "Врагочаница", "place": "village", "2000": null, "2001": null, "2002": null, "2003": null, "2004": null, "2005": null, "2006": null, "2007": null, "2008": null, "2009": null, "2010": null, "2011": null, "2012": null, "2013": null, "2014": null, "2015": null, "2016": null, "2017": null, "2018": null, "2019": null, "2020": null }, "geometry": { "type": "Point", "coordinates": [ 19.6912001, 44.2919269 ] } },
{ "type": "Feature", "properties": { "fid": 146.0, "name": "Попучке", "place": "village", "2000": null, "2001": null, "2002": null, "2003": null, "2004": null, "2005": null, "2006": null, "2007": null, "2008": null, "2009": null, "2010": null, "2011": null, "2012": null, "2013": null, "2014": null, "2015": null, "2016": null, "2017": null, "2018": null, "2019": null, "2020": null }, "geometry": { "type": "Point", "coordinates": [ 19.9608173, 44.2977349 ] } },
{ "type": "Feature", "properties": { "fid": 147.0, "name": "Шушеока", "place": "village", "2000": null, "2001": null, "2002": null, "2003": null, "2004": null, "2005": null, "2006": null, "2007": null, "2008": null, "2009": null, "2010": null, "2011": null, "2012": null, "2013": null, "2014": null, "2015": null, "2016": null, "2017": null, "2018": null, "2019": null, "2020": null }, "geometry": { "type": "Point", "coordinates": [ 20.0037096, 44.2739231 ] } },
{ "type": "Feature", "properties": { "fid": 148.0, "name": "Златарић", "place": "village", "2000": null, "2001": null, "2002": null, "2003": null, "2004": null, "2005": null, "2006": null, "2007": null, "2008": null, "2009": null, "2010": null, "2011": null, "2012": null, "2013": null, "2014": null, "2015": null, "2016": null, "2017": null, "2018": null, "2019": null, "2020": null }, "geometry": { "type": "Point", "coordinates": [ 19.8206477, 44.2891398 ] } },
{ "type": "Feature", "properties": { "fid": 149.0, "name": "Доња Буковица", "place": "village", "2000": null, "2001": null, "2002": null, "2003": null, "2004": null, "2005": null, "2006": null, "2007": null, "2008": null, "2009": null, "2010": null, "2011": null, "2012": null, "2013": null, "2014": null, "2015": null, "2016": null, "2017": null, "2018": null, "2019": null, "2020": null }, "geometry": { "type": "Point", "coordinates": [ 19.7984176, 44.3100871 ] } },
{ "type": "Feature", "properties": { "fid": 150.0, "name": "Јовања", "place": "village", "2000": null, "2001": null, "2002": null, "2003": null, "2004": null, "2005": null, "2006": null, "2007": null, "2008": null, "2009": null, "2010": null, "2011": null, "2012": null, "2013": null, "2014": null, "2015": null, "2016": null, "2017": null, "2018": null, "2019": null, "2020": null }, "geometry": { "type": "Point", "coordinates": [ 19.8063998, 44.2640671 ] } },
{ "type": "Feature", "properties": { "fid": 151.0, "name": "Мердаре", "place": "village", "2000": null, "2001": null, "2002": null, "2003": null, "2004": null, "2005": null, "2006": null, "2007": null, "2008": null, "2009": null, "2010": null, "2011": null, "2012": null, "2013": null, "2014": null, "2015": null, "2016": null, "2017": null, "2018": null, "2019": null, "2020": null }, "geometry": { "type": "Point", "coordinates": [ 21.256357, 42.9454071 ] } },
{ "type": "Feature", "properties": { "fid": 152.0, "name": "Белољин", "place": "village", "2000": null, "2001": null, "2002": null, "2003": null, "2004": null, "2005": null, "2006": null, "2007": null, "2008": null, "2009": null, "2010": null, "2011": null, "2012": null, "2013": null, "2014": null, "2015": null, "2016": null, "2017": null, "2018": null, "2019": null, "2020": null }, "geometry": { "type": "Point", "coordinates": [ 21.4029069, 43.2316209 ] } },
{ "type": "Feature", "properties": { "fid": 153.0, "name": "Пролом", "place": "village", "2000": null, "2001": null, "2002": null, "2003": null, "2004": null, "2005": null, "2006": null, "2007": null, "2008": null, "2009": null, "2010": null, "2011": null, "2012": null, "2013": null, "2014": null, "2015": null, "2016": null, "2017": null, "2018": null, "2019": null, "2020": null }, "geometry": { "type": "Point", "coordinates": [ 21.4008824, 43.0444824 ] } },
{ "type": "Feature", "properties": { "fid": 154.0, "name": "Рожанство", "place": "village", "2000": null, "2001": null, "2002": null, "2003": null, "2004": null, "2005": null, "2006": null, "2007": null, "2008": null, "2009": null, "2010": null, "2011": null, "2012": null, "2013": null, "2014": null, "2015": null, "2016": null, "2017": null, "2018": null, "2019": null, "2020": null }, "geometry": { "type": "Point", "coordinates": [ 19.8346844, 43.7205552 ] } },
{ "type": "Feature", "properties": { "fid": 155.0, "name": "Мачкат", "place": "village", "2000": null, "2001": null, "2002": null, "2003": null, "2004": null, "2005": null, "2006": null, "2007": null, "2008": null, "2009": null, "2010": null, "2011": null, "2012": null, "2013": null, "2014": null, "2015": null, "2016": null, "2017": null, "2018": null, "2019": null, "2020": null }, "geometry": { "type": "Point", "coordinates": [ 19.7803537, 43.792561 ] } },
{ "type": "Feature", "properties": { "fid": 156.0, "name": "Кремна", "place": "village", "2000": null, "2001": null, "2002": null, "2003": null, "2004": null, "2005": null, "2006": null, "2007": null, "2008": null, "2009": null, "2010": null, "2011": null, "2012": null, "2013": null, "2014": null, "2015": null, "2016": null, "2017": null, "2018": null, "2019": null, "2020": null }, "geometry": { "type": "Point", "coordinates": [ 19.5800524, 43.8502197 ] } },
{ "type": "Feature", "properties": { "fid": 157.0, "name": "Вајска", "place": "village", "2000": null, "2001": null, "2002": null, "2003": null, "2004": null, "2005": null, "2006": null, "2007": null, "2008": null, "2009": null, "2010": null, "2011": null, "2012": null, "2013": null, "2014": null, "2015": null, "2016": null, "2017": null, "2018": null, "2019": null, "2020": null }, "geometry": { "type": "Point", "coordinates": [ 19.112122, 45.4120269 ] } },
{ "type": "Feature", "properties": { "fid": 158.0, "name": "Бођани", "place": "village", "2000": null, "2001": null, "2002": null, "2003": null, "2004": null, "2005": null, "2006": null, "2007": null, "2008": null, "2009": null, "2010": null, "2011": null, "2012": null, "2013": null, "2014": null, "2015": null, "2016": null, "2017": null, "2018": null, "2019": null, "2020": null }, "geometry": { "type": "Point", "coordinates": [ 19.1040539, 45.3887642 ] } },
{ "type": "Feature", "properties": { "fid": 159.0, "name": "Горња Љубата", "place": "village", "2000": null, "2001": null, "2002": null, "2003": null, "2004": null, "2005": null, "2006": null, "2007": null, "2008": null, "2009": null, "2010": null, "2011": null, "2012": null, "2013": null, "2014": null, "2015": null, "2016": null, "2017": null, "2018": null, "2019": null, "2020": null }, "geometry": { "type": "Point", "coordinates": [ 22.2945137, 42.5010114 ] } },
{ "type": "Feature", "properties": { "fid": 160.0, "name": "Губеревац", "place": "village", "2000": null, "2001": null, "2002": null, "2003": null, "2004": null, "2005": null, "2006": null, "2007": null, "2008": null, "2009": null, "2010": null, "2011": null, "2012": null, "2013": null, "2014": null, "2015": null, "2016": null, "2017": null, "2018": null, "2019": null, "2020": null }, "geometry": { "type": "Point", "coordinates": [ 22.028541, 42.947969 ] } },
{ "type": "Feature", "properties": { "fid": 161.0, "name": "Грамађе", "place": "village", "2000": null, "2001": null, "2002": null, "2003": null, "2004": null, "2005": null, "2006": null, "2007": null, "2008": null, "2009": null, "2010": null, "2011": null, "2012": null, "2013": null, "2014": null, "2015": null, "2016": null, "2017": null, "2018": null, "2019": null, "2020": null }, "geometry": { "type": "Point", "coordinates": [ 22.0550906, 42.6553767 ] } },
{ "type": "Feature", "properties": { "fid": 162.0, "name": "Стрезовце", "place": "village", "2000": null, "2001": null, "2002": null, "2003": null, "2004": null, "2005": null, "2006": null, "2007": null, "2008": null, "2009": null, "2010": null, "2011": null, "2012": null, "2013": null, "2014": null, "2015": null, "2016": null, "2017": null, "2018": null, "2019": null, "2020": null }, "geometry": { "type": "Point", "coordinates": [ 21.7336689, 42.2725151 ] } },
{ "type": "Feature", "properties": { "fid": 163.0, "name": "Самољица", "place": "village", "2000": null, "2001": null, "2002": null, "2003": null, "2004": null, "2005": null, "2006": null, "2007": null, "2008": null, "2009": null, "2010": null, "2011": null, "2012": null, "2013": null, "2014": null, "2015": null, "2016": null, "2017": null, "2018": null, "2019": null, "2020": null }, "geometry": { "type": "Point", "coordinates": [ 21.7354084, 42.3864057 ] } },
{ "type": "Feature", "properties": { "fid": 164.0, "name": "Биљача", "place": "village", "2000": null, "2001": null, "2002": null, "2003": null, "2004": null, "2005": null, "2006": null, "2007": null, "2008": null, "2009": null, "2010": null, "2011": null, "2012": null, "2013": null, "2014": null, "2015": null, "2016": null, "2017": null, "2018": null, "2019": null, "2020": null }, "geometry": { "type": "Point", "coordinates": [ 21.7507498, 42.3557186 ] } },
{ "type": "Feature", "properties": { "fid": 165.0, "name": "Богојевце", "place": "village", "2000": null, "2001": null, "2002": null, "2003": null, "2004": null, "2005": null, "2006": null, "2007": null, "2008": null, "2009": null, "2010": null, "2011": null, "2012": null, "2013": null, "2014": null, "2015": null, "2016": null, "2017": null, "2018": null, "2019": null, "2020": null }, "geometry": { "type": "Point", "coordinates": [ 21.9615366, 43.0485282 ] } },
{ "type": "Feature", "properties": { "fid": 166.0, "name": "Алиђерце", "place": "village", "2000": null, "2001": null, "2002": null, "2003": null, "2004": null, "2005": null, "2006": null, "2007": null, "2008": null, "2009": null, "2010": null, "2011": null, "2012": null, "2013": null, "2014": null, "2015": null, "2016": null, "2017": null, "2018": null, "2019": null, "2020": null }, "geometry": { "type": "Point", "coordinates": [ 21.729113, 42.291401 ] } },
{ "type": "Feature", "properties": { "fid": 167.0, "name": "Норча", "place": "village", "2000": null, "2001": null, "2002": null, "2003": null, "2004": null, "2005": null, "2006": null, "2007": null, "2008": null, "2009": null, "2010": null, "2011": null, "2012": null, "2013": null, "2014": null, "2015": null, "2016": null, "2017": null, "2018": null, "2019": null, "2020": null }, "geometry": { "type": "Point", "coordinates": [ 21.6417114, 42.2983071 ] } },
{ "type": "Feature", "properties": { "fid": 168.0, "name": "Лучане", "place": "village", "2000": null, "2001": null, "2002": null, "2003": null, "2004": null, "2005": null, "2006": null, "2007": null, "2008": null, "2009": null, "2010": null, "2011": null, "2012": null, "2013": null, "2014": null, "2015": null, "2016": null, "2017": null, "2018": null, "2019": null, "2020": null }, "geometry": { "type": "Point", "coordinates": [ 21.7051228, 42.4463695 ] } },
{ "type": "Feature", "properties": { "fid": 169.0, "name": "Летовица", "place": "village", "2000": null, "2001": null, "2002": null, "2003": null, "2004": null, "2005": null, "2006": null, "2007": null, "2008": null, "2009": null, "2010": null, "2011": null, "2012": null, "2013": null, "2014": null, "2015": null, "2016": null, "2017": null, "2018": null, "2019": null, "2020": null }, "geometry": { "type": "Point", "coordinates": [ 21.692531, 42.393079 ] } },
{ "type": "Feature", "properties": { "fid": 170.0, "name": "Братоселце", "place": "village", "2000": null, "2001": null, "2002": null, "2003": null, "2004": null, "2005": null, "2006": null, "2007": null, "2008": null, "2009": null, "2010": null, "2011": null, "2012": null, "2013": null, "2014": null, "2015": null, "2016": null, "2017": null, "2018": null, "2019": null, "2020": null }, "geometry": { "type": "Point", "coordinates": [ 21.74751, 42.341912 ] } },
{ "type": "Feature", "properties": { "fid": 171.0, "name": "Кончуљ", "place": "village", "2000": null, "2001": null, "2002": null, "2003": null, "2004": null, "2005": null, "2006": null, "2007": null, "2008": null, "2009": null, "2010": null, "2011": null, "2012": null, "2013": null, "2014": null, "2015": null, "2016": null, "2017": null, "2018": null, "2019": null, "2020": null }, "geometry": { "type": "Point", "coordinates": [ 21.687382, 42.474944 ] } },
{ "type": "Feature", "properties": { "fid": 172.0, "name": "Душановац", "place": "village", "2000": null, "2001": null, "2002": null, "2003": null, "2004": null, "2005": null, "2006": null, "2007": null, "2008": null, "2009": null, "2010": null, "2011": null, "2012": null, "2013": null, "2014": null, "2015": null, "2016": null, "2017": null, "2018": null, "2019": null, "2020": null }, "geometry": { "type": "Point", "coordinates": [ 22.5247376, 44.2934937 ] } },
{ "type": "Feature", "properties": { "fid": 173.0, "name": "Клокочевац", "place": "village", "2000": null, "2001": null, "2002": null, "2003": null, "2004": null, "2005": null, "2006": null, "2007": null, "2008": null, "2009": null, "2010": null, "2011": null, "2012": null, "2013": null, "2014": null, "2015": null, "2016": null, "2017": null, "2018": null, "2019": null, "2020": null }, "geometry": { "type": "Point", "coordinates": [ 22.1798355, 44.3460115 ] } },
{ "type": "Feature", "properties": { "fid": 174.0, "name": "Тополница", "place": "village", "2000": null, "2001": null, "2002": null, "2003": null, "2004": null, "2005": null, "2006": null, "2007": null, "2008": null, "2009": null, "2010": null, "2011": null, "2012": null, "2013": null, "2014": null, "2015": null, "2016": null, "2017": null, "2018": null, "2019": null, "2020": null }, "geometry": { "type": "Point", "coordinates": [ 22.1720414, 44.3899273 ] } },
{ "type": "Feature", "properties": { "fid": 175.0, "name": "Мосна", "place": "village", "2000": null, "2001": null, "2002": null, "2003": null, "2004": null, "2005": null, "2006": null, "2007": null, "2008": null, "2009": null, "2010": null, "2011": null, "2012": null, "2013": null, "2014": null, "2015": null, "2016": null, "2017": null, "2018": null, "2019": null, "2020": null }, "geometry": { "type": "Point", "coordinates": [ 22.1744447, 44.4295358 ] } },
{ "type": "Feature", "properties": { "fid": 176.0, "name": "Брусник", "place": "village", "2000": null, "2001": null, "2002": null, "2003": null, "2004": null, "2005": null, "2006": null, "2007": null, "2008": null, "2009": null, "2010": null, "2011": null, "2012": null, "2013": null, "2014": null, "2015": null, "2016": null, "2017": null, "2018": null, "2019": null, "2020": null }, "geometry": { "type": "Point", "coordinates": [ 22.4469796, 44.1058313 ] } },
{ "type": "Feature", "properties": { "fid": 177.0, "name": "Кленовац", "place": "village", "2000": null, "2001": null, "2002": null, "2003": null, "2004": null, "2005": null, "2006": null, "2007": null, "2008": null, "2009": null, "2010": null, "2011": null, "2012": null, "2013": null, "2014": null, "2015": null, "2016": null, "2017": null, "2018": null, "2019": null, "2020": null }, "geometry": { "type": "Point", "coordinates": [ 22.4548219, 44.1175419 ] } },
{ "type": "Feature", "properties": { "fid": 178.0, "name": "Браничево", "place": "village", "2000": null, "2001": null, "2002": null, "2003": null, "2004": null, "2005": null, "2006": null, "2007": null, "2008": null, "2009": null, "2010": null, "2011": null, "2012": null, "2013": null, "2014": null, "2015": null, "2016": null, "2017": null, "2018": null, "2019": null, "2020": null }, "geometry": { "type": "Point", "coordinates": [ 21.5363159, 44.6997846 ] } },
{ "type": "Feature", "properties": { "fid": 179.0, "name": "Јелашница", "place": "village", "2000": null, "2001": null, "2002": null, "2003": null, "2004": null, "2005": null, "2006": null, "2007": null, "2008": null, "2009": null, "2010": null, "2011": null, "2012": null, "2013": null, "2014": null, "2015": null, "2016": null, "2017": null, "2018": null, "2019": null, "2020": null }, "geometry": { "type": "Point", "coordinates": [ 22.3237461, 44.0330796 ] } },
{ "type": "Feature", "properties": { "fid": 180.0, "name": "Штубик", "place": "village", "2000": null, "2001": null, "2002": null, "2003": null, "2004": null, "2005": null, "2006": null, "2007": null, "2008": null, "2009": null, "2010": null, "2011": null, "2012": null, "2013": null, "2014": null, "2015": null, "2016": null, "2017": null, "2018": null, "2019": null, "2020": null }, "geometry": { "type": "Point", "coordinates": [ 22.3528143, 44.2910717 ] } },
{ "type": "Feature", "properties": { "fid": 181.0, "name": "Заграђе", "place": "village", "2000": null, "2001": null, "2002": null, "2003": null, "2004": null, "2005": null, "2006": null, "2007": null, "2008": null, "2009": null, "2010": null, "2011": null, "2012": null, "2013": null, "2014": null, "2015": null, "2016": null, "2017": null, "2018": null, "2019": null, "2020": null }, "geometry": { "type": "Point", "coordinates": [ 20.4348145, 44.161814 ] } },
{ "type": "Feature", "properties": { "fid": 182.0, "name": "Адашевци", "place": "village", "2000": null, "2001": null, "2002": null, "2003": null, "2004": null, "2005": null, "2006": null, "2007": null, "2008": null, "2009": null, "2010": null, "2011": null, "2012": null, "2013": null, "2014": null, "2015": null, "2016": null, "2017": null, "2018": null, "2019": null, "2020": null }, "geometry": { "type": "Point", "coordinates": [ 19.2204788, 45.0831683 ] } },
{ "type": "Feature", "properties": { "fid": 183.0, "name": "Котешица", "place": "village", "2000": null, "2001": null, "2002": null, "2003": null, "2004": null, "2005": null, "2006": null, "2007": null, "2008": null, "2009": null, "2010": null, "2011": null, "2012": null, "2013": null, "2014": null, "2015": null, "2016": null, "2017": null, "2018": null, "2019": null, "2020": null }, "geometry": { "type": "Point", "coordinates": [ 19.8512683, 44.3315736 ] } },
{ "type": "Feature", "properties": { "fid": 184.0, "name": "Војвода Степа", "place": "village", "2000": null, "2001": null, "2002": null, "2003": null, "2004": null, "2005": null, "2006": null, "2007": null, "2008": null, "2009": null, "2010": null, "2011": null, "2012": null, "2013": null, "2014": null, "2015": null, "2016": null, "2017": null, "2018": null, "2019": null, "2020": null }, "geometry": { "type": "Point", "coordinates": [ 20.6550975, 45.6847694 ] } },
{ "type": "Feature", "properties": { "fid": 185.0, "name": "Житиште", "place": "village", "2000": null, "2001": null, "2002": null, "2003": null, "2004": null, "2005": null, "2006": null, "2007": null, "2008": null, "2009": null, "2010": null, "2011": null, "2012": null, "2013": null, "2014": null, "2015": null, "2016": null, "2017": null, "2018": null, "2019": null, "2020": null }, "geometry": { "type": "Point", "coordinates": [ 20.5477867, 45.4824819 ] } },
{ "type": "Feature", "properties": { "fid": 186.0, "name": "Банатски Двор", "place": "village", "2000": null, "2001": null, "2002": null, "2003": null, "2004": null, "2005": null, "2006": null, "2007": null, "2008": null, "2009": null, "2010": null, "2011": null, "2012": null, "2013": null, "2014": null, "2015": null, "2016": null, "2017": null, "2018": null, "2019": null, "2020": null }, "geometry": { "type": "Point", "coordinates": [ 20.5127277, 45.5237849 ] } },
{ "type": "Feature", "properties": { "fid": 187.0, "name": "Честерег", "place": "village", "2000": null, "2001": null, "2002": null, "2003": null, "2004": null, "2005": null, "2006": null, "2007": null, "2008": null, "2009": null, "2010": null, "2011": null, "2012": null, "2013": null, "2014": null, "2015": null, "2016": null, "2017": null, "2018": null, "2019": null, "2020": null }, "geometry": { "type": "Point", "coordinates": [ 20.5329503, 45.5626043 ] } },
{ "type": "Feature", "properties": { "fid": 188.0, "name": "Александрово", "place": "village", "2000": null, "2001": null, "2002": null, "2003": null, "2004": null, "2005": null, "2006": null, "2007": null, "2008": null, "2009": null, "2010": null, "2011": null, "2012": null, "2013": null, "2014": null, "2015": null, "2016": null, "2017": null, "2018": null, "2019": null, "2020": null }, "geometry": { "type": "Point", "coordinates": [ 20.5915942, 45.6377825 ] } },
{ "type": "Feature", "properties": { "fid": 189.0, "name": "Нова Црња", "place": "village", "2000": null, "2001": null, "2002": null, "2003": null, "2004": null, "2005": null, "2006": null, "2007": null, "2008": null, "2009": null, "2010": null, "2011": null, "2012": null, "2013": null, "2014": null, "2015": null, "2016": null, "2017": null, "2018": null, "2019": null, "2020": null }, "geometry": { "type": "Point", "coordinates": [ 20.6070532, 45.6678337 ] } },
{ "type": "Feature", "properties": { "fid": 190.0, "name": "Нови Козјак", "place": "village", "2000": null, "2001": null, "2002": null, "2003": null, "2004": null, "2005": null, "2006": null, "2007": null, "2008": null, "2009": null, "2010": null, "2011": null, "2012": null, "2013": null, "2014": null, "2015": null, "2016": null, "2017": null, "2018": null, "2019": null, "2020": null }, "geometry": { "type": "Point", "coordinates": [ 20.8650629, 45.1848366 ] } },
{ "type": "Feature", "properties": { "fid": 191.0, "name": "Добрица", "place": "village", "2000": null, "2001": null, "2002": null, "2003": null, "2004": null, "2005": null, "2006": null, "2007": null, "2008": null, "2009": null, "2010": null, "2011": null, "2012": null, "2013": null, "2014": null, "2015": null, "2016": null, "2017": null, "2018": null, "2019": null, "2020": null }, "geometry": { "type": "Point", "coordinates": [ 20.8472215, 45.2148861 ] } },
{ "type": "Feature", "properties": { "fid": 192.0, "name": "Иланџа", "place": "village", "2000": null, "2001": null, "2002": null, "2003": null, "2004": null, "2005": null, "2006": null, "2007": null, "2008": null, "2009": null, "2010": null, "2011": null, "2012": null, "2013": null, "2014": null, "2015": null, "2016": null, "2017": null, "2018": null, "2019": null, "2020": null }, "geometry": { "type": "Point", "coordinates": [ 20.9213127, 45.1683183 ] } },
{ "type": "Feature", "properties": { "fid": 193.0, "name": "Таково", "place": "village", "2000": null, "2001": null, "2002": null, "2003": null, "2004": null, "2005": null, "2006": null, "2007": null, "2008": null, "2009": null, "2010": null, "2011": null, "2012": null, "2013": null, "2014": null, "2015": null, "2016": null, "2017": null, "2018": null, "2019": null, "2020": null }, "geometry": { "type": "Point", "coordinates": [ 20.3870953, 44.0440849 ] } },
{ "type": "Feature", "properties": { "fid": 194.0, "name": "Угриновци", "place": "village", "2000": null, "2001": null, "2002": null, "2003": null, "2004": null, "2005": null, "2006": null, "2007": null, "2008": null, "2009": null, "2010": null, "2011": null, "2012": null, "2013": null, "2014": null, "2015": null, "2016": null, "2017": null, "2018": null, "2019": null, "2020": null }, "geometry": { "type": "Point", "coordinates": [ 20.1867368, 44.875761 ] } },
{ "type": "Feature", "properties": { "fid": 195.0, "name": "Добродол", "place": "village", "2000": null, "2001": null, "2002": null, "2003": null, "2004": null, "2005": null, "2006": null, "2007": null, "2008": null, "2009": null, "2010": null, "2011": null, "2012": null, "2013": null, "2014": null, "2015": null, "2016": null, "2017": null, "2018": null, "2019": null, "2020": null }, "geometry": { "type": "Point", "coordinates": [ 19.9398191, 45.0407806 ] } },
{ "type": "Feature", "properties": { "fid": 196.0, "name": "Мали Радинци", "place": "village", "2000": null, "2001": null, "2002": null, "2003": null, "2004": null, "2005": null, "2006": null, "2007": null, "2008": null, "2009": null, "2010": null, "2011": null, "2012": null, "2013": null, "2014": null, "2015": null, "2016": null, "2017": null, "2018": null, "2019": null, "2020": null }, "geometry": { "type": "Point", "coordinates": [ 19.9039607, 45.0211056 ] } },
{ "type": "Feature", "properties": { "fid": 197.0, "name": "Жарковац", "place": "village", "2000": null, "2001": null, "2002": null, "2003": null, "2004": null, "2005": null, "2006": null, "2007": null, "2008": null, "2009": null, "2010": null, "2011": null, "2012": null, "2013": null, "2014": null, "2015": null, "2016": null, "2017": null, "2018": null, "2019": null, "2020": null }, "geometry": { "type": "Point", "coordinates": [ 19.935358, 45.0032639 ] } },
{ "type": "Feature", "properties": { "fid": 198.0, "name": "Путинци", "place": "village", "2000": null, "2001": null, "2002": null, "2003": null, "2004": null, "2005": null, "2006": null, "2007": null, "2008": null, "2009": null, "2010": null, "2011": null, "2012": null, "2013": null, "2014": null, "2015": null, "2016": null, "2017": null, "2018": null, "2019": null, "2020": null }, "geometry": { "type": "Point", "coordinates": [ 19.9724232, 44.9924158 ] } },
{ "type": "Feature", "properties": { "fid": 199.0, "name": "Голубинци", "place": "village", "2000": null, "2001": null, "2002": null, "2003": null, "2004": null, "2005": null, "2006": null, "2007": null, "2008": null, "2009": null, "2010": null, "2011": null, "2012": null, "2013": null, "2014": null, "2015": null, "2016": null, "2017": null, "2018": null, "2019": null, "2020": null }, "geometry": { "type": "Point", "coordinates": [ 20.0659105, 44.9840388 ] } },
{ "type": "Feature", "properties": { "fid": 200.0, "name": "Вогањ", "place": "village", "2000": null, "2001": null, "2002": null, "2003": null, "2004": null, "2005": null, "2006": null, "2007": null, "2008": null, "2009": null, "2010": null, "2011": null, "2012": null, "2013": null, "2014": null, "2015": null, "2016": null, "2017": null, "2018": null, "2019": null, "2020": null }, "geometry": { "type": "Point", "coordinates": [ 19.7549746, 45.0036084 ] } },
{ "type": "Feature", "properties": { "fid": 201.0, "name": "Белегиш", "place": "village", "2000": null, "2001": null, "2002": null, "2003": null, "2004": null, "2005": null, "2006": null, "2007": null, "2008": null, "2009": null, "2010": null, "2011": null, "2012": null, "2013": null, "2014": null, "2015": null, "2016": null, "2017": null, "2018": null, "2019": null, "2020": null }, "geometry": { "type": "Point", "coordinates": [ 20.3313275, 45.0188292 ] } },
{ "type": "Feature", "properties": { "fid": 202.0, "name": "Јарменовци", "place": "village", "2000": null, "2001": null, "2002": null, "2003": null, "2004": null, "2005": null, "2006": null, "2007": null, "2008": null, "2009": null, "2010": null, "2011": null, "2012": null, "2013": null, "2014": null, "2015": null, "2016": null, "2017": null, "2018": null, "2019": null, "2020": null }, "geometry": { "type": "Point", "coordinates": [ 20.5443639, 44.184839 ] } },
{ "type": "Feature", "properties": { "fid": 203.0, "name": "Враћевшница", "place": "village", "2000": null, "2001": null, "2002": null, "2003": null, "2004": null, "2005": null, "2006": null, "2007": null, "2008": null, "2009": null, "2010": null, "2011": null, "2012": null, "2013": null, "2014": null, "2015": null, "2016": null, "2017": null, "2018": null, "2019": null, "2020": null }, "geometry": { "type": "Point", "coordinates": [ 20.6195965, 44.0404417 ] } },
{ "type": "Feature", "properties": { "fid": 204.0, "name": "Сибач", "place": "village", "2000": null, "2001": null, "2002": null, "2003": null, "2004": null, "2005": null, "2006": null, "2007": null, "2008": null, "2009": null, "2010": null, "2011": null, "2012": null, "2013": null, "2014": null, "2015": null, "2016": null, "2017": null, "2018": null, "2019": null, "2020": null }, "geometry": { "type": "Point", "coordinates": [ 19.9333144, 44.9058129 ] } },
{ "type": "Feature", "properties": { "fid": 205.0, "name": "Пећинци", "place": "village", "2000": null, "2001": null, "2002": null, "2003": null, "2004": null, "2005": null, "2006": null, "2007": null, "2008": null, "2009": null, "2010": null, "2011": null, "2012": null, "2013": null, "2014": null, "2015": null, "2016": null, "2017": null, "2018": null, "2019": null, "2020": null }, "geometry": { "type": "Point", "coordinates": [ 19.9672065, 44.9090756 ] } },
{ "type": "Feature", "properties": { "fid": 206.0, "name": "Карловчић", "place": "village", "2000": null, "2001": null, "2002": null, "2003": null, "2004": null, "2005": null, "2006": null, "2007": null, "2008": null, "2009": null, "2010": null, "2011": null, "2012": null, "2013": null, "2014": null, "2015": null, "2016": null, "2017": null, "2018": null, "2019": null, "2020": null }, "geometry": { "type": "Point", "coordinates": [ 20.0441741, 44.8226436 ] } },
{ "type": "Feature", "properties": { "fid": 207.0, "name": "Деч", "place": "village", "2000": null, "2001": null, "2002": null, "2003": null, "2004": null, "2005": null, "2006": null, "2007": null, "2008": null, "2009": null, "2010": null, "2011": null, "2012": null, "2013": null, "2014": null, "2015": null, "2016": null, "2017": null, "2018": null, "2019": null, "2020": null }, "geometry": { "type": "Point", "coordinates": [ 20.1146007, 44.8361417 ] } },
{ "type": "Feature", "properties": { "fid": 208.0, "name": "Ашања", "place": "village", "2000": null, "2001": null, "2002": null, "2003": null, "2004": null, "2005": null, "2006": null, "2007": null, "2008": null, "2009": null, "2010": null, "2011": null, "2012": null, "2013": null, "2014": null, "2015": null, "2016": null, "2017": null, "2018": null, "2019": null, "2020": null }, "geometry": { "type": "Point", "coordinates": [ 20.0762748, 44.7551502 ] } },
{ "type": "Feature", "properties": { "fid": 209.0, "name": "Петровчић", "place": "village", "2000": null, "2001": null, "2002": null, "2003": null, "2004": null, "2005": null, "2006": null, "2007": null, "2008": null, "2009": null, "2010": null, "2011": null, "2012": null, "2013": null, "2014": null, "2015": null, "2016": null, "2017": null, "2018": null, "2019": null, "2020": null }, "geometry": { "type": "Point", "coordinates": [ 20.1443218, 44.7941067 ] } },
{ "type": "Feature", "properties": { "fid": 210.0, "name": "Бечмен", "place": "village", "2000": null, "2001": null, "2002": null, "2003": null, "2004": null, "2005": null, "2006": null, "2007": null, "2008": null, "2009": null, "2010": null, "2011": null, "2012": null, "2013": null, "2014": null, "2015": null, "2016": null, "2017": null, "2018": null, "2019": null, "2020": null }, "geometry": { "type": "Point", "coordinates": [ 20.2031325, 44.7806827 ] } },
{ "type": "Feature", "properties": { "fid": 211.0, "name": "Сремски Михаљевци", "place": "village", "2000": null, "2001": null, "2002": null, "2003": null, "2004": null, "2005": null, "2006": null, "2007": null, "2008": null, "2009": null, "2010": null, "2011": null, "2012": null, "2013": null, "2014": null, "2015": null, "2016": null, "2017": null, "2018": null, "2019": null, "2020": null }, "geometry": { "type": "Point", "coordinates": [ 20.0383376, 44.8587944 ] } },
{ "type": "Feature", "properties": { "fid": 212.0, "name": "Лединци", "place": "village", "2000": null, "2001": null, "2002": null, "2003": null, "2004": null, "2005": null, "2006": null, "2007": null, "2008": null, "2009": null, "2010": null, "2011": null, "2012": null, "2013": null, "2014": null, "2015": null, "2016": null, "2017": null, "2018": null, "2019": null, "2020": null }, "geometry": { "type": "Point", "coordinates": [ 19.8052203, 45.2115613 ] } },
{ "type": "Feature", "properties": { "fid": 213.0, "name": "Бања Ковиљача", "place": "village", "2000": null, "2001": null, "2002": null, "2003": null, "2004": null, "2005": null, "2006": null, "2007": null, "2008": null, "2009": null, "2010": null, "2011": null, "2012": null, "2013": null, "2014": null, "2015": null, "2016": null, "2017": null, "2018": null, "2019": null, "2020": null }, "geometry": { "type": "Point", "coordinates": [ 19.1583075, 44.5144274 ] } },
{ "type": "Feature", "properties": { "fid": 214.0, "name": "Степојевац", "place": "village", "2000": null, "2001": null, "2002": null, "2003": null, "2004": null, "2005": null, "2006": null, "2007": null, "2008": null, "2009": null, "2010": null, "2011": null, "2012": null, "2013": null, "2014": null, "2015": null, "2016": null, "2017": null, "2018": null, "2019": null, "2020": null }, "geometry": { "type": "Point", "coordinates": [ 20.2930075, 44.5208048 ] } },
{ "type": "Feature", "properties": { "fid": 215.0, "name": "Рибашевина", "place": "village", "2000": null, "2001": null, "2002": null, "2003": null, "2004": null, "2005": null, "2006": null, "2007": null, "2008": null, "2009": null, "2010": null, "2011": null, "2012": null, "2013": null, "2014": null, "2015": null, "2016": null, "2017": null, "2018": null, "2019": null, "2020": null }, "geometry": { "type": "Point", "coordinates": [ 19.8735065, 43.9399374 ] } },