{"features":[{"geometry":{"coordinates":[37.743735559325,55.713832368429],"type":"Point"},"properties":{"DatasetId":674,"VersionNumber":4,"ReleaseNumber":31,"RowId":null,"Attributes":{"Name":"Искусственная дорожная неровность по адресу Волжский бульвар, дом 12","global_id":1711191,"AdmArea":"Юго-Восточный административный округ","District":"район Кузьминки","Location":"Волжский бульвар, дом 12","Material":"пластик"}},"type":"Feature"},{"geometry":{"coordinates":[37.690444097446,55.871294623889],"type":"Point"},"properties":{"DatasetId":674,"VersionNumber":4,"ReleaseNumber":31,"RowId":null,"Attributes":{"Name":"Искусственная дорожная неровность по адресу улица Коминтерна, дом 46","global_id":1711192,"AdmArea":"Северо-Восточный административный округ","District":"Бабушкинский район","Location":"улица Коминтерна, дом 46","Material":"пластик"}},"type":"Feature"},{"geometry":{"coordinates":[37.692688437572,55.879908528886],"type":"Point"},"properties":{"DatasetId":674,"VersionNumber":4,"ReleaseNumber":31,"RowId":null,"Attributes":{"Name":"Искусственная дорожная неровность по адресу 1-я Напрудная улица, дом 15","global_id":1711193,"AdmArea":"Северо-Восточный административный округ","District":"Лосиноостровский район","Location":"1-я Напрудная улица, дом 15","Material":"пластик"}},"type":"Feature"},{"geometry":{"coordinates":[37.547759972799,55.936530143951],"type":"Point"},"properties":{"DatasetId":674,"VersionNumber":4,"ReleaseNumber":31,"RowId":null,"Attributes":{"Name":"Искусственная дорожная неровность по адресу 8-я Северная линия, дом 15","global_id":1711194,"AdmArea":"Северо-Восточный административный округ","District":"район Северный","Location":"8-я Северная линия, дом 15","Material":"пластик"}},"type":"Feature"},{"geometry":{"coordinates":[37.554870174205,55.94372017059],"type":"Point"},"properties":{"DatasetId":674,"VersionNumber":4,"ReleaseNumber":31,"RowId":null,"Attributes":{"Name":"Искусственная дорожная неровность по адресу 1-я Северная линия, дом 12","global_id":1711195,"AdmArea":"Северо-Восточный административный округ","District":"район Северный","Location":"1-я Северная линия, дом 12","Material":"пластик"}},"type":"Feature"},{"geometry":{"coordinates":[37.247188622161,55.992218276151],"type":"Point"},"properties":{"DatasetId":674,"VersionNumber":4,"ReleaseNumber":31,"RowId":null,"Attributes":{"Name":"Искусственная дорожная неровность по адресу Никольский проезд, дом 5","global_id":1711196,"AdmArea":"Зеленоградский административный округ","District":"район Савёлки","Location":"Никольский проезд, дом 5","Material":"пластик"}},"type":"Feature"},{"geometry":{"coordinates":[37.524822049872,55.809899644443],"type":"Point"},"properties":{"DatasetId":674,"VersionNumber":4,"ReleaseNumber":31,"RowId":null,"Attributes":{"Name":"Искусственная дорожная неровность 1 по адресу Часовая улица, дом 19А","global_id":1711197,"AdmArea":"Северный административный округ","District":"район Аэропорт","Location":"Часовая улица, дом 19А","Material":"пластик"}},"type":"Feature"},{"geometry":{"coordinates":[37.588717920661,55.508692076932],"type":"Point"},"properties":{"DatasetId":674,"VersionNumber":4,"ReleaseNumber":31,"RowId":null,"Attributes":{"Name":"Искусственная дорожная неровность по адресу Типографская улица, дом 5А","global_id":1711198,"AdmArea":"Юго-Западный административный округ","District":"район Южное Бутово","Location":"Типографская улица, дом 5А","Material":"пластик"}},"type":"Feature"},{"geometry":{"coordinates":[37.578517176911,55.540180095382],"type":"Point"},"properties":{"DatasetId":674,"VersionNumber":4,"ReleaseNumber":31,"RowId":null,"Attributes":{"Name":"Искусственная дорожная неровность по адресу 1-я Мелитопольская улица, дом 8","global_id":1711199,"AdmArea":"Юго-Западный административный округ","District":"район Южное Бутово","Location":"1-я Мелитопольская улица, дом 8","Material":"асфальт"}},"type":"Feature"},{"geometry":{"coordinates":[37.575411347037,55.540435478794],"type":"Point"},"properties":{"DatasetId":674,"VersionNumber":4,"ReleaseNumber":31,"RowId":null,"Attributes":{"Name":"Искусственная дорожная неровность по адресу Джанкойская улица, дом 2, корпус 1","global_id":1711200,"AdmArea":"Юго-Западный административный округ","District":"район Южное Бутово","Location":"Джанкойская улица, дом 2, корпус 1","Material":"асфальт"}},"type":"Feature"},{"geometry":{"coordinates":[37.580837456119,55.544457914662],"type":"Point"},"properties":{"DatasetId":674,"VersionNumber":4,"ReleaseNumber":31,"RowId":null,"Attributes":{"Name":"Искусственная дорожная неровность по адресу Большая Бутовская улица, дом 9","global_id":1711201,"AdmArea":"Юго-Западный административный округ","District":"район Южное Бутово","Location":"Большая Бутовская улица, дом 9","Material":"пластик"}},"type":"Feature"},{"geometry":{"coordinates":[37.538047673611,55.545741905129],"type":"Point"},"properties":{"DatasetId":674,"VersionNumber":4,"ReleaseNumber":31,"RowId":null,"Attributes":{"Name":"Искусственная дорожная неровность по адресу улица Адмирала Лазарева, дом 13","global_id":1711202,"AdmArea":"Юго-Западный административный округ","District":"район Южное Бутово","Location":"улица Адмирала Лазарева, дом 13","Material":"пластик"}},"type":"Feature"},{"geometry":{"coordinates":[37.565098924731,55.565091426011],"type":"Point"},"properties":{"DatasetId":674,"VersionNumber":4,"ReleaseNumber":31,"RowId":null,"Attributes":{"Name":"Искусственная дорожная неровность по адресу улица Академика Глушко, дом 12","global_id":1711203,"AdmArea":"Юго-Западный административный округ","District":"район Северное Бутово","Location":"улица Академика Глушко, дом 12","Material":"пластик"}},"type":"Feature"},{"geometry":{"coordinates":[37.564397025185,55.571872115728],"type":"Point"},"properties":{"DatasetId":674,"VersionNumber":4,"ReleaseNumber":31,"RowId":null,"Attributes":{"Name":"Искусственная дорожная неровность по адресу Куликовская улица, дом 1Б","global_id":1711204,"AdmArea":"Юго-Западный административный округ","District":"район Северное Бутово","Location":"Куликовская улица, дом 1Б","Material":"пластик"}},"type":"Feature"},{"geometry":{"coordinates":[37.58021992365,55.573358073046],"type":"Point"},"properties":{"DatasetId":674,"VersionNumber":4,"ReleaseNumber":31,"RowId":null,"Attributes":{"Name":"Искусственная дорожная неровность по адресу Ратная улица, дом 8, корпус 3","global_id":1711205,"AdmArea":"Юго-Западный административный округ","District":"район Северное Бутово","Location":"Ратная улица, дом 8, корпус 3","Material":"пластик"}},"type":"Feature"},{"geometry":{"coordinates":[37.582867387252,55.576738787884],"type":"Point"},"properties":{"DatasetId":674,"VersionNumber":4,"ReleaseNumber":31,"RowId":null,"Attributes":{"Name":"Искусственная дорожная неровность по адресу Старобитцевская улица, дом 17, корпус 1","global_id":1711206,"AdmArea":"Юго-Западный административный округ","District":"район Северное Бутово","Location":"Старобитцевская улица, дом 17, корпус 1","Material":"пластик"}},"type":"Feature"},{"geometry":{"coordinates":[37.659829349968,55.577867969469],"type":"Point"},"properties":{"DatasetId":674,"VersionNumber":4,"ReleaseNumber":31,"RowId":null,"Attributes":{"Name":"Искусственная дорожная неровность по адресу Булатниковский проезд, дом 16","global_id":1711207,"AdmArea":"Южный административный округ","District":"район Бирюлёво Западное","Location":"Булатниковский проезд, дом 16","Material":"пластик"}},"type":"Feature"},{"geometry":{"coordinates":[37.663821482853,55.579398910573],"type":"Point"},"properties":{"DatasetId":674,"VersionNumber":4,"ReleaseNumber":31,"RowId":null,"Attributes":{"Name":"Искусственная дорожная неровность по адресу Михневская улица, дом 17","global_id":1711208,"AdmArea":"Южный административный округ","District":"район Бирюлёво Восточное","Location":"Михневская улица, дом 17","Material":"пластик"}},"type":"Feature"},{"geometry":{"coordinates":[37.65166822568,55.580025096355],"type":"Point"},"properties":{"DatasetId":674,"VersionNumber":4,"ReleaseNumber":31,"RowId":null,"Attributes":{"Name":"Искусственная дорожная неровность по адресу Булатниковская улица, дом 7","global_id":1711209,"AdmArea":"Южный административный округ","District":"район Бирюлёво Западное","Location":"Булатниковская улица, дом 7","Material":"пластик"}},"type":"Feature"},{"geometry":{"coordinates":[37.598534001315,55.580730373306],"type":"Point"},"properties":{"DatasetId":674,"VersionNumber":4,"ReleaseNumber":31,"RowId":null,"Attributes":{"Name":"Искусственная дорожная неровность по адресу Варшавское шоссе, дом 143, корпус 6","global_id":1711210,"AdmArea":"Южный административный округ","District":"район Чертаново Южное","Location":"Варшавское шоссе, дом 143, корпус 6","Material":"пластик"}},"type":"Feature"},{"geometry":{"coordinates":[37.74262294015,55.623992459687],"type":"Point"},"properties":{"DatasetId":674,"VersionNumber":4,"ReleaseNumber":31,"RowId":null,"Attributes":{"Name":"Искусственная дорожная неровность по адресу улица Мусы Джалиля, дом 16","global_id":1711211,"AdmArea":"Южный административный округ","District":"район Зябликово","Location":"улица Мусы Джалиля, дом 16","Material":"пластик"}},"type":"Feature"},{"geometry":{"coordinates":[37.663003075409,55.623996915509],"type":"Point"},"properties":{"DatasetId":674,"VersionNumber":4,"ReleaseNumber":31,"RowId":null,"Attributes":{"Name":"Искусственная дорожная неровность по адресу Весёлая улица, дом 12","global_id":1711212,"AdmArea":"Южный административный округ","District":"район Царицыно","Location":"Весёлая улица, дом 12","Material":"пластик"}},"type":"Feature"},{"geometry":{"coordinates":[37.592034843847,55.624013990663],"type":"Point"},"properties":{"DatasetId":674,"VersionNumber":4,"ReleaseNumber":31,"RowId":null,"Attributes":{"Name":"Искусственная дорожная неровность по адресу Днепропетровская улица, дом 13","global_id":1711213,"AdmArea":"Южный административный округ","District":"район Чертаново Центральное","Location":"Днепропетровская улица, дом 13","Material":"пластик"}},"type":"Feature"},{"geometry":{"coordinates":[37.591015605444,55.624114819385],"type":"Point"},"properties":{"DatasetId":674,"VersionNumber":4,"ReleaseNumber":31,"RowId":null,"Attributes":{"Name":"Искусственная дорожная неровность по адресу Днепропетровская улица, дом 15","global_id":1711214,"AdmArea":"Южный административный округ","District":"район Чертаново Центральное","Location":"Днепропетровская улица, дом 15","Material":"пластик"}},"type":"Feature"},{"geometry":{"coordinates":[37.524317952166,55.625384148998],"type":"Point"},"properties":{"DatasetId":674,"VersionNumber":4,"ReleaseNumber":31,"RowId":null,"Attributes":{"Name":"Искусственная дорожная неровность по адресу улица Академика Капицы, дом 11","global_id":1711215,"AdmArea":"Юго-Западный административный округ","District":"район Ясенево","Location":"улица Академика Капицы, дом 11","Material":"пластик"}},"type":"Feature"},{"geometry":{"coordinates":[37.72641066423,55.625670888357],"type":"Point"},"properties":{"DatasetId":674,"VersionNumber":4,"ReleaseNumber":31,"RowId":null,"Attributes":{"Name":"Искусственная дорожная неровность по адресу Борисовский проезд, дом 20","global_id":1711216,"AdmArea":"Южный административный округ","District":"район Орехово-Борисово Северное","Location":"Борисовский проезд, дом 20","Material":"пластик"}},"type":"Feature"},{"geometry":{"coordinates":[37.658828887253,55.582830749188],"type":"Point"},"properties":{"DatasetId":674,"VersionNumber":4,"ReleaseNumber":31,"RowId":null,"Attributes":{"Name":"Искусственная дорожная неровность по адресу Булатниковский проезд, дом 14, корпус 3","global_id":1711217,"AdmArea":"Южный административный округ","District":"район Бирюлёво Западное","Location":"Булатниковский проезд, дом 14, корпус 3","Material":"пластик"}},"type":"Feature"},{"geometry":{"coordinates":[37.646767327409,55.584569913577],"type":"Point"},"properties":{"DatasetId":674,"VersionNumber":4,"ReleaseNumber":31,"RowId":null,"Attributes":{"Name":"Искусственная дорожная неровность по адресу Медынская улица, дом 12, корпус 1","global_id":1711218,"AdmArea":"Южный административный округ","District":"район Бирюлёво Западное","Location":"Медынская улица, дом 12, корпус 1","Material":"пластик"}},"type":"Feature"},{"geometry":{"coordinates":[37.667419498773,55.585107904731],"type":"Point"},"properties":{"DatasetId":674,"VersionNumber":4,"ReleaseNumber":31,"RowId":null,"Attributes":{"Name":"Искусственная дорожная неровность по адресу Бирюлёвская улица, дом 52, корпус 1","global_id":1711219,"AdmArea":"Южный административный округ","District":"район Бирюлёво Восточное","Location":"Бирюлёвская улица, дом 52, корпус 1","Material":"пластик"}},"type":"Feature"},{"geometry":{"coordinates":[37.674249910901,55.58657903058],"type":"Point"},"properties":{"DatasetId":674,"VersionNumber":4,"ReleaseNumber":31,"RowId":null,"Attributes":{"Name":"Искусственная дорожная неровность по адресу Лебедянская улица, дом 14, корпус 1","global_id":1711220,"AdmArea":"Южный административный округ","District":"район Бирюлёво Восточное","Location":"Лебедянская улица, дом 14, корпус 1","Material":"пластик"}},"type":"Feature"},{"geometry":{"coordinates":[37.670929336962,55.586806899903],"type":"Point"},"properties":{"DatasetId":674,"VersionNumber":4,"ReleaseNumber":31,"RowId":null,"Attributes":{"Name":"Искусственная дорожная неровность по адресу Лебедянская улица, дом 12, корпус 1","global_id":1711221,"AdmArea":"Южный административный округ","District":"район Бирюлёво Восточное","Location":"Лебедянская улица, дом 12, корпус 1","Material":"асфальт"}},"type":"Feature"},{"geometry":{"coordinates":[37.647996449093,55.587042079599],"type":"Point"},"properties":{"DatasetId":674,"VersionNumber":4,"ReleaseNumber":31,"RowId":null,"Attributes":{"Name":"Искусственная дорожная неровность по адресу Медынская улица, дом 7, строение 1","global_id":1711222,"AdmArea":"Южный административный округ","District":"район Бирюлёво Западное","Location":"Медынская улица, дом 7, строение 1","Material":"пластик"}},"type":"Feature"},{"geometry":{"coordinates":[37.610082755184,55.589127304807],"type":"Point"},"properties":{"DatasetId":674,"VersionNumber":4,"ReleaseNumber":31,"RowId":null,"Attributes":{"Name":"Искусственная дорожная неровность по адресу улица Газопровод, дом 11, корпус 1","global_id":1711223,"AdmArea":"Южный административный округ","District":"район Чертаново Южное","Location":"улица Газопровод, дом 11, корпус 1","Material":"пластик"}},"type":"Feature"},{"geometry":{"coordinates":[37.598418500428,55.589310349005],"type":"Point"},"properties":{"DatasetId":674,"VersionNumber":4,"ReleaseNumber":31,"RowId":null,"Attributes":{"Name":"Искусственная дорожная неровность по адресу Варшавское шоссе, дом 152, корпус 2","global_id":1711224,"AdmArea":"Южный административный округ","District":"район Чертаново Южное","Location":"Варшавское шоссе, дом 152, корпус 2","Material":"пластик"}},"type":"Feature"},{"geometry":{"coordinates":[37.668956907889,55.589956409019],"type":"Point"},"properties":{"DatasetId":674,"VersionNumber":4,"ReleaseNumber":31,"RowId":null,"Attributes":{"Name":"Искусственная дорожная неровность по адресу Ряжская улица, дом 13, корпус 2","global_id":1711225,"AdmArea":"Южный административный округ","District":"район Бирюлёво Восточное","Location":"Ряжская улица, дом 13, корпус 2","Material":"пластик"}},"type":"Feature"},{"geometry":{"coordinates":[37.607924249084,55.590993404273],"type":"Point"},"properties":{"DatasetId":674,"VersionNumber":4,"ReleaseNumber":31,"RowId":null,"Attributes":{"Name":"Искусственная дорожная неровность по адресу улица Газопровод, дом 11, корпус 2","global_id":1711226,"AdmArea":"Южный административный округ","District":"район Чертаново Южное","Location":"улица Газопровод, дом 11, корпус 2","Material":"пластик"}},"type":"Feature"},{"geometry":{"coordinates":[37.66630940027,55.595623898379],"type":"Point"},"properties":{"DatasetId":674,"VersionNumber":4,"ReleaseNumber":31,"RowId":null,"Attributes":{"Name":"Искусственная дорожная неровность по адресу Педагогическая улица, дом 3","global_id":1711227,"AdmArea":"Южный административный округ","District":"район Бирюлёво Восточное","Location":"Педагогическая улица, дом 3","Material":"пластик"}},"type":"Feature"},{"geometry":{"coordinates":[37.594181487694,55.595635110204],"type":"Point"},"properties":{"DatasetId":674,"VersionNumber":4,"ReleaseNumber":31,"RowId":null,"Attributes":{"Name":"Искусственная дорожная неровность по адресу улица Академика Янгеля, дом 4, корпус 2","global_id":1711228,"AdmArea":"Южный административный округ","District":"район Чертаново Южное","Location":"улица Академика Янгеля, дом 4, корпус 2","Material":"пластик"}},"type":"Feature"},{"geometry":{"coordinates":[37.596640248492,55.596730108211],"type":"Point"},"properties":{"DatasetId":674,"VersionNumber":4,"ReleaseNumber":31,"RowId":null,"Attributes":{"Name":"Искусственная дорожная неровность по адресу Кировоградская улица, дом 25, корпус 2","global_id":1711229,"AdmArea":"Южный административный округ","District":"район Чертаново Южное","Location":"Кировоградская улица, дом 25, корпус 2","Material":"пластик"}},"type":"Feature"},{"geometry":{"coordinates":[37.619799058163,55.597167526233],"type":"Point"},"properties":{"DatasetId":674,"VersionNumber":4,"ReleaseNumber":31,"RowId":null,"Attributes":{"Name":"Искусственная дорожная неровность по адресу Дорожная улица, дом 26","global_id":1711230,"AdmArea":"Южный административный округ","District":"район Чертаново Южное","Location":"Дорожная улица, дом 26","Material":"пластик"}},"type":"Feature"},{"geometry":{"coordinates":[37.518489007968,55.598518220386],"type":"Point"},"properties":{"DatasetId":674,"VersionNumber":4,"ReleaseNumber":31,"RowId":null,"Attributes":{"Name":"Искусственная дорожная неровность по адресу Вильнюсская улица, дом 12","global_id":1711231,"AdmArea":"Юго-Западный административный округ","District":"район Ясенево","Location":"Вильнюсская улица, дом 12","Material":"асфальт"}},"type":"Feature"},{"geometry":{"coordinates":[37.59755586982,55.598627410871],"type":"Point"},"properties":{"DatasetId":674,"VersionNumber":4,"ReleaseNumber":31,"RowId":null,"Attributes":{"Name":"Искусственная дорожная неровность по адресу Кировоградская улица, дом 23, строение 3","global_id":1711232,"AdmArea":"Южный административный округ","District":"район Чертаново Южное","Location":"Кировоградская улица, дом 23, строение 3","Material":"пластик"}},"type":"Feature"},{"geometry":{"coordinates":[37.598676954718,55.600929697774],"type":"Point"},"properties":{"DatasetId":674,"VersionNumber":4,"ReleaseNumber":31,"RowId":null,"Attributes":{"Name":"Искусственная дорожная неровность по адресу Кировоградская улица, дом 42, корпус 1","global_id":1711233,"AdmArea":"Южный административный округ","District":"район Чертаново Южное","Location":"Кировоградская улица, дом 42, корпус 1","Material":"пластик"}},"type":"Feature"},{"geometry":{"coordinates":[37.622842191918,55.603344659446],"type":"Point"},"properties":{"DatasetId":674,"VersionNumber":4,"ReleaseNumber":31,"RowId":null,"Attributes":{"Name":"Искусственная дорожная неровность по адресу Дорожная улица, дом 7","global_id":1711235,"AdmArea":"Южный административный округ","District":"район Чертаново Южное","Location":"Дорожная улица, дом 7","Material":"пластик"}},"type":"Feature"},{"geometry":{"coordinates":[37.725887799819,55.603832663363],"type":"Point"},"properties":{"DatasetId":674,"VersionNumber":4,"ReleaseNumber":31,"RowId":null,"Attributes":{"Name":"Искусственная дорожная неровность по адресу улица Генерала Белова, дом 55","global_id":1711236,"AdmArea":"Южный административный округ","District":"район Орехово-Борисово Южное","Location":"улица Генерала Белова, дом 55","Material":"пластик"}},"type":"Feature"},{"geometry":{"coordinates":[37.760831618482,55.611220925912],"type":"Point"},"properties":{"DatasetId":674,"VersionNumber":4,"ReleaseNumber":31,"RowId":null,"Attributes":{"Name":"Искусственная дорожная неровность по адресу Воронежская улица, дом 54","global_id":1711238,"AdmArea":"Южный административный округ","District":"район Орехово-Борисово Южное","Location":"Воронежская улица, дом 54","Material":"пластик"}},"type":"Feature"},{"geometry":{"coordinates":[37.758675121913,55.611795373334],"type":"Point"},"properties":{"DatasetId":674,"VersionNumber":4,"ReleaseNumber":31,"RowId":null,"Attributes":{"Name":"Искусственная дорожная неровность по адресу Воронежская улица, дом 52, корпус 1, строение 3","global_id":1711239,"AdmArea":"Южный административный округ","District":"район Орехово-Борисово Южное","Location":"Воронежская улица, дом 52, корпус 1, строение 3","Material":"пластик"}},"type":"Feature"},{"geometry":{"coordinates":[37.729460502112,55.614967536559],"type":"Point"},"properties":{"DatasetId":674,"VersionNumber":4,"ReleaseNumber":31,"RowId":null,"Attributes":{"Name":"Искусственная дорожная неровность по адресу Ореховый проезд, дом 43А","global_id":1711244,"AdmArea":"Южный административный округ","District":"район Зябликово","Location":"Ореховый проезд, дом 43А","Material":"асфальт"}},"type":"Feature"},{"geometry":{"coordinates":[37.550785990054,55.615632618574],"type":"Point"},"properties":{"DatasetId":674,"VersionNumber":4,"ReleaseNumber":31,"RowId":null,"Attributes":{"Name":"Искусственная дорожная неровность по адресу Соловьиный проезд, дом 6, корпус 1","global_id":1711245,"AdmArea":"Юго-Западный административный округ","District":"район Ясенево","Location":"Соловьиный проезд, дом 6, корпус 1","Material":"пластик"}},"type":"Feature"},{"geometry":{"coordinates":[37.584337910507,55.616547305178],"type":"Point"},"properties":{"DatasetId":674,"VersionNumber":4,"ReleaseNumber":31,"RowId":null,"Attributes":{"Name":"Искусственная дорожная неровность по адресу Днепропетровская улица, дом 33","global_id":1711246,"AdmArea":"Южный административный округ","District":"район Чертаново Центральное","Location":"Днепропетровская улица, дом 33","Material":"пластик"}},"type":"Feature"},{"geometry":{"coordinates":[37.606569791756,55.616727301441],"type":"Point"},"properties":{"DatasetId":674,"VersionNumber":4,"ReleaseNumber":31,"RowId":null,"Attributes":{"Name":"Искусственная дорожная неровность по адресу Кировоградская улица, дом 11, строение, 2","global_id":1711247,"AdmArea":"Южный административный округ","District":"район Чертаново Центральное","Location":"Кировоградская улица, дом 11, строение 2","Material":"пластик"}},"type":"Feature"},{"geometry":{"coordinates":[37.760447224881,55.617274032298],"type":"Point"},"properties":{"DatasetId":674,"VersionNumber":4,"ReleaseNumber":31,"RowId":null,"Attributes":{"Name":"Искусственная дорожная неровность по адресу Ореховый бульвар, дом 63, корпус 1","global_id":1711248,"AdmArea":"Южный административный округ","District":"район Зябликово","Location":"Ореховый бульвар, дом 63, корпус 1","Material":"пластик"}},"type":"Feature"},{"geometry":{"coordinates":[37.743697668386,55.617517756859],"type":"Point"},"properties":{"DatasetId":674,"VersionNumber":4,"ReleaseNumber":31,"RowId":null,"Attributes":{"Name":"Искусственная дорожная неровность по адресу улица Мусы Джалиля, дом 38, корпус 1","global_id":1711250,"AdmArea":"Южный административный округ","District":"район Зябликово","Location":"улица Мусы Джалиля, дом 38, корпус 1","Material":"пластик"}},"type":"Feature"},{"geometry":{"coordinates":[37.753393517624,55.61951331916],"type":"Point"},"properties":{"DatasetId":674,"VersionNumber":4,"ReleaseNumber":31,"RowId":null,"Attributes":{"Name":"Искусственная дорожная неровность по адресу Кустанайская улица, дом 6","global_id":1711251,"AdmArea":"Южный административный округ","District":"район Зябликово","Location":"Кустанайская улица, дом 6","Material":"пластик"}},"type":"Feature"},{"geometry":{"coordinates":[37.584020404563,55.620246910282],"type":"Point"},"properties":{"DatasetId":674,"VersionNumber":4,"ReleaseNumber":31,"RowId":null,"Attributes":{"Name":"Искусственная дорожная неровность по адресу Днепропетровская улица, дом 25А","global_id":1711252,"AdmArea":"Южный административный округ","District":"район Чертаново Центральное","Location":"Днепропетровская улица, дом 25А","Material":"пластик"}},"type":"Feature"},{"geometry":{"coordinates":[37.662119789838,55.621134644315],"type":"Point"},"properties":{"DatasetId":674,"VersionNumber":4,"ReleaseNumber":31,"RowId":null,"Attributes":{"Name":"Искусственная дорожная неровность по адресу Севанская улица, дом 6","global_id":1711253,"AdmArea":"Южный административный округ","District":"район Царицыно","Location":"Севанская улица, дом 6","Material":"пластик"}},"type":"Feature"},{"geometry":{"coordinates":[37.602055911065,55.622503862978],"type":"Point"},"properties":{"DatasetId":674,"VersionNumber":4,"ReleaseNumber":31,"RowId":null,"Attributes":{"Name":"Искусственная дорожная неровность по адресу Днепропетровская улица, дом 5","global_id":1711254,"AdmArea":"Южный административный округ","District":"район Чертаново Центральное","Location":"Днепропетровская улица, дом 5","Material":"пластик"}},"type":"Feature"},{"geometry":{"coordinates":[37.651887667036,55.623946357997],"type":"Point"},"properties":{"DatasetId":674,"VersionNumber":4,"ReleaseNumber":31,"RowId":null,"Attributes":{"Name":"Искусственная дорожная неровность по адресу Севанская улица, дом 19","global_id":1711255,"AdmArea":"Южный административный округ","District":"район Царицыно","Location":"Севанская улица, дом 19","Material":"пластик"}},"type":"Feature"},{"geometry":{"coordinates":[37.752453741496,55.675158794641],"type":"Point"},"properties":{"DatasetId":674,"VersionNumber":4,"ReleaseNumber":31,"RowId":null,"Attributes":{"Name":"Искусственная дорожная неровность по адресу Армавирская улица, дом 4","global_id":1711256,"AdmArea":"Юго-Восточный административный округ","District":"район Люблино","Location":"Армавирская улица, дом 4","Material":"пластик"}},"type":"Feature"},{"geometry":{"coordinates":[37.446793398842,55.676138959044],"type":"Point"},"properties":{"DatasetId":674,"VersionNumber":4,"ReleaseNumber":31,"RowId":null,"Attributes":{"Name":"Искусственная дорожная неровность по адресу Большая Очаковская улица, дом 42","global_id":1711257,"AdmArea":"Западный административный округ","District":"район Очаково-Матвеевское","Location":"Большая Очаковская улица, дом 42","Material":"пластик"}},"type":"Feature"},{"geometry":{"coordinates":[37.721511000244,55.676416000246],"type":"Point"},"properties":{"DatasetId":674,"VersionNumber":4,"ReleaseNumber":31,"RowId":null,"Attributes":{"Name":"Искусственная дорожная неровность по адресу улица Гурьянова, дом 75","global_id":1711258,"AdmArea":"Юго-Восточный административный округ","District":"район Печатники","Location":"улица Гурьянова, дом 75","Material":"пластик"}},"type":"Feature"},{"geometry":{"coordinates":[37.541476213369,55.676733947002],"type":"Point"},"properties":{"DatasetId":674,"VersionNumber":4,"ReleaseNumber":31,"RowId":null,"Attributes":{"Name":"Искусственная дорожная неровность по адресу улица Вавилова, дом 86","global_id":1711260,"AdmArea":"Юго-Западный административный округ","District":"Ломоносовский район","Location":"улица Вавилова, дом 86","Material":"пластик"}},"type":"Feature"},{"geometry":{"coordinates":[37.650174408211,55.677870184405],"type":"Point"},"properties":{"DatasetId":674,"VersionNumber":4,"ReleaseNumber":31,"RowId":null,"Attributes":{"Name":"Искусственная дорожная неровность по адресу улица Садовники, дом 4","global_id":1711261,"AdmArea":"Южный административный округ","District":"район Нагатино-Садовники","Location":"улица Садовники, дом 4","Material":"пластик"}},"type":"Feature"},{"geometry":{"coordinates":[37.455894,55.678986],"type":"Point"},"properties":{"DatasetId":674,"VersionNumber":4,"ReleaseNumber":31,"RowId":null,"Attributes":{"Name":"Искусственная дорожная неровность по адресу Озёрная улица, дом 18","global_id":1711262,"AdmArea":"Западный административный округ","District":"район Очаково-Матвеевское","Location":"Озёрная улица, дом 18","Material":"пластик"}},"type":"Feature"},{"geometry":{"coordinates":[37.603126954412,55.678470826968],"type":"Point"},"properties":{"DatasetId":674,"VersionNumber":4,"ReleaseNumber":31,"RowId":null,"Attributes":{"Name":"Искусственная дорожная неровность по адресу Нагорная улица, дом 21, корпус 1","global_id":1711263,"AdmArea":"Юго-Западный административный округ","District":"район Котловка","Location":"Нагорная улица, дом 21, корпус 1","Material":"пластик"}},"type":"Feature"},{"geometry":{"coordinates":[37.858050999589,55.679394999934],"type":"Point"},"properties":{"DatasetId":674,"VersionNumber":4,"ReleaseNumber":31,"RowId":null,"Attributes":{"Name":"Искусственная дорожная неровность по адресу улица Авиаконструктора Миля, дом 19","global_id":1711264,"AdmArea":"Юго-Восточный административный округ","District":"район Выхино-Жулебино","Location":"улица Авиаконструктора Миля, дом 19","Material":"пластик"}},"type":"Feature"},{"geometry":{"coordinates":[37.6544064326,55.679549138995],"type":"Point"},"properties":{"DatasetId":674,"VersionNumber":4,"ReleaseNumber":31,"RowId":null,"Attributes":{"Name":"Искусственная дорожная неровность по адресу Высокая улица, дом 6","global_id":1711265,"AdmArea":"Южный административный округ","District":"район Нагатино-Садовники","Location":"Высокая улица, дом 6","Material":"пластик"}},"type":"Feature"},{"geometry":{"coordinates":[37.706350594029,55.679564200453],"type":"Point"},"properties":{"DatasetId":674,"VersionNumber":4,"ReleaseNumber":31,"RowId":null,"Attributes":{"Name":"Искусственная дорожная неровность по адресу Коломенская набережная, дом 10","global_id":1711266,"AdmArea":"Южный административный округ","District":"район Нагатинский Затон","Location":"Коломенская набережная, дом 10","Material":"пластик"}},"type":"Feature"},{"geometry":{"coordinates":[37.727902143384,55.679818807956],"type":"Point"},"properties":{"DatasetId":674,"VersionNumber":4,"ReleaseNumber":31,"RowId":null,"Attributes":{"Name":"Искусственная дорожная неровность по адресу улица Полбина, дом 42, строение 2","global_id":1711267,"AdmArea":"Юго-Восточный административный округ","District":"район Печатники","Location":"улица Полбина, дом 42, строение 2","Material":"асфальт"}},"type":"Feature"},{"geometry":{"coordinates":[37.71650560365,55.680051817905],"type":"Point"},"properties":{"DatasetId":674,"VersionNumber":4,"ReleaseNumber":31,"RowId":null,"Attributes":{"Name":"Искусственная дорожная неровность по адресу улица Гурьянова, дом 55","global_id":1711268,"AdmArea":"Юго-Восточный административный округ","District":"район Печатники","Location":"улица Гурьянова, дом 55","Material":"пластик"}},"type":"Feature"},{"geometry":{"coordinates":[37.683912070621,55.680100218346],"type":"Point"},"properties":{"DatasetId":674,"VersionNumber":4,"ReleaseNumber":31,"RowId":null,"Attributes":{"Name":"Искусственная дорожная неровность по адресу Затонная улица, дом 7","global_id":1711269,"AdmArea":"Южный административный округ","District":"район Нагатинский Затон","Location":"Затонная улица, дом 7","Material":"пластик"}},"type":"Feature"},{"geometry":{"coordinates":[37.707224994364,55.680234056433],"type":"Point"},"properties":{"DatasetId":674,"VersionNumber":4,"ReleaseNumber":31,"RowId":null,"Attributes":{"Name":"Искусственная дорожная неровность по адресу Коломенская набережная, дом 8","global_id":1711270,"AdmArea":"Южный административный округ","District":"район Нагатинский Затон","Location":"Коломенская набережная, дом 8","Material":"пластик"}},"type":"Feature"},{"geometry":{"coordinates":[37.607980411755,55.680570873327],"type":"Point"},"properties":{"DatasetId":674,"VersionNumber":4,"ReleaseNumber":31,"RowId":null,"Attributes":{"Name":"Искусственная дорожная неровность по адресу Нагорная улица, дом 11","global_id":1711271,"AdmArea":"Юго-Западный административный округ","District":"район Котловка","Location":"Нагорная улица, дом 11","Material":"пластик"}},"type":"Feature"},{"geometry":{"coordinates":[37.857110517385,55.680697420629],"type":"Point"},"properties":{"DatasetId":674,"VersionNumber":4,"ReleaseNumber":31,"RowId":null,"Attributes":{"Name":"Искусственная дорожная неровность по адресу улица Авиаконструктора Миля, дом 15, корпус 1","global_id":1711272,"AdmArea":"Юго-Восточный административный округ","District":"район Выхино-Жулебино","Location":"улица Авиаконструктора Миля, дом 15, корпус 1","Material":"пластик"}},"type":"Feature"},{"geometry":{"coordinates":[37.861542366619,55.682202168605],"type":"Point"},"properties":{"DatasetId":674,"VersionNumber":4,"ReleaseNumber":31,"RowId":null,"Attributes":{"Name":"Искусственная дорожная неровность по адресу улица Маршала Полубоярова, дом 22","global_id":1711273,"AdmArea":"Юго-Восточный административный округ","District":"район Выхино-Жулебино","Location":"улица Маршала Полубоярова, дом 22","Material":"пластик"}},"type":"Feature"},{"geometry":{"coordinates":[37.701726465799,55.68234054238],"type":"Point"},"properties":{"DatasetId":674,"VersionNumber":4,"ReleaseNumber":31,"RowId":null,"Attributes":{"Name":"Искусственная дорожная неровность по адресу Коломенская улица, дом 7, строение 2","global_id":1711274,"AdmArea":"Южный административный округ","District":"район Нагатинский Затон","Location":"Коломенская улица, дом 7, строение 2","Material":"пластик"}},"type":"Feature"},{"geometry":{"coordinates":[37.861931926432,55.682843072478],"type":"Point"},"properties":{"DatasetId":674,"VersionNumber":4,"ReleaseNumber":31,"RowId":null,"Attributes":{"Name":"Искусственная дорожная неровность по адресу улица Маршала Полубоярова, дом 20","global_id":1711276,"AdmArea":"Юго-Восточный административный округ","District":"район Выхино-Жулебино","Location":"улица Маршала Полубоярова, дом 20","Material":"пластик"}},"type":"Feature"},{"geometry":{"coordinates":[37.702520398643,55.683177043491],"type":"Point"},"properties":{"DatasetId":674,"VersionNumber":4,"ReleaseNumber":31,"RowId":null,"Attributes":{"Name":"Искусственная дорожная неровность по адресу Коломенская улица, дом 5","global_id":1711277,"AdmArea":"Южный административный округ","District":"район Нагатинский Затон","Location":"Коломенская улица, дом 5","Material":"пластик"}},"type":"Feature"},{"geometry":{"coordinates":[37.673892344587,55.683181684019],"type":"Point"},"properties":{"DatasetId":674,"VersionNumber":4,"ReleaseNumber":31,"RowId":null,"Attributes":{"Name":"Искусственная дорожная неровность по адресу Кленовый бульвар, дом 7","global_id":1711278,"AdmArea":"Южный административный округ","District":"район Нагатинский Затон","Location":"Кленовый бульвар, дом 7","Material":"пластик"}},"type":"Feature"},{"geometry":{"coordinates":[37.843043842369,55.683274504068],"type":"Point"},"properties":{"DatasetId":674,"VersionNumber":4,"ReleaseNumber":31,"RowId":null,"Attributes":{"Name":"Искусственная дорожная неровность по адресу Привольная улица, дом 57, корпус 1","global_id":1711279,"AdmArea":"Юго-Восточный административный округ","District":"район Выхино-Жулебино","Location":"Привольная улица, дом 57, корпус 1","Material":"пластик"}},"type":"Feature"},{"geometry":{"coordinates":[37.717419063632,55.683431343871],"type":"Point"},"properties":{"DatasetId":674,"VersionNumber":4,"ReleaseNumber":31,"RowId":null,"Attributes":{"Name":"Искусственная дорожная неровность по адресу улица Гурьянова, дом 35","global_id":1711280,"AdmArea":"Юго-Восточный административный округ","District":"район Печатники","Location":"улица Гурьянова, дом 35","Material":"пластик"}},"type":"Feature"},{"geometry":{"coordinates":[37.457620806436,55.683618108373],"type":"Point"},"properties":{"DatasetId":674,"VersionNumber":4,"ReleaseNumber":31,"RowId":null,"Attributes":{"Name":"Искусственная дорожная неровность по адресу Большая Очаковская улица, дом 16","global_id":1711281,"AdmArea":"Западный административный округ","District":"район Очаково-Матвеевское","Location":"Большая Очаковская улица, дом 16","Material":"пластик"}},"type":"Feature"},{"geometry":{"coordinates":[37.701734008054,55.653663704846],"type":"Point"},"properties":{"DatasetId":674,"VersionNumber":4,"ReleaseNumber":31,"RowId":null,"Attributes":{"Name":"Искусственная дорожная неровность по адресу 1-я Курьяновская улица, дом 35","global_id":1711282,"AdmArea":"Юго-Восточный административный округ","District":"район Печатники","Location":"1-я Курьяновская улица, дом 35","Material":"пластик"}},"type":"Feature"},{"geometry":{"coordinates":[37.59457439463,55.653924355983],"type":"Point"},"properties":{"DatasetId":674,"VersionNumber":4,"ReleaseNumber":31,"RowId":null,"Attributes":{"Name":"Искусственная дорожная неровность по адресу Малая Юшуньская улица, дом 4","global_id":1711283,"AdmArea":"Юго-Западный административный округ","District":"район Зюзино","Location":"Малая Юшуньская улица, дом 4","Material":"пластик"}},"type":"Feature"},{"geometry":{"coordinates":[37.773653753131,55.655022021423],"type":"Point"},"properties":{"DatasetId":674,"VersionNumber":4,"ReleaseNumber":31,"RowId":null,"Attributes":{"Name":"Искусственная дорожная неровность по адресу Перервинский бульвар, дом 25","global_id":1711284,"AdmArea":"Юго-Восточный административный округ","District":"район Марьино","Location":"Перервинский бульвар, дом 25","Material":"пластик"}},"type":"Feature"},{"geometry":{"coordinates":[37.58369250601,55.655846310145],"type":"Point"},"properties":{"DatasetId":674,"VersionNumber":4,"ReleaseNumber":31,"RowId":null,"Attributes":{"Name":"Искусственная дорожная неровность по адресу Керченская улица, дом 1","global_id":1711285,"AdmArea":"Юго-Западный административный округ","District":"район Зюзино","Location":"Керченская улица, дом 1","Material":"пластик"}},"type":"Feature"},{"geometry":{"coordinates":[37.590352431372,55.656136994462],"type":"Point"},"properties":{"DatasetId":674,"VersionNumber":4,"ReleaseNumber":31,"RowId":null,"Attributes":{"Name":"Искусственная дорожная неровность по адресу Одесская улица, дом 16","global_id":1711286,"AdmArea":"Юго-Западный административный округ","District":"район Зюзино","Location":"Одесская улица, дом 16","Material":"пластик"}},"type":"Feature"},{"geometry":{"coordinates":[37.766426373683,55.65783091372],"type":"Point"},"properties":{"DatasetId":674,"VersionNumber":4,"ReleaseNumber":31,"RowId":null,"Attributes":{"Name":"Искусственная дорожная неровность по адресу Новомарьинская улица, дом 15","global_id":1711287,"AdmArea":"Юго-Восточный административный округ","District":"район Марьино","Location":"Новомарьинская улица, дом 15","Material":"пластик"}},"type":"Feature"},{"geometry":{"coordinates":[37.702633386045,55.658371969667],"type":"Point"},"properties":{"DatasetId":674,"VersionNumber":4,"ReleaseNumber":31,"RowId":null,"Attributes":{"Name":"Искусственная дорожная неровность по адресу Батюнинская улица, дом 10","global_id":1711288,"AdmArea":"Юго-Восточный административный округ","District":"район Печатники","Location":"Батюнинская улица, дом 10","Material":"асфальт"}},"type":"Feature"},{"geometry":{"coordinates":[37.538377758664,55.658418026297],"type":"Point"},"properties":{"DatasetId":674,"VersionNumber":4,"ReleaseNumber":31,"RowId":null,"Attributes":{"Name":"Искусственная дорожная неровность по адресу Старокалужское шоссе, дом 64","global_id":1711289,"AdmArea":"Юго-Западный административный округ","District":"Обручевский район","Location":"Старокалужское шоссе, дом 64","Material":"пластик"}},"type":"Feature"},{"geometry":{"coordinates":[37.606097668684,55.659603015204],"type":"Point"},"properties":{"DatasetId":674,"VersionNumber":4,"ReleaseNumber":31,"RowId":null,"Attributes":{"Name":"Искусственная дорожная неровность по адресу Сивашская улица, дом 5","global_id":1711291,"AdmArea":"Юго-Западный административный округ","District":"район Зюзино","Location":"Сивашская улица, дом 5","Material":"асфальт"}},"type":"Feature"},{"geometry":{"coordinates":[37.535823793514,55.661124990574],"type":"Point"},"properties":{"DatasetId":674,"VersionNumber":4,"ReleaseNumber":31,"RowId":null,"Attributes":{"Name":"Искусственная дорожная неровность 1 по адресу Старокалужское шоссе, дом 62, строение 5","global_id":1711293,"AdmArea":"Юго-Западный административный округ","District":"Обручевский район","Location":"Старокалужское шоссе, дом 62, строение 5","Material":"пластик"}},"type":"Feature"},{"geometry":{"coordinates":[37.568716894928,55.661131246124],"type":"Point"},"properties":{"DatasetId":674,"VersionNumber":4,"ReleaseNumber":31,"RowId":null,"Attributes":{"Name":"Искусственная дорожная неровность по адресу Перекопская улица, дом 21","global_id":1711294,"AdmArea":"Юго-Западный административный округ","District":"район Черёмушки","Location":"Перекопская улица, дом 21","Material":"пластик"}},"type":"Feature"},{"geometry":{"coordinates":[37.536244899464,55.66132513474],"type":"Point"},"properties":{"DatasetId":674,"VersionNumber":4,"ReleaseNumber":31,"RowId":null,"Attributes":{"Name":"Искусственная дорожная неровность 2 по адресу Старокалужское шоссе, дом 62, строение 5","global_id":1711295,"AdmArea":"Юго-Западный административный округ","District":"Обручевский район","Location":"Старокалужское шоссе, дом 62, строение 5","Material":"пластик"}},"type":"Feature"},{"geometry":{"coordinates":[37.466764958038,55.661858844133],"type":"Point"},"properties":{"DatasetId":674,"VersionNumber":4,"ReleaseNumber":31,"RowId":null,"Attributes":{"Name":"Искусственная дорожная неровность по адресу улица Академика Анохина, дом 32","global_id":1711296,"AdmArea":"Западный административный округ","District":"район Тропарёво-Никулино","Location":"улица Академика Анохина, дом 30, корпус 3, строение 2","Material":"пластик"}},"type":"Feature"},{"geometry":{"coordinates":[37.533116270349,55.661872775327],"type":"Point"},"properties":{"DatasetId":674,"VersionNumber":4,"ReleaseNumber":31,"RowId":null,"Attributes":{"Name":"Искусственная дорожная неровность по адресу улица Академика Челомея, дом 6","global_id":1711297,"AdmArea":"Юго-Западный административный округ","District":"Обручевский район","Location":"улица Академика Челомея, дом 6","Material":"пластик"}},"type":"Feature"},{"geometry":{"coordinates":[37.493319329414,55.661913788029],"type":"Point"},"properties":{"DatasetId":674,"VersionNumber":4,"ReleaseNumber":31,"RowId":null,"Attributes":{"Name":"Искусственная дорожная неровность по адресу улица 26-ти Бакинских Комиссаров, дом 10, корпус 6","global_id":1711298,"AdmArea":"Западный административный округ","District":"район Тропарёво-Никулино","Location":"улица 26-ти Бакинских Комиссаров, дом 10, корпус 6","Material":"пластик"}},"type":"Feature"},{"geometry":{"coordinates":[37.64523914399,55.663269471337],"type":"Point"},"properties":{"DatasetId":674,"VersionNumber":4,"ReleaseNumber":31,"RowId":null,"Attributes":{"Name":"Искусственная дорожная неровность по адресу улица Академика Миллионщикова, дом 22","global_id":1711299,"AdmArea":"Южный административный округ","District":"район Нагатино-Садовники","Location":"улица Академика Миллионщикова, дом 22","Material":"пластик"}},"type":"Feature"},{"geometry":{"coordinates":[37.561226994515,55.66344998522],"type":"Point"},"properties":{"DatasetId":674,"VersionNumber":4,"ReleaseNumber":31,"RowId":null,"Attributes":{"Name":"Искусственная дорожная неровность по адресу Новочерёмушкинская улица, дом 69","global_id":1711301,"AdmArea":"Юго-Западный административный округ","District":"район Черёмушки","Location":"Новочерёмушкинская улица, дом 69","Material":"пластик"}},"type":"Feature"},{"geometry":{"coordinates":[37.420655104647,55.665886271409],"type":"Point"},"properties":{"DatasetId":674,"VersionNumber":4,"ReleaseNumber":31,"RowId":null,"Attributes":{"Name":"Искусственная дорожная неровность по адресу 1-й Дачно-Мещерский проезд, дом 13","global_id":1711303,"AdmArea":"Западный административный округ","District":"район Солнцево","Location":"1-й Дачно-Мещерский проезд, дом 13","Material":"пластик"}},"type":"Feature"},{"geometry":{"coordinates":[37.500881999653,55.666091999989],"type":"Point"},"properties":{"DatasetId":674,"VersionNumber":4,"ReleaseNumber":31,"RowId":null,"Attributes":{"Name":"Искусственная дорожная неровность по адресу проспект Вернадского, дом 89","global_id":1711304,"AdmArea":"Западный административный округ","District":"район Тропарёво-Никулино","Location":"проспект Вернадского, дом 89","Material":"пластик"}},"type":"Feature"},{"geometry":{"coordinates":[37.611887719423,55.666787366694],"type":"Point"},"properties":{"DatasetId":674,"VersionNumber":4,"ReleaseNumber":31,"RowId":null,"Attributes":{"Name":"Искусственная дорожная неровность по адресу Криворожский проезд, дом 17А","global_id":1711306,"AdmArea":"Южный административный округ","District":"Нагорный район","Location":"Криворожский проезд, дом 17А","Material":"пластик"}},"type":"Feature"},{"geometry":{"coordinates":[37.525223871689,55.667885139106],"type":"Point"},"properties":{"DatasetId":674,"VersionNumber":4,"ReleaseNumber":31,"RowId":null,"Attributes":{"Name":"Искусственная дорожная неровность по адресу улица Новаторов, дом 16","global_id":1711307,"AdmArea":"Юго-Западный административный округ","District":"Обручевский район","Location":"улица Новаторов, дом 16","Material":"пластик"}},"type":"Feature"},{"geometry":{"coordinates":[37.671617326095,55.640386856778],"type":"Point"},"properties":{"DatasetId":674,"VersionNumber":4,"ReleaseNumber":31,"RowId":null,"Attributes":{"Name":"Искусственная дорожная неровность по адресу улица Кошкина, дом 10, корпус 1","global_id":1711308,"AdmArea":"Южный административный округ","District":"район Москворечье-Сабурово","Location":"улица Кошкина, дом 10, корпус 1","Material":"пластик"}},"type":"Feature"},{"geometry":{"coordinates":[37.770229578287,55.640455599785],"type":"Point"},"properties":{"DatasetId":674,"VersionNumber":4,"ReleaseNumber":31,"RowId":null,"Attributes":{"Name":"Искусственная дорожная неровность по адресу Алма-Атинская улица, дом 5","global_id":1711309,"AdmArea":"Южный административный округ","District":"район Братеево","Location":"Алма-Атинская улица, дом 5","Material":"пластик"}},"type":"Feature"},{"geometry":{"coordinates":[37.483356933862,55.640993004725],"type":"Point"},"properties":{"DatasetId":674,"VersionNumber":4,"ReleaseNumber":31,"RowId":null,"Attributes":{"Name":"Искусственная дорожная неровность по адресу улица Академика Бакулева, дом 5","global_id":1711310,"AdmArea":"Юго-Западный административный округ","District":"район Тёплый Стан","Location":"улица Академика Бакулева, дом 5","Material":"пластик"}},"type":"Feature"},{"geometry":{"coordinates":[37.712864335647,55.642327589005],"type":"Point"},"properties":{"DatasetId":674,"VersionNumber":4,"ReleaseNumber":31,"RowId":null,"Attributes":{"Name":"Искусственная дорожная неровность по адресу Батайский проезд, дом 5","global_id":1711311,"AdmArea":"Юго-Восточный административный округ","District":"район Марьино","Location":"Батайский проезд, дом 5","Material":"асфальт"}},"type":"Feature"},{"geometry":{"coordinates":[37.765601258518,55.642769594563],"type":"Point"},"properties":{"DatasetId":674,"VersionNumber":4,"ReleaseNumber":31,"RowId":null,"Attributes":{"Name":"Искусственная дорожная неровность по адресу улица Борисовские Пруды, дом 38","global_id":1711312,"AdmArea":"Южный административный округ","District":"район Братеево","Location":"улица Борисовские Пруды, дом 38","Material":"пластик"}},"type":"Feature"},{"geometry":{"coordinates":[37.5952105806155,55.6429118826673],"type":"Point"},"properties":{"DatasetId":674,"VersionNumber":4,"ReleaseNumber":31,"RowId":null,"Attributes":{"Name":"Искусственная дорожная неровность на УДС Старобалаклавской улицы с привязкой к адресу Балаклавский проспект, дом 26, корпус 1","global_id":1711313,"AdmArea":"Юго-Западный административный округ","District":"район Зюзино","Location":"Балаклавский проспект, дом 26, корпус 1","Material":"пластик"}},"type":"Feature"},{"geometry":{"coordinates":[37.67217137103,55.642937406229],"type":"Point"},"properties":{"DatasetId":674,"VersionNumber":4,"ReleaseNumber":31,"RowId":null,"Attributes":{"Name":"Искусственная дорожная неровность по адресу улица Кошкина, дом 6","global_id":1711314,"AdmArea":"Южный административный округ","District":"район Москворечье-Сабурово","Location":"улица Кошкина, дом 6","Material":"пластик"}},"type":"Feature"},{"geometry":{"coordinates":[37.412755997368,55.643471933098],"type":"Point"},"properties":{"DatasetId":674,"VersionNumber":4,"ReleaseNumber":31,"RowId":null,"Attributes":{"Name":"Искусственная дорожная неровность по адресу Волынская улица, дом 7","global_id":1711315,"AdmArea":"Западный административный округ","District":"район Солнцево","Location":"Волынская улица, дом 7","Material":"пластик"}},"type":"Feature"},{"geometry":{"coordinates":[37.594581769798,55.643963133344],"type":"Point"},"properties":{"DatasetId":674,"VersionNumber":4,"ReleaseNumber":31,"RowId":null,"Attributes":{"Name":"Искусственная дорожная неровность по адресу Азовская улица, дом 41","global_id":1711316,"AdmArea":"Юго-Западный административный округ","District":"район Зюзино","Location":"Азовская улица, дом 41","Material":"пластик"}},"type":"Feature"},{"geometry":{"coordinates":[37.342117343311,55.644224890325],"type":"Point"},"properties":{"DatasetId":674,"VersionNumber":4,"ReleaseNumber":31,"RowId":null,"Attributes":{"Name":"Искусственная дорожная неровность 1 по адресу улица Шолохова, дом 30","global_id":1711317,"AdmArea":"Западный административный округ","District":"район Ново-Переделкино","Location":"улица Шолохова, дом 30","Material":"пластик"}},"type":"Feature"},{"geometry":{"coordinates":[37.666793373918,55.644327476336],"type":"Point"},"properties":{"DatasetId":674,"VersionNumber":4,"ReleaseNumber":31,"RowId":null,"Attributes":{"Name":"Искусственная дорожная неровность по адресу улица Москворечье, дом 47, корпус 1","global_id":1711318,"AdmArea":"Южный административный округ","District":"район Москворечье-Сабурово","Location":"улица Москворечье, дом 47, корпус 1","Material":"асфальт"}},"type":"Feature"},{"geometry":{"coordinates":[37.398415064,55.644620798117],"type":"Point"},"properties":{"DatasetId":674,"VersionNumber":4,"ReleaseNumber":31,"RowId":null,"Attributes":{"Name":"Искусственная дорожная неровность по адресу улица Авиаторов, дом 14","global_id":1711319,"AdmArea":"Западный административный округ","District":"район Солнцево","Location":"улица Авиаторов, дом 14","Material":"пластик"}},"type":"Feature"},{"geometry":{"coordinates":[37.533840801152,55.645138720698],"type":"Point"},"properties":{"DatasetId":674,"VersionNumber":4,"ReleaseNumber":31,"RowId":null,"Attributes":{"Name":"Искусственная дорожная неровность по адресу улица Генерала Антонова, дом 3","global_id":1711321,"AdmArea":"Юго-Западный административный округ","District":"район Коньково","Location":"улица Генерала Антонова, дом 3","Material":"пластик"}},"type":"Feature"},{"geometry":{"coordinates":[37.401471105647,55.650848818466],"type":"Point"},"properties":{"DatasetId":674,"VersionNumber":4,"ReleaseNumber":31,"RowId":null,"Attributes":{"Name":"Искусственная дорожная неровность по адресу Солнцевский проспект, дом 9","global_id":1711322,"AdmArea":"Западный административный округ","District":"район Солнцево","Location":"Солнцевский проспект, дом 9","Material":"пластик"}},"type":"Feature"},{"geometry":{"coordinates":[37.61319462533,55.650932806172],"type":"Point"},"properties":{"DatasetId":674,"VersionNumber":4,"ReleaseNumber":31,"RowId":null,"Attributes":{"Name":"Искусственная дорожная неровность по адресу Артековская улица, дом 3","global_id":1711323,"AdmArea":"Южный административный округ","District":"Нагорный район","Location":"Артековская улица, дом 3","Material":"пластик"}},"type":"Feature"},{"geometry":{"coordinates":[37.494472847087,55.651151863094],"type":"Point"},"properties":{"DatasetId":674,"VersionNumber":4,"ReleaseNumber":31,"RowId":null,"Attributes":{"Name":"Искусственная дорожная неровность по адресу улица Саморы Машела, дом 4","global_id":1711325,"AdmArea":"Юго-Западный административный округ","District":"Обручевский район","Location":"улица Саморы Машела, дом 4","Material":"пластик"}},"type":"Feature"},{"geometry":{"coordinates":[37.742009554304,55.651543915189],"type":"Point"},"properties":{"DatasetId":674,"VersionNumber":4,"ReleaseNumber":31,"RowId":null,"Attributes":{"Name":"Искусственная дорожная неровность по адресу Люблинская улица, дом 108А","global_id":1711326,"AdmArea":"Юго-Восточный административный округ","District":"район Марьино","Location":"Люблинская улица, дом 108А","Material":"асфальт"}},"type":"Feature"},{"geometry":{"coordinates":[37.525366027388,55.653565032162],"type":"Point"},"properties":{"DatasetId":674,"VersionNumber":4,"ReleaseNumber":31,"RowId":null,"Attributes":{"Name":"Искусственная дорожная неровность по адресу улица Бутлерова, дом 5","global_id":1711327,"AdmArea":"Юго-Западный административный округ","District":"район Коньково","Location":"улица Бутлерова, дом 5","Material":"пластик"}},"type":"Feature"},{"geometry":{"coordinates":[37.480235012467,55.653574889406],"type":"Point"},"properties":{"DatasetId":674,"VersionNumber":4,"ReleaseNumber":31,"RowId":null,"Attributes":{"Name":"Искусственная дорожная неровность по адресу проспект Вернадского, дом 127","global_id":1711328,"AdmArea":"Западный административный округ","District":"район Тропарёво-Никулино","Location":"проспект Вернадского, дом 127","Material":"пластик"}},"type":"Feature"},{"geometry":{"coordinates":[37.648221760939,55.66842407008],"type":"Point"},"properties":{"DatasetId":674,"VersionNumber":4,"ReleaseNumber":31,"RowId":null,"Attributes":{"Name":"Искусственная дорожная неровность по адресу улица Академика Миллионщикова, дом 19","global_id":1711329,"AdmArea":"Южный административный округ","District":"район Нагатино-Садовники","Location":"улица Академика Миллионщикова, дом 19","Material":"пластик"}},"type":"Feature"},{"geometry":{"coordinates":[37.758557108437,55.668502902596],"type":"Point"},"properties":{"DatasetId":674,"VersionNumber":4,"ReleaseNumber":31,"RowId":null,"Attributes":{"Name":"Искусственная дорожная неровность 1 по адресу улица Верхние Поля, дом 35, корпус 3","global_id":1711330,"AdmArea":"Юго-Восточный административный округ","District":"район Люблино","Location":"улица Верхние Поля, дом 35, корпус 3","Material":"асфальт"}},"type":"Feature"},{"geometry":{"coordinates":[37.758707313041,55.66893588204],"type":"Point"},"properties":{"DatasetId":674,"VersionNumber":4,"ReleaseNumber":31,"RowId":null,"Attributes":{"Name":"Искусственная дорожная неровность 2 по адресу улица Верхние Поля, дом 35, корпус 3","global_id":1711331,"AdmArea":"Юго-Восточный административный округ","District":"район Люблино","Location":"улица Верхние Поля, дом 35, корпус 3","Material":"асфальт"}},"type":"Feature"},{"geometry":{"coordinates":[37.470691712435,55.66952161217],"type":"Point"},"properties":{"DatasetId":674,"VersionNumber":4,"ReleaseNumber":31,"RowId":null,"Attributes":{"Name":"Искусственная дорожная неровность по адресу улица Академика Анохина, дом 6, корпус 4","global_id":1711332,"AdmArea":"Западный административный округ","District":"район Тропарёво-Никулино","Location":"улица Академика Анохина, дом 6, корпус 4","Material":"пластик"}},"type":"Feature"},{"geometry":{"coordinates":[37.648811847181,55.669615023943],"type":"Point"},"properties":{"DatasetId":674,"VersionNumber":4,"ReleaseNumber":31,"RowId":null,"Attributes":{"Name":"Искусственная дорожная неровность по адресу улица Академика Миллионщикова, дом 13, корпус 1","global_id":1711333,"AdmArea":"Южный административный округ","District":"район Нагатино-Садовники","Location":"улица Академика Миллионщикова, дом 13, корпус 1","Material":"пластик"}},"type":"Feature"},{"geometry":{"coordinates":[37.524256094175,55.630016067451],"type":"Point"},"properties":{"DatasetId":674,"VersionNumber":4,"ReleaseNumber":31,"RowId":null,"Attributes":{"Name":"Искусственная дорожная неровность по адресу улица Академика Капицы, дом 10","global_id":1711334,"AdmArea":"Юго-Западный административный округ","District":"район Ясенево","Location":"улица Академика Капицы, дом 10","Material":"пластик"}},"type":"Feature"},{"geometry":{"coordinates":[37.512983999854,55.630627999852],"type":"Point"},"properties":{"DatasetId":674,"VersionNumber":4,"ReleaseNumber":31,"RowId":null,"Attributes":{"Name":"Искусственная дорожная неровность по адресу Профсоюзная улица, дом 130А","global_id":1711336,"AdmArea":"Юго-Западный административный округ","District":"район Тёплый Стан","Location":"Профсоюзная улица, дом 130А","Material":"асфальт"}},"type":"Feature"},{"geometry":{"coordinates":[37.612998990227,55.631207156002],"type":"Point"},"properties":{"DatasetId":674,"VersionNumber":4,"ReleaseNumber":31,"RowId":null,"Attributes":{"Name":"Искусственная дорожная неровность по адресу Кировоградская улица, дом 4, корпус 1","global_id":1711337,"AdmArea":"Южный административный округ","District":"район Чертаново Северное","Location":"Кировоградская улица, дом 4, корпус 1","Material":"пластик"}},"type":"Feature"},{"geometry":{"coordinates":[37.613379865128,55.631945840717],"type":"Point"},"properties":{"DatasetId":674,"VersionNumber":4,"ReleaseNumber":31,"RowId":null,"Attributes":{"Name":"Искусственная дорожная неровность по адресу Кировоградская улица, дом 2","global_id":1711338,"AdmArea":"Южный административный округ","District":"район Чертаново Северное","Location":"Кировоградская улица, дом 2","Material":"пластик"}},"type":"Feature"},{"geometry":{"coordinates":[37.757456896793,55.632162637709],"type":"Point"},"properties":{"DatasetId":674,"VersionNumber":4,"ReleaseNumber":31,"RowId":null,"Attributes":{"Name":"Искусственная дорожная неровность по адресу Братеевская улица, дом 23","global_id":1711340,"AdmArea":"Южный административный округ","District":"район Братеево","Location":"Братеевская улица, дом 23","Material":"пластик"}},"type":"Feature"},{"geometry":{"coordinates":[37.390611679401,55.632200101905],"type":"Point"},"properties":{"DatasetId":674,"VersionNumber":4,"ReleaseNumber":31,"RowId":null,"Attributes":{"Name":"Искусственная дорожная неровность по адресу Родниковая улица, дом 7","global_id":1711341,"AdmArea":"Западный административный округ","District":"район Солнцево","Location":"Родниковая улица, дом 7","Material":"пластик"}},"type":"Feature"},{"geometry":{"coordinates":[37.479683313033,55.634556492798],"type":"Point"},"properties":{"DatasetId":674,"VersionNumber":4,"ReleaseNumber":31,"RowId":null,"Attributes":{"Name":"Искусственная дорожная неровность по адресу улица Академика Варги, дом 36","global_id":1711342,"AdmArea":"Юго-Западный административный округ","District":"район Тёплый Стан","Location":"улица Академика Варги, дом 36","Material":"пластик"}},"type":"Feature"},{"geometry":{"coordinates":[37.53423139762,55.635082510897],"type":"Point"},"properties":{"DatasetId":674,"VersionNumber":4,"ReleaseNumber":31,"RowId":null,"Attributes":{"Name":"Искусственная дорожная неровность по адресу улица Введенского, дом 26","global_id":1711343,"AdmArea":"Юго-Западный административный округ","District":"район Коньково","Location":"улица Введенского, дом 26","Material":"пластик"}},"type":"Feature"},{"geometry":{"coordinates":[37.767370508436,55.636031642095],"type":"Point"},"properties":{"DatasetId":674,"VersionNumber":4,"ReleaseNumber":31,"RowId":null,"Attributes":{"Name":"Искусственная дорожная неровность по адресу Братеевская улица, дом 18","global_id":1711345,"AdmArea":"Южный административный округ","District":"район Братеево","Location":"Братеевская улица, дом 18","Material":"пластик"}},"type":"Feature"},{"geometry":{"coordinates":[37.670844012281,55.636352910108],"type":"Point"},"properties":{"DatasetId":674,"VersionNumber":4,"ReleaseNumber":31,"RowId":null,"Attributes":{"Name":"Искусственная дорожная неровность по адресу Кантемировская улица, дом 17, корпус 1","global_id":1711346,"AdmArea":"Южный административный округ","District":"район Царицыно","Location":"Кантемировская улица, дом 17, корпус 1","Material":"пластик"}},"type":"Feature"},{"geometry":{"coordinates":[37.678520158605,55.63644925268],"type":"Point"},"properties":{"DatasetId":674,"VersionNumber":4,"ReleaseNumber":31,"RowId":null,"Attributes":{"Name":"Искусственная дорожная неровность по адресу Кантемировская улица, дом 3, корпус 3","global_id":1711347,"AdmArea":"Южный административный округ","District":"район Царицыно","Location":"Кантемировская улица, дом 3, корпус 3","Material":"пластик"}},"type":"Feature"},{"geometry":{"coordinates":[37.65928318775,55.637215621672],"type":"Point"},"properties":{"DatasetId":674,"VersionNumber":4,"ReleaseNumber":31,"RowId":null,"Attributes":{"Name":"Искусственная дорожная неровность по адресу Кантемировская улица, дом 41","global_id":1711348,"AdmArea":"Южный административный округ","District":"район Царицыно","Location":"Кантемировская улица, дом 41","Material":"пластик"}},"type":"Feature"},{"geometry":{"coordinates":[37.758364657863,55.637955806984],"type":"Point"},"properties":{"DatasetId":674,"VersionNumber":4,"ReleaseNumber":31,"RowId":null,"Attributes":{"Name":"Искусственная дорожная неровность по адресу Ключевая улица, дом 6","global_id":1711349,"AdmArea":"Южный административный округ","District":"район Братеево","Location":"Ключевая улица, дом 6","Material":"пластик"}},"type":"Feature"},{"geometry":{"coordinates":[37.340872796655,55.638560380227],"type":"Point"},"properties":{"DatasetId":674,"VersionNumber":4,"ReleaseNumber":31,"RowId":null,"Attributes":{"Name":"Искусственная дорожная неровность по адресу улица Скульптора Мухиной, дом 12","global_id":1711350,"AdmArea":"Западный административный округ","District":"район Ново-Переделкино","Location":"улица Скульптора Мухиной, дом 12","Material":"пластик"}},"type":"Feature"},{"geometry":{"coordinates":[37.512511037756,55.640164890809],"type":"Point"},"properties":{"DatasetId":674,"VersionNumber":4,"ReleaseNumber":31,"RowId":null,"Attributes":{"Name":"Искусственная дорожная неровность по адресу улица Академика Арцимовича, дом 9","global_id":1711351,"AdmArea":"Юго-Западный административный округ","District":"район Коньково","Location":"улица Академика Арцимовича, дом 9","Material":"асфальт"}},"type":"Feature"},{"geometry":{"coordinates":[37.5513189138,55.67099512305],"type":"Point"},"properties":{"DatasetId":674,"VersionNumber":4,"ReleaseNumber":31,"RowId":null,"Attributes":{"Name":"Искусственная дорожная неровность по адресу улица Гарибальди, дом 21, корпус 5","global_id":1711352,"AdmArea":"Юго-Западный административный округ","District":"Обручевский район","Location":"улица Гарибальди, дом 21, корпус 5","Material":"пластик"}},"type":"Feature"},{"geometry":{"coordinates":[37.505264046288,55.671873276873],"type":"Point"},"properties":{"DatasetId":674,"VersionNumber":4,"ReleaseNumber":31,"RowId":null,"Attributes":{"Name":"Искусственная дорожная неровность по адресу проспект Вернадского, дом 57","global_id":1711353,"AdmArea":"Западный административный округ","District":"район Проспект Вернадского","Location":"проспект Вернадского, дом 57","Material":"пластик"}},"type":"Feature"},{"geometry":{"coordinates":[37.765474861066,55.672317424125],"type":"Point"},"properties":{"DatasetId":674,"VersionNumber":4,"ReleaseNumber":31,"RowId":null,"Attributes":{"Name":"Искусственная дорожная неровность по адресу Белореченская улица, дом 19","global_id":1711355,"AdmArea":"Юго-Восточный административный округ","District":"район Люблино","Location":"Белореченская улица, дом 19","Material":"пластик"}},"type":"Feature"},{"geometry":{"coordinates":[37.657556182904,55.673091139252],"type":"Point"},"properties":{"DatasetId":674,"VersionNumber":4,"ReleaseNumber":31,"RowId":null,"Attributes":{"Name":"Искусственная дорожная неровность по адресу улица Садовники, дом 13","global_id":1711356,"AdmArea":"Южный административный округ","District":"район Нагатино-Садовники","Location":"улица Садовники, дом 13","Material":"пластик"}},"type":"Feature"},{"geometry":{"coordinates":[37.469221862916,55.673410679847],"type":"Point"},"properties":{"DatasetId":674,"VersionNumber":4,"ReleaseNumber":31,"RowId":null,"Attributes":{"Name":"Искусственная дорожная неровность по адресу Мичуринский Проспект, Олимпийская Деревня улица 8, корпус 1","global_id":1711357,"AdmArea":"Западный административный округ","District":"район Тропарёво-Никулино","Location":"улица Мичуринский Проспект, Олимпийская Деревня, дом 8, корпус 1","Material":"пластик"}},"type":"Feature"},{"geometry":{"coordinates":[37.436478796324,55.67458717789],"type":"Point"},"properties":{"DatasetId":674,"VersionNumber":4,"ReleaseNumber":31,"RowId":null,"Attributes":{"Name":"Искусственная дорожная неровность по адресу Рябиновая улица, дом 44","global_id":1711358,"AdmArea":"Западный административный округ","District":"район Очаково-Матвеевское","Location":"Рябиновая улица, дом 44","Material":"пластик"}},"type":"Feature"},{"geometry":{"coordinates":[37.741415280116,55.674675095664],"type":"Point"},"properties":{"DatasetId":674,"VersionNumber":4,"ReleaseNumber":31,"RowId":null,"Attributes":{"Name":"Искусственная дорожная неровность по адресу Мариупольская улица, дом 3","global_id":1711359,"AdmArea":"Юго-Восточный административный округ","District":"район Люблино","Location":"Мариупольская улица, дом 3","Material":"асфальт"}},"type":"Feature"},{"geometry":{"coordinates":[37.864544765369,55.699192026894],"type":"Point"},"properties":{"DatasetId":674,"VersionNumber":4,"ReleaseNumber":31,"RowId":null,"Attributes":{"Name":"Искусственная дорожная неровность 2 по адресу Лениногорская улица, дом 31","global_id":1711360,"AdmArea":"Восточный административный округ","District":"район Косино-Ухтомский","Location":"Лениногорская улица, дом 31","Material":"пластик"}},"type":"Feature"},{"geometry":{"coordinates":[37.560043931252,55.699248066004],"type":"Point"},"properties":{"DatasetId":674,"VersionNumber":4,"ReleaseNumber":31,"RowId":null,"Attributes":{"Name":"Искусственная дорожная неровность по адресу улица Фотиевой, дом 12","global_id":1711361,"AdmArea":"Юго-Западный административный округ","District":"Гагаринский район","Location":"улица Фотиевой, дом 12","Material":"асфальт"}},"type":"Feature"},{"geometry":{"coordinates":[37.821919434745,55.700599308234],"type":"Point"},"properties":{"DatasetId":674,"VersionNumber":4,"ReleaseNumber":31,"RowId":null,"Attributes":{"Name":"Искусственная дорожная неровность по адресу Самаркандский бульвар, дом 9, корпус 1","global_id":1711362,"AdmArea":"Юго-Восточный административный округ","District":"район Выхино-Жулебино","Location":"Самаркандский бульвар, дом 9, корпус 1","Material":"пластик"}},"type":"Feature"},{"geometry":{"coordinates":[37.73732692868,55.701344068833],"type":"Point"},"properties":{"DatasetId":674,"VersionNumber":4,"ReleaseNumber":31,"RowId":null,"Attributes":{"Name":"Искусственная дорожная неровность по адресу улица Артюхиной, дом 8/10","global_id":1711363,"AdmArea":"Юго-Восточный административный округ","District":"район Текстильщики","Location":"улица Артюхиной, дом 8/10","Material":"пластик"}},"type":"Feature"},{"geometry":{"coordinates":[37.659360138335,55.701567473389],"type":"Point"},"properties":{"DatasetId":674,"VersionNumber":4,"ReleaseNumber":31,"RowId":null,"Attributes":{"Name":"Искусственная дорожная неровность по адресу улица Лобанова, дом 3","global_id":1711364,"AdmArea":"Южный административный округ","District":"Даниловский район","Location":"улица Лобанова, дом 3","Material":"пластик"}},"type":"Feature"},{"geometry":{"coordinates":[37.740852015772,55.701626926469],"type":"Point"},"properties":{"DatasetId":674,"VersionNumber":4,"ReleaseNumber":31,"RowId":null,"Attributes":{"Name":"Искусственная дорожная неровность по адресу 1-я улица Текстильщиков, дом 16","global_id":1711365,"AdmArea":"Юго-Восточный административный округ","District":"район Текстильщики","Location":"1-я улица Текстильщиков, дом 16","Material":"асфальт"}},"type":"Feature"},{"geometry":{"coordinates":[37.863811517315,55.703403117472],"type":"Point"},"properties":{"DatasetId":674,"VersionNumber":4,"ReleaseNumber":31,"RowId":null,"Attributes":{"Name":"Искусственная дорожная неровность по адресу Златоустовская улица, дом 3","global_id":1711367,"AdmArea":"Восточный административный округ","District":"район Косино-Ухтомский","Location":"Златоустовская улица, дом 3","Material":"пластик"}},"type":"Feature"},{"geometry":{"coordinates":[37.781014742605,55.703800979495],"type":"Point"},"properties":{"DatasetId":674,"VersionNumber":4,"ReleaseNumber":31,"RowId":null,"Attributes":{"Name":"Искусственная дорожная неровность по адресу Волгоградский проспект, дом 149","global_id":1711368,"AdmArea":"Юго-Восточный административный округ","District":"район Кузьминки","Location":"Волгоградский проспект, дом 149","Material":"асфальт"}},"type":"Feature"},{"geometry":{"coordinates":[37.656401157858,55.705010446809],"type":"Point"},"properties":{"DatasetId":674,"VersionNumber":4,"ReleaseNumber":31,"RowId":null,"Attributes":{"Name":"Искусственная дорожная неровность по адресу Автозаводская улица, дом 15/2","global_id":1711369,"AdmArea":"Южный административный округ","District":"Даниловский район","Location":"Автозаводская улица, дом 15/2","Material":"пластик"}},"type":"Feature"},{"geometry":{"coordinates":[37.480507761648,55.705059950156],"type":"Point"},"properties":{"DatasetId":674,"VersionNumber":4,"ReleaseNumber":31,"RowId":null,"Attributes":{"Name":"Искусственная дорожная неровность по адресу Веерная улица, дом 1, корпус 5","global_id":1711370,"AdmArea":"Западный административный округ","District":"район Очаково-Матвеевское","Location":"Веерная улица, дом 1, корпус 5","Material":"пластик"}},"type":"Feature"},{"geometry":{"coordinates":[37.67229022982,55.705174016863],"type":"Point"},"properties":{"DatasetId":674,"VersionNumber":4,"ReleaseNumber":31,"RowId":null,"Attributes":{"Name":"Искусственная дорожная неровность по адресу 5-я Кожуховская улица, дом 15","global_id":1711371,"AdmArea":"Юго-Восточный административный округ","District":"Южнопортовый район","Location":"5-я Кожуховская улица, дом 15","Material":"пластик"}},"type":"Feature"},{"geometry":{"coordinates":[37.768599132454,55.705349323962],"type":"Point"},"properties":{"DatasetId":674,"VersionNumber":4,"ReleaseNumber":31,"RowId":null,"Attributes":{"Name":"Искусственная дорожная неровность по адресу Волгоградский проспект, дом 125","global_id":1711372,"AdmArea":"Юго-Восточный административный округ","District":"район Кузьминки","Location":"Волгоградский проспект, дом 125","Material":"пластик"}},"type":"Feature"},{"geometry":{"coordinates":[37.804013847091,55.705995926277],"type":"Point"},"properties":{"DatasetId":674,"VersionNumber":4,"ReleaseNumber":31,"RowId":null,"Attributes":{"Name":"Искусственная дорожная неровность по адресу Сормовский проезд, дом 11, строение 1","global_id":1711373,"AdmArea":"Юго-Восточный административный округ","District":"район Выхино-Жулебино","Location":"Сормовский проезд, дом 11, строение 1","Material":"пластик"}},"type":"Feature"},{"geometry":{"coordinates":[37.782330534647,55.717804931044],"type":"Point"},"properties":{"DatasetId":674,"VersionNumber":4,"ReleaseNumber":31,"RowId":null,"Attributes":{"Name":"Искусственная дорожная неровность по адресу 1-я Новокузьминская улица, дом 6, корпус 2","global_id":1711375,"AdmArea":"Юго-Восточный административный округ","District":"Рязанский район","Location":"1-я Новокузьминская улица, дом 30, строение 1","Material":"пластик"}},"type":"Feature"},{"geometry":{"coordinates":[37.794670706976,55.718101397034],"type":"Point"},"properties":{"DatasetId":674,"VersionNumber":4,"ReleaseNumber":31,"RowId":null,"Attributes":{"Name":"Искусственная дорожная неровность по адресу 4-й Вешняковский проезд, дом 1","global_id":1711376,"AdmArea":"Юго-Восточный административный округ","District":"Рязанский район","Location":"4-й Вешняковский проезд, дом 1","Material":"пластик"}},"type":"Feature"},{"geometry":{"coordinates":[37.864060962401,55.718302384183],"type":"Point"},"properties":{"DatasetId":674,"VersionNumber":4,"ReleaseNumber":31,"RowId":null,"Attributes":{"Name":"Искусственная дорожная неровность по адресу Оранжерейная улица, дом 14","global_id":1711377,"AdmArea":"Восточный административный округ","District":"район Косино-Ухтомский","Location":"Оранжерейная улица, дом 14","Material":"пластик"}},"type":"Feature"},{"geometry":{"coordinates":[37.858456821603,55.718476117463],"type":"Point"},"properties":{"DatasetId":674,"VersionNumber":4,"ReleaseNumber":31,"RowId":null,"Attributes":{"Name":"Искусственная дорожная неровность по адресу Большая Косинская улица, дом 27","global_id":1711378,"AdmArea":"Восточный административный округ","District":"район Косино-Ухтомский","Location":"Большая Косинская улица, дом 27","Material":"асфальт"}},"type":"Feature"},{"geometry":{"coordinates":[37.887581420332,55.71871722401],"type":"Point"},"properties":{"DatasetId":674,"VersionNumber":4,"ReleaseNumber":31,"RowId":null,"Attributes":{"Name":"Искусственная дорожная неровность по адресу улица Медведева, дом 8","global_id":1711379,"AdmArea":"Восточный административный округ","District":"район Косино-Ухтомский","Location":"улица Медведева, дом 8","Material":"пластик"}},"type":"Feature"},{"geometry":{"coordinates":[37.604397988793,55.718977625566],"type":"Point"},"properties":{"DatasetId":674,"VersionNumber":4,"ReleaseNumber":31,"RowId":null,"Attributes":{"Name":"Искусственная дорожная неровность по адресу Донская улица, дом 37","global_id":1711380,"AdmArea":"Южный административный округ","District":"Донской район","Location":"Донская улица, дом 37","Material":"пластик"}},"type":"Feature"},{"geometry":{"coordinates":[37.477129017303,55.719134420823],"type":"Point"},"properties":{"DatasetId":674,"VersionNumber":4,"ReleaseNumber":31,"RowId":null,"Attributes":{"Name":"Искусственная дорожная неровность по адресу Нежинская улица, дом 1, корпус 3","global_id":1711382,"AdmArea":"Западный административный округ","District":"район Очаково-Матвеевское","Location":"Нежинская улица, дом 1, корпус 3","Material":"пластик"}},"type":"Feature"},{"geometry":{"coordinates":[37.460186340989,55.719478371813],"type":"Point"},"properties":{"DatasetId":674,"VersionNumber":4,"ReleaseNumber":31,"RowId":null,"Attributes":{"Name":"Искусственная дорожная неровность по адресу улица Артамонова, дом 3","global_id":1711383,"AdmArea":"Западный административный округ","District":"район Фили-Давыдково","Location":"улица Артамонова, дом 3","Material":"пластик"}},"type":"Feature"},{"geometry":{"coordinates":[37.518695376141,55.719655886032],"type":"Point"},"properties":{"DatasetId":674,"VersionNumber":4,"ReleaseNumber":31,"RowId":null,"Attributes":{"Name":"Искусственная дорожная неровность по адресу Мосфильмовская улица, дом 44","global_id":1711384,"AdmArea":"Западный административный округ","District":"район Раменки","Location":"Мосфильмовская улица, дом 44","Material":"пластик"}},"type":"Feature"},{"geometry":{"coordinates":[37.826921253348,55.720976613463],"type":"Point"},"properties":{"DatasetId":674,"VersionNumber":4,"ReleaseNumber":31,"RowId":null,"Attributes":{"Name":"Искусственная дорожная неровность по адресу улица Молдагуловой, дом 11, корпус 1","global_id":1711385,"AdmArea":"Восточный административный округ","District":"район Вешняки","Location":"улица Молдагуловой, дом 11, корпус 1","Material":"пластик"}},"type":"Feature"},{"geometry":{"coordinates":[37.606271677744,55.721815686433],"type":"Point"},"properties":{"DatasetId":674,"VersionNumber":4,"ReleaseNumber":31,"RowId":null,"Attributes":{"Name":"Искусственная дорожная неровность по адресу Донская улица, дом 25","global_id":1711386,"AdmArea":"Центральный административный округ","District":"район Якиманка","Location":"Донская улица, дом 25","Material":"пластик"}},"type":"Feature"},{"geometry":{"coordinates":[37.515194926245,55.721848602971],"type":"Point"},"properties":{"DatasetId":674,"VersionNumber":4,"ReleaseNumber":31,"RowId":null,"Attributes":{"Name":"Искусственная дорожная неровность 1 по адресу улица Довженко, дом 6","global_id":1711387,"AdmArea":"Западный административный округ","District":"район Раменки","Location":"улица Довженко, дом 6","Material":"пластик"}},"type":"Feature"},{"geometry":{"coordinates":[37.678251775236,55.721951558802],"type":"Point"},"properties":{"DatasetId":674,"VersionNumber":4,"ReleaseNumber":31,"RowId":null,"Attributes":{"Name":"Искусственная дорожная неровность по адресу Новоостаповская улица, дом 5, строение 1","global_id":1711388,"AdmArea":"Юго-Восточный административный округ","District":"Южнопортовый район","Location":"Новоостаповская улица, дом 5, строение 1","Material":"пластик"}},"type":"Feature"},{"geometry":{"coordinates":[37.474360642261,55.722096603352],"type":"Point"},"properties":{"DatasetId":674,"VersionNumber":4,"ReleaseNumber":31,"RowId":null,"Attributes":{"Name":"Искусственная дорожная неровность по адресу Давыдковская улица, дом 10","global_id":1711389,"AdmArea":"Западный административный округ","District":"район Фили-Давыдково","Location":"Давыдковская улица, дом 10","Material":"пластик"}},"type":"Feature"},{"geometry":{"coordinates":[37.898107078432,55.72269997964],"type":"Point"},"properties":{"DatasetId":674,"VersionNumber":4,"ReleaseNumber":31,"RowId":null,"Attributes":{"Name":"Искусственная дорожная неровность по адресу Лухмановская улица, дом 19А","global_id":1711390,"AdmArea":"Восточный административный округ","District":"район Косино-Ухтомский","Location":"Лухмановская улица, дом 19А","Material":"пластик"}},"type":"Feature"},{"geometry":{"coordinates":[37.51709393062,55.722899799728],"type":"Point"},"properties":{"DatasetId":674,"VersionNumber":4,"ReleaseNumber":31,"RowId":null,"Attributes":{"Name":"Искусственная дорожная неровность по адресу улица Довженко, дом 4","global_id":1711392,"AdmArea":"Западный административный округ","District":"район Раменки","Location":"улица Довженко, дом 4","Material":"пластик"}},"type":"Feature"},{"geometry":{"coordinates":[37.83663403583,55.724072915992],"type":"Point"},"properties":{"DatasetId":674,"VersionNumber":4,"ReleaseNumber":31,"RowId":null,"Attributes":{"Name":"Искусственная дорожная неровность по адресу Косинская улица, дом 10А","global_id":1711393,"AdmArea":"Восточный административный округ","District":"район Вешняки","Location":"Косинская улица, дом 10А","Material":"асфальт"}},"type":"Feature"},{"geometry":{"coordinates":[37.461456000048,55.724223999809],"type":"Point"},"properties":{"DatasetId":674,"VersionNumber":4,"ReleaseNumber":31,"RowId":null,"Attributes":{"Name":"Искусственная дорожная неровность по адресу Кременчугская улица, дом 3","global_id":1711394,"AdmArea":"Западный административный округ","District":"район Фили-Давыдково","Location":"Кременчугская улица, дом 3","Material":"пластик"}},"type":"Feature"},{"geometry":{"coordinates":[37.786706558077,55.725267467278],"type":"Point"},"properties":{"DatasetId":674,"VersionNumber":4,"ReleaseNumber":31,"RowId":null,"Attributes":{"Name":"Искусственная дорожная неровность по адресу 1-й Вешняковский проезд, дом 2","global_id":1711395,"AdmArea":"Юго-Восточный административный округ","District":"Рязанский район","Location":"1-й Вешняковский проезд, дом 2","Material":"пластик"}},"type":"Feature"},{"geometry":{"coordinates":[37.762698107437,55.725711087135],"type":"Point"},"properties":{"DatasetId":674,"VersionNumber":4,"ReleaseNumber":31,"RowId":null,"Attributes":{"Name":"Искусственная дорожная неровность по адресу Рязанский проспект, дом 47","global_id":1711396,"AdmArea":"Юго-Восточный административный округ","District":"Рязанский район","Location":"Рязанский проспект, дом 47","Material":"пластик"}},"type":"Feature"},{"geometry":{"coordinates":[37.468208325222,55.726855255177],"type":"Point"},"properties":{"DatasetId":674,"VersionNumber":4,"ReleaseNumber":31,"RowId":null,"Attributes":{"Name":"Искусственная дорожная неровность по адресу Славянский бульвар, дом 9, корпус 1","global_id":1711397,"AdmArea":"Западный административный округ","District":"район Фили-Давыдково","Location":"Славянский бульвар, дом 9, корпус 1","Material":"пластик"}},"type":"Feature"},{"geometry":{"coordinates":[37.811662669358,55.727631395576],"type":"Point"},"properties":{"DatasetId":674,"VersionNumber":4,"ReleaseNumber":31,"RowId":null,"Attributes":{"Name":"Искусственная дорожная неровность по адресу улица Молдагуловой, дом 6","global_id":1711398,"AdmArea":"Восточный административный округ","District":"район Вешняки","Location":"улица Молдагуловой, дом 1","Material":"асфальт"}},"type":"Feature"},{"geometry":{"coordinates":[37.598032267076,55.684403820071],"type":"Point"},"properties":{"DatasetId":674,"VersionNumber":4,"ReleaseNumber":31,"RowId":null,"Attributes":{"Name":"Искусственная дорожная неровность по адресу улица Винокурова, дом 19","global_id":1711399,"AdmArea":"Юго-Западный административный округ","District":"район Котловка","Location":"улица Винокурова, дом 19","Material":"пластик"}},"type":"Feature"},{"geometry":{"coordinates":[37.86411376717,55.686768814912],"type":"Point"},"properties":{"DatasetId":674,"VersionNumber":4,"ReleaseNumber":31,"RowId":null,"Attributes":{"Name":"Искусственная дорожная неровность по адресу улица Маршала Полубоярова, дом 10","global_id":1711400,"AdmArea":"Юго-Восточный административный округ","District":"район Выхино-Жулебино","Location":"улица Маршала Полубоярова, дом 10","Material":"пластик"}},"type":"Feature"},{"geometry":{"coordinates":[37.728811746898,55.687751530227],"type":"Point"},"properties":{"DatasetId":674,"VersionNumber":4,"ReleaseNumber":31,"RowId":null,"Attributes":{"Name":"Искусственная дорожная неровность по адресу улица Полбина, дом 18","global_id":1711401,"AdmArea":"Юго-Восточный административный округ","District":"район Печатники","Location":"улица Полбина, дом 18","Material":"пластик"}},"type":"Feature"},{"geometry":{"coordinates":[37.858915814001,55.687828051666],"type":"Point"},"properties":{"DatasetId":674,"VersionNumber":4,"ReleaseNumber":31,"RowId":null,"Attributes":{"Name":"Искусственная дорожная неровность по адресу улица Генерала Кузнецова, дом 13","global_id":1711402,"AdmArea":"Юго-Восточный административный округ","District":"район Выхино-Жулебино","Location":"улица Генерала Кузнецова, дом 13","Material":"пластик"}},"type":"Feature"},{"geometry":{"coordinates":[37.564592665678,55.688305994584],"type":"Point"},"properties":{"DatasetId":674,"VersionNumber":4,"ReleaseNumber":31,"RowId":null,"Attributes":{"Name":"Искусственная дорожная неровность по адресу улица Ивана Бабушкина, дом 6","global_id":1711403,"AdmArea":"Юго-Западный административный округ","District":"Академический район","Location":"улица Ивана Бабушкина, дом 6","Material":"пластик"}},"type":"Feature"},{"geometry":{"coordinates":[37.848389651946,55.689177506248],"type":"Point"},"properties":{"DatasetId":674,"VersionNumber":4,"ReleaseNumber":31,"RowId":null,"Attributes":{"Name":"Искусственная дорожная неровность 1 по адресу Привольная улица, дом 41","global_id":1711404,"AdmArea":"Юго-Восточный административный округ","District":"район Выхино-Жулебино","Location":"Привольная улица, дом 41","Material":"пластик"}},"type":"Feature"},{"geometry":{"coordinates":[37.849073279758,55.689743884206],"type":"Point"},"properties":{"DatasetId":674,"VersionNumber":4,"ReleaseNumber":31,"RowId":null,"Attributes":{"Name":"Искусственная дорожная неровность 2 по адресу Привольная улица, дом 41","global_id":1711405,"AdmArea":"Юго-Восточный административный округ","District":"район Выхино-Жулебино","Location":"Привольная улица, дом 41","Material":"пластик"}},"type":"Feature"},{"geometry":{"coordinates":[37.580216029454,55.690496512175],"type":"Point"},"properties":{"DatasetId":674,"VersionNumber":4,"ReleaseNumber":31,"RowId":null,"Attributes":{"Name":"Искусственная дорожная неровность по адресу улица Гримау, дом 8","global_id":1711406,"AdmArea":"Юго-Западный административный округ","District":"Академический район","Location":"улица Гримау, дом 8","Material":"пластик"}},"type":"Feature"},{"geometry":{"coordinates":[37.688628904989,55.690749156305],"type":"Point"},"properties":{"DatasetId":674,"VersionNumber":4,"ReleaseNumber":31,"RowId":null,"Attributes":{"Name":"Искусственная дорожная неровность по адресу Нагатинская набережная, дом 56","global_id":1711407,"AdmArea":"Южный административный округ","District":"район Нагатинский Затон","Location":"Нагатинская набережная, дом 56","Material":"пластик"}},"type":"Feature"},{"geometry":{"coordinates":[37.545878724524,55.691079345801],"type":"Point"},"properties":{"DatasetId":674,"VersionNumber":4,"ReleaseNumber":31,"RowId":null,"Attributes":{"Name":"Искусственная дорожная неровность по адресу Ломоносовский проспект, дом 12","global_id":1711409,"AdmArea":"Юго-Западный административный округ","District":"Гагаринский район","Location":"Ломоносовский проспект, дом 12","Material":"асфальт"}},"type":"Feature"},{"geometry":{"coordinates":[37.543644613514,55.691446182561],"type":"Point"},"properties":{"DatasetId":674,"VersionNumber":4,"ReleaseNumber":31,"RowId":null,"Attributes":{"Name":"Искусственная дорожная неровность по адресу Ломоносовский проспект, дом 14","global_id":1711410,"AdmArea":"Юго-Западный административный округ","District":"Гагаринский район","Location":"Ломоносовский проспект, дом 14","Material":"асфальт"}},"type":"Feature"},{"geometry":{"coordinates":[37.492787417172,55.69191641645],"type":"Point"},"properties":{"DatasetId":674,"VersionNumber":4,"ReleaseNumber":31,"RowId":null,"Attributes":{"Name":"Искусственная дорожная неровность по адресу улица Раменки, дом 17 корпус 2","global_id":1711411,"AdmArea":"Западный административный округ","District":"район Раменки","Location":"улица Раменки, дом 17, корпус 2","Material":"пластик"}},"type":"Feature"},{"geometry":{"coordinates":[37.543301792147,55.692592593923],"type":"Point"},"properties":{"DatasetId":674,"VersionNumber":4,"ReleaseNumber":31,"RowId":null,"Attributes":{"Name":"Искусственная дорожная неровность по адресу Ломоносовский проспект, дом 16","global_id":1711412,"AdmArea":"Юго-Западный административный округ","District":"Гагаринский район","Location":"Ломоносовский проспект, дом 16","Material":"асфальт"}},"type":"Feature"},{"geometry":{"coordinates":[37.604905113822,55.69290747205],"type":"Point"},"properties":{"DatasetId":674,"VersionNumber":4,"ReleaseNumber":31,"RowId":null,"Attributes":{"Name":"Искусственная дорожная неровность по адресу Загородное шоссе, дом 11, корпус 1","global_id":1711413,"AdmArea":"Южный административный округ","District":"Донской район","Location":"Загородное шоссе, дом 11, корпус 1","Material":"асфальт"}},"type":"Feature"},{"geometry":{"coordinates":[37.45760991077,55.694994674351],"type":"Point"},"properties":{"DatasetId":674,"VersionNumber":4,"ReleaseNumber":31,"RowId":null,"Attributes":{"Name":"Искусственная дорожная неровность по адресу Очаковское шоссе, дом 10","global_id":1711414,"AdmArea":"Западный административный округ","District":"район Очаково-Матвеевское","Location":"Очаковское шоссе, дом 10","Material":"пластик"}},"type":"Feature"},{"geometry":{"coordinates":[37.738483458405,55.697007014571],"type":"Point"},"properties":{"DatasetId":674,"VersionNumber":4,"ReleaseNumber":31,"RowId":null,"Attributes":{"Name":"Искусственная дорожная неровность по адресу улица Артюхиной, дом 20","global_id":1711415,"AdmArea":"Юго-Восточный административный округ","District":"район Текстильщики","Location":"улица Артюхиной, дом 20","Material":"асфальт"}},"type":"Feature"},{"geometry":{"coordinates":[37.842296009268,55.697388092944],"type":"Point"},"properties":{"DatasetId":674,"VersionNumber":4,"ReleaseNumber":31,"RowId":null,"Attributes":{"Name":"Искусственная дорожная неровность по адресу Привольная улица, дом 19","global_id":1711416,"AdmArea":"Юго-Восточный административный округ","District":"район Выхино-Жулебино","Location":"Привольная улица, дом 19","Material":"асфальт"}},"type":"Feature"},{"geometry":{"coordinates":[37.864394393679,55.699010254358],"type":"Point"},"properties":{"DatasetId":674,"VersionNumber":4,"ReleaseNumber":31,"RowId":null,"Attributes":{"Name":"Искусственная дорожная неровность 1 по адресу Лениногорская улица, дом 31","global_id":1711417,"AdmArea":"Восточный административный округ","District":"район Косино-Ухтомский","Location":"Лениногорская улица, дом 31","Material":"пластик"}},"type":"Feature"},{"geometry":{"coordinates":[37.769776455482,55.729070379602],"type":"Point"},"properties":{"DatasetId":674,"VersionNumber":4,"ReleaseNumber":31,"RowId":null,"Attributes":{"Name":"Искусственная дорожная неровность по адресу улица Маёвок, дом 4","global_id":1711418,"AdmArea":"Юго-Восточный административный округ","District":"Рязанский район","Location":"улица Маёвок, дом 4","Material":"пластик"}},"type":"Feature"},{"geometry":{"coordinates":[37.436383246121,55.731138555579],"type":"Point"},"properties":{"DatasetId":674,"VersionNumber":4,"ReleaseNumber":31,"RowId":null,"Attributes":{"Name":"Искусственная дорожная неровность по адресу Молдавская улица, дом 10","global_id":1711420,"AdmArea":"Западный административный округ","District":"район Кунцево","Location":"Молдавская улица, дом 10","Material":"пластик"}},"type":"Feature"},{"geometry":{"coordinates":[37.827146056748,55.732358815748],"type":"Point"},"properties":{"DatasetId":674,"VersionNumber":4,"ReleaseNumber":31,"RowId":null,"Attributes":{"Name":"Искусственная дорожная неровность по адресу аллея Жемчуговой, дом 7А","global_id":1711422,"AdmArea":"Восточный административный округ","District":"район Вешняки","Location":"аллея Жемчуговой, дом 7А","Material":"асфальт"}},"type":"Feature"},{"geometry":{"coordinates":[37.609211716346,55.732507227719],"type":"Point"},"properties":{"DatasetId":674,"VersionNumber":4,"ReleaseNumber":31,"RowId":null,"Attributes":{"Name":"Искусственная дорожная неровность по адресу Мароновский переулок, дом 26","global_id":1711423,"AdmArea":"Центральный административный округ","District":"район Якиманка","Location":"Мароновский переулок, дом 26","Material":"пластик"}},"type":"Feature"},{"geometry":{"coordinates":[37.636703520145,55.732960223727],"type":"Point"},"properties":{"DatasetId":674,"VersionNumber":4,"ReleaseNumber":31,"RowId":null,"Attributes":{"Name":"Искусственная дорожная неровность по адресу улица Бахрушина, дом 25","global_id":1711424,"AdmArea":"Центральный административный округ","District":"район Замоскворечье","Location":"улица Бахрушина, дом 25","Material":"пластик"}},"type":"Feature"},{"geometry":{"coordinates":[37.672297269917,55.706978818338],"type":"Point"},"properties":{"DatasetId":674,"VersionNumber":4,"ReleaseNumber":31,"RowId":null,"Attributes":{"Name":"Искусственная дорожная неровность по адресу 6-я Кожуховская улица, дом 8","global_id":1711426,"AdmArea":"Юго-Восточный административный округ","District":"Южнопортовый район","Location":"6-я Кожуховская улица, дом 8","Material":"пластик"}},"type":"Feature"},{"geometry":{"coordinates":[37.756069026629,55.707065902588],"type":"Point"},"properties":{"DatasetId":674,"VersionNumber":4,"ReleaseNumber":31,"RowId":null,"Attributes":{"Name":"Искусственная дорожная неровность по адресу Волгоградский проспект, дом 105","global_id":1711427,"AdmArea":"Юго-Восточный административный округ","District":"район Кузьминки","Location":"Волгоградский проспект, дом 105","Material":"пластик"}},"type":"Feature"},{"geometry":{"coordinates":[37.681621930788,55.70778106841],"type":"Point"},"properties":{"DatasetId":674,"VersionNumber":4,"ReleaseNumber":31,"RowId":null,"Attributes":{"Name":"Искусственная дорожная неровность по адресу улица Петра Романова, дом 9","global_id":1711428,"AdmArea":"Юго-Восточный административный округ","District":"Южнопортовый район","Location":"улица Петра Романова, дом 9","Material":"пластик"}},"type":"Feature"},{"geometry":{"coordinates":[37.750145701834,55.70782132341],"type":"Point"},"properties":{"DatasetId":674,"VersionNumber":4,"ReleaseNumber":31,"RowId":null,"Attributes":{"Name":"Искусственная дорожная неровность по адресу Волгоградский проспект, дом 93","global_id":1711429,"AdmArea":"Юго-Восточный административный округ","District":"район Кузьминки","Location":"Волгоградский проспект, дом 93","Material":"пластик"}},"type":"Feature"},{"geometry":{"coordinates":[37.660420448611,55.708191028138],"type":"Point"},"properties":{"DatasetId":674,"VersionNumber":4,"ReleaseNumber":31,"RowId":null,"Attributes":{"Name":"Искусственная дорожная неровность по адресу Автозаводская улица, дом 7","global_id":1711430,"AdmArea":"Южный административный округ","District":"Даниловский район","Location":"Автозаводская улица, дом 7","Material":"пластик"}},"type":"Feature"},{"geometry":{"coordinates":[37.479942,55.708993],"type":"Point"},"properties":{"DatasetId":674,"VersionNumber":4,"ReleaseNumber":31,"RowId":null,"Attributes":{"Name":"Искусственная дорожная неровность по адресу Веерная улица, дом 5, корпус 1 -дом 7, корп. 1","global_id":1711432,"AdmArea":"Западный административный округ","District":"район Очаково-Матвеевское","Location":"Веерная улица, дом  дом 5, корпус 1 -дом 7, корп. 1","Material":"пластик"}},"type":"Feature"},{"geometry":{"coordinates":[37.618778315981,55.709130140503],"type":"Point"},"properties":{"DatasetId":674,"VersionNumber":4,"ReleaseNumber":31,"RowId":null,"Attributes":{"Name":"Искусственная дорожная неровность по адресу Малая Тульская улица, дом 15","global_id":1711433,"AdmArea":"Южный административный округ","District":"Даниловский район","Location":"Малая Тульская улица, дом 15","Material":"пластик"}},"type":"Feature"},{"geometry":{"coordinates":[37.793371679295,55.709654775872],"type":"Point"},"properties":{"DatasetId":674,"VersionNumber":4,"ReleaseNumber":31,"RowId":null,"Attributes":{"Name":"Искусственная дорожная неровность по адресу 4-я Новокузьминская улица, дом 3","global_id":1711434,"AdmArea":"Юго-Восточный административный округ","District":"Рязанский район","Location":"4-я Новокузьминская улица, дом 3","Material":"асфальт"}},"type":"Feature"},{"geometry":{"coordinates":[37.7352463676,55.71123629516],"type":"Point"},"properties":{"DatasetId":674,"VersionNumber":4,"ReleaseNumber":31,"RowId":null,"Attributes":{"Name":"Искусственная дорожная неровность по адресу 1-й Саратовский проезд, дом 6, корпус 1","global_id":1711435,"AdmArea":"Юго-Восточный административный округ","District":"район Текстильщики","Location":"1-й Саратовский проезд, дом 6, корпус 1","Material":"пластик"}},"type":"Feature"},{"geometry":{"coordinates":[37.391657075847,55.711513120142],"type":"Point"},"properties":{"DatasetId":674,"VersionNumber":4,"ReleaseNumber":31,"RowId":null,"Attributes":{"Name":"Искусственная дорожная неровность по адресу Беловежская улица, дом 21","global_id":1711436,"AdmArea":"Западный административный округ","District":"Можайский район","Location":"Беловежская улица, дом 21","Material":"пластик"}},"type":"Feature"},{"geometry":{"coordinates":[37.756121664311,55.712140413205],"type":"Point"},"properties":{"DatasetId":674,"VersionNumber":4,"ReleaseNumber":31,"RowId":null,"Attributes":{"Name":"Искусственная дорожная неровность по адресу Окская улица, дом 16, корпус 1","global_id":1711437,"AdmArea":"Юго-Восточный административный округ","District":"район Кузьминки","Location":"Окская улица, дом 16, корпус 1","Material":"асфальт"}},"type":"Feature"},{"geometry":{"coordinates":[37.747613194741,55.712452065109],"type":"Point"},"properties":{"DatasetId":674,"VersionNumber":4,"ReleaseNumber":31,"RowId":null,"Attributes":{"Name":"Искусственная дорожная неровность по адресу Волжский бульвар, дом 13","global_id":1711438,"AdmArea":"Юго-Восточный административный округ","District":"Рязанский район","Location":"Волжский бульвар, дом 13","Material":"пластик"}},"type":"Feature"},{"geometry":{"coordinates":[37.758297605813,55.712669168977],"type":"Point"},"properties":{"DatasetId":674,"VersionNumber":4,"ReleaseNumber":31,"RowId":null,"Attributes":{"Name":"Искусственная дорожная неровность по адресу Окская улица, дом 20, корпус 2","global_id":1711440,"AdmArea":"Юго-Восточный административный округ","District":"район Кузьминки","Location":"Окская улица, дом 20, корпус 2","Material":"асфальт"}},"type":"Feature"},{"geometry":{"coordinates":[37.740164928547,55.712731068158],"type":"Point"},"properties":{"DatasetId":674,"VersionNumber":4,"ReleaseNumber":31,"RowId":null,"Attributes":{"Name":"Искусственная дорожная неровность по адресу 2-й Саратовский проезд, дом 3","global_id":1711441,"AdmArea":"Юго-Восточный административный округ","District":"район Текстильщики","Location":"2-й Саратовский проезд, дом 3","Material":"пластик"}},"type":"Feature"},{"geometry":{"coordinates":[37.854820249094,55.713185900347],"type":"Point"},"properties":{"DatasetId":674,"VersionNumber":4,"ReleaseNumber":31,"RowId":null,"Attributes":{"Name":"Искусственная дорожная неровность по адресу Большая Косинская улица, дом 20","global_id":1711442,"AdmArea":"Восточный административный округ","District":"район Косино-Ухтомский","Location":"Большая Косинская улица, дом 20","Material":"пластик"}},"type":"Feature"},{"geometry":{"coordinates":[37.890057769244,55.713221580629],"type":"Point"},"properties":{"DatasetId":674,"VersionNumber":4,"ReleaseNumber":31,"RowId":null,"Attributes":{"Name":"Искусственная дорожная неровность по адресу Святоозерская улица, дом 16","global_id":1711443,"AdmArea":"Восточный административный округ","District":"район Косино-Ухтомский","Location":"Святоозерская улица, дом 16","Material":"пластик"}},"type":"Feature"},{"geometry":{"coordinates":[37.594579594078,55.713481829561],"type":"Point"},"properties":{"DatasetId":674,"VersionNumber":4,"ReleaseNumber":31,"RowId":null,"Attributes":{"Name":"Искусственная дорожная неровность по адресу 2-й Донской проезд, дом 8","global_id":1711444,"AdmArea":"Южный административный округ","District":"Донской район","Location":"2-й Донской проезд, дом 8","Material":"пластик"}},"type":"Feature"},{"geometry":{"coordinates":[37.595296413742,55.714193687871],"type":"Point"},"properties":{"DatasetId":674,"VersionNumber":4,"ReleaseNumber":31,"RowId":null,"Attributes":{"Name":"Искусственная дорожная неровность по адресу улица Стасовой, дом 8","global_id":1711445,"AdmArea":"Южный административный округ","District":"Донской район","Location":"улица Стасовой, дом 8","Material":"пластик"}},"type":"Feature"},{"geometry":{"coordinates":[37.66040972093,55.715653329538],"type":"Point"},"properties":{"DatasetId":674,"VersionNumber":4,"ReleaseNumber":31,"RowId":null,"Attributes":{"Name":"Искусственная дорожная неровность по адресу Восточная улица, дом 4А, строение 38","global_id":1711446,"AdmArea":"Южный административный округ","District":"Даниловский район","Location":"Восточная улица, дом 4А, строение 38","Material":"пластик"}},"type":"Feature"},{"geometry":{"coordinates":[37.847106384308,55.715872311666],"type":"Point"},"properties":{"DatasetId":674,"VersionNumber":4,"ReleaseNumber":31,"RowId":null,"Attributes":{"Name":"Искусственная дорожная неровность по адресу Красносолнечная улица, дом 40А","global_id":1711447,"AdmArea":"Восточный административный округ","District":"район Косино-Ухтомский","Location":"Красносолнечная улица, дом 40А","Material":"пластик"}},"type":"Feature"},{"geometry":{"coordinates":[37.515366588906,55.71588347089],"type":"Point"},"properties":{"DatasetId":674,"VersionNumber":4,"ReleaseNumber":31,"RowId":null,"Attributes":{"Name":"Искусственная дорожная неровность по адресу Мосфильмовская улица, дом 62, строение 4","global_id":1711448,"AdmArea":"Западный административный округ","District":"район Раменки","Location":"Мосфильмовская улица, дом 62, строение 4","Material":"пластик"}},"type":"Feature"},{"geometry":{"coordinates":[37.78534701359,55.716131127109],"type":"Point"},"properties":{"DatasetId":674,"VersionNumber":4,"ReleaseNumber":31,"RowId":null,"Attributes":{"Name":"Искусственная дорожная неровность по адресу 1-я Новокузьминская улица, дом 10","global_id":1711449,"AdmArea":"Юго-Восточный административный округ","District":"Рязанский район","Location":"1-я Новокузьминская улица, дом 5","Material":"пластик"}},"type":"Feature"},{"geometry":{"coordinates":[37.889676728155,55.716461106772],"type":"Point"},