{"type":"FeatureCollection","features":[{"type":"Feature","properties":{"recId":"","facility_type_desc":"Pharmacy","seqLength":"","poi_name":"Nur Farmatsiya","houseNumber":30,"street":"5-й","street_type":"микрорайон","city":"Almaty","phone_numbers":"[\"727-3292534\"]","county":"","state":"","country":"KAZ"},"geometry":{"type":"Point","coordinates":[76.86766,43.23149]}},{"type":"Feature","properties":{"recId":"","facility_type_desc":"Pharmacy","seqLength":"","poi_name":"Saydaliya Farm","houseNumber":"","street":"","street_type":"","city":"Almaty","phone_numbers":"[\"727-2521498\"]","county":"","state":"","country":"KAZ"},"geometry":{"type":"Point","coordinates":[76.9098,43.3269]}},{"type":"Feature","properties":{"recId":"","facility_type_desc":"Pharmacy","seqLength":"","poi_name":"Däryhana","houseNumber":"","street":"Абай","street_type":"даңғылы","city":"Almaty","phone_numbers":"[]","county":"","state":"","country":"KAZ"},"geometry":{"type":"Point","coordinates":[76.913,43.24033]}},{"type":"Feature","properties":{"recId":"","facility_type_desc":"Pharmacy","seqLength":"","poi_name":"Däryhana","houseNumber":"","street":"Баянауыл","street_type":"шағын ауданы","city":"Almaty","phone_numbers":"[]","county":"","state":"","country":"KAZ"},"geometry":{"type":"Point","coordinates":[76.81992,43.24004]}},{"type":"Feature","properties":{"recId":"","facility_type_desc":"Pharmacy","seqLength":"","poi_name":"Däryhana","houseNumber":"","street":"Сәкен Сейфуллин","street_type":"даңғылы","city":"Almaty","phone_numbers":"[]","county":"","state":"","country":"KAZ"},"geometry":{"type":"Point","coordinates":[76.93224,43.25856]}},{"type":"Feature","properties":{"recId":"","facility_type_desc":"Pharmacy","seqLength":"","poi_name":"Däryhana","houseNumber":"","street":"Наурызбай батыр","street_type":"көшесі","city":"Almaty","phone_numbers":"[]","county":"","state":"","country":"KAZ"},"geometry":{"type":"Point","coordinates":[77.00545,43.37573]}},{"type":"Feature","properties":{"recId":"","facility_type_desc":"Pharmacy","seqLength":"","poi_name":"Däryhana","houseNumber":"","street":"Нығмет Нұрмаков","street_type":"көшесі","city":"Almaty","phone_numbers":"[]","county":"","state":"","country":"KAZ"},"geometry":{"type":"Point","coordinates":[76.90561,43.25714]}},{"type":"Feature","properties":{"recId":"","facility_type_desc":"Pharmacy","seqLength":"","poi_name":"Remar Company","houseNumber":"","street":"Құлағер","street_type":"шағын ауданы","city":"Almaty","phone_numbers":"[\"727-3842047\"]","county":"","state":"","country":"KAZ"},"geometry":{"type":"Point","coordinates":[76.9267,43.30348]}},{"type":"Feature","properties":{"recId":"","facility_type_desc":"Pharmacy","seqLength":"","poi_name":"Däryhana","houseNumber":"","street":"Алексей Павленко","street_type":"көшесі","city":"Almaty","phone_numbers":"[]","county":"","state":"","country":"KAZ"},"geometry":{"type":"Point","coordinates":[76.89939,43.26364]}},{"type":"Feature","properties":{"recId":"","facility_type_desc":"Pharmacy","seqLength":"","poi_name":"Däryhana","houseNumber":"","street":"Павел Мочалов","street_type":"көшесі","city":"Almaty","phone_numbers":"[]","county":"","state":"","country":"KAZ"},"geometry":{"type":"Point","coordinates":[76.89348,43.26934]}},{"type":"Feature","properties":{"recId":"","facility_type_desc":"Pharmacy","seqLength":"","poi_name":"Däryhana","houseNumber":"","street":"Каблуков","street_type":"көшесі","city":"Almaty","phone_numbers":"[]","county":"","state":"","country":"KAZ"},"geometry":{"type":"Point","coordinates":[76.88663,43.21834]}},{"type":"Feature","properties":{"recId":"","facility_type_desc":"Pharmacy","seqLength":"","poi_name":"Däryhana","houseNumber":"","street":"Александр Пушкин","street_type":"көшесі","city":"Almaty","phone_numbers":"[]","county":"","state":"","country":"KAZ"},"geometry":{"type":"Point","coordinates":[76.95222,43.27039]}},{"type":"Feature","properties":{"recId":"","facility_type_desc":"Pharmacy","seqLength":"","poi_name":"Tsvetnaya","houseNumber":"","street":"Таусамал","street_type":"шағын ауданы","city":"Almaty","phone_numbers":"[]","county":"","state":"","country":"KAZ"},"geometry":{"type":"Point","coordinates":[76.81626,43.20532]}},{"type":"Feature","properties":{"recId":"","facility_type_desc":"Pharmacy","seqLength":"","poi_name":"Keshen-K","houseNumber":"","street":"Көктем-3","street_type":"шағын ауданы","city":"Almaty","phone_numbers":"[]","county":"","state":"","country":"KAZ"},"geometry":{"type":"Point","coordinates":[76.91737,43.23197]}},{"type":"Feature","properties":{"recId":"","facility_type_desc":"Pharmacy","seqLength":"","poi_name":"Däryhana","houseNumber":"","street":"Александр Гурилев","street_type":"көшесі","city":"Almaty","phone_numbers":"[]","county":"","state":"","country":"KAZ"},"geometry":{"type":"Point","coordinates":[76.97702,43.28182]}},{"type":"Feature","properties":{"recId":"","facility_type_desc":"Pharmacy","seqLength":"","poi_name":"Däryhana","houseNumber":"","street":"Орынбор","street_type":"көшесі","city":"Almaty","phone_numbers":"[]","county":"","state":"","country":"KAZ"},"geometry":{"type":"Point","coordinates":[76.97662,43.27423]}},{"type":"Feature","properties":{"recId":"","facility_type_desc":"Pharmacy","seqLength":"","poi_name":"Vita Pharma","houseNumber":"","street":"Орынбор","street_type":"көшесі","city":"Almaty","phone_numbers":"[]","county":"","state":"","country":"KAZ"},"geometry":{"type":"Point","coordinates":[76.97662,43.27423]}},{"type":"Feature","properties":{"recId":"","facility_type_desc":"Pharmacy","seqLength":"","poi_name":"Däryhana","houseNumber":"","street":"Ақсай-4","street_type":"шағын ауданы","city":"Almaty","phone_numbers":"[\"727-2384188\"]","county":"","state":"","country":"KAZ"},"geometry":{"type":"Point","coordinates":[76.83888,43.22572]}},{"type":"Feature","properties":{"recId":"","facility_type_desc":"Pharmacy","seqLength":"","poi_name":"Medisat","houseNumber":"","street":"11-ші","street_type":"шағын аудан","city":"Almaty","phone_numbers":"[\"727-3031211\"]","county":"","state":"","country":"KAZ"},"geometry":{"type":"Point","coordinates":[76.87225,43.22262]}},{"type":"Feature","properties":{"recId":"","facility_type_desc":"Pharmacy","seqLength":"","poi_name":"Apteka. Com","houseNumber":49,"street":"1-й","street_type":"микрорайон","city":"Almaty","phone_numbers":"[\"727-2448448\"]","county":"","state":"","country":"KAZ"},"geometry":{"type":"Point","coordinates":[76.85513,43.23098]}},{"type":"Feature","properties":{"recId":"","facility_type_desc":"Pharmacy","seqLength":"","poi_name":"Panatseya","houseNumber":"","street":"","street_type":"","city":"Almaty","phone_numbers":"[\"727-2463067\"]","county":"","state":"","country":"KAZ"},"geometry":{"type":"Point","coordinates":[76.86127,43.25502]}},{"type":"Feature","properties":{"recId":"","facility_type_desc":"Pharmacy","seqLength":"","poi_name":"2 kvartal","houseNumber":"","street":"","street_type":"","city":"Almaty","phone_numbers":"[]","county":"","state":"","country":"KAZ"},"geometry":{"type":"Point","coordinates":[76.86869,43.24783]}},{"type":"Feature","properties":{"recId":"","facility_type_desc":"Pharmacy","seqLength":"","poi_name":"Däryhana","houseNumber":"","street":"Алмагүл","street_type":"шағын ауданы","city":"Almaty","phone_numbers":"[]","county":"","state":"","country":"KAZ"},"geometry":{"type":"Point","coordinates":[76.89969,43.20756]}},{"type":"Feature","properties":{"recId":"","facility_type_desc":"Pharmacy","seqLength":"","poi_name":"Rauza-Ade","houseNumber":"","street":"Жетісу-4","street_type":"шағын ауданы","city":"Almaty","phone_numbers":"[\"727-2309851\"]","county":"","state":"","country":"KAZ"},"geometry":{"type":"Point","coordinates":[76.83742,43.2195]}},{"type":"Feature","properties":{"recId":"","facility_type_desc":"Pharmacy","seqLength":"","poi_name":"Däryhana","houseNumber":"","street":"Жетісу-4","street_type":"шағын ауданы","city":"Almaty","phone_numbers":"[\"727-2309851\"]","county":"","state":"","country":"KAZ"},"geometry":{"type":"Point","coordinates":[76.83742,43.2195]}},{"type":"Feature","properties":{"recId":"","facility_type_desc":"Pharmacy","seqLength":"","poi_name":"Däryhana","houseNumber":"","street":"Ақсай-4","street_type":"шағын ауданы","city":"Almaty","phone_numbers":"[]","county":"","state":"","country":"KAZ"},"geometry":{"type":"Point","coordinates":[76.84321,43.2266]}},{"type":"Feature","properties":{"recId":"","facility_type_desc":"Pharmacy","seqLength":"","poi_name":"Däryhana","houseNumber":"","street":"Орбита-1","street_type":"шағын ауданы","city":"Almaty","phone_numbers":"[]","county":"","state":"","country":"KAZ"},"geometry":{"type":"Point","coordinates":[76.88574,43.2005]}},{"type":"Feature","properties":{"recId":"","facility_type_desc":"Pharmacy","seqLength":"","poi_name":"Sadihan","houseNumber":"","street":"13-ші Әскери Қалашық","street_type":"көшесі","city":"Almaty","phone_numbers":"[]","county":"","state":"","country":"KAZ"},"geometry":{"type":"Point","coordinates":[76.99137,43.37619]}},{"type":"Feature","properties":{"recId":"","facility_type_desc":"Pharmacy","seqLength":"","poi_name":"Däryhana","houseNumber":"","street":"13-ші Әскери Қалашық","street_type":"көшесі","city":"Almaty","phone_numbers":"[]","county":"","state":"","country":"KAZ"},"geometry":{"type":"Point","coordinates":[76.99131,43.37622]}},{"type":"Feature","properties":{"recId":"","facility_type_desc":"Pharmacy","seqLength":"","poi_name":"Däryhana","houseNumber":"","street":"Желтоқсан","street_type":"көшесі","city":"Almaty","phone_numbers":"[]","county":"","state":"","country":"KAZ"},"geometry":{"type":"Point","coordinates":[76.94127,43.2408]}},{"type":"Feature","properties":{"recId":"","facility_type_desc":"Pharmacy","seqLength":"","poi_name":"Däryhana","houseNumber":"","street":"Набережная","street_type":"көшесі","city":"Almaty","phone_numbers":"[\"727-2345488\"]","county":"","state":"","country":"KAZ"},"geometry":{"type":"Point","coordinates":[76.98052,43.28129]}},{"type":"Feature","properties":{"recId":"","facility_type_desc":"Pharmacy","seqLength":"","poi_name":"Däryhana","houseNumber":"","street":"Егінсу","street_type":"көшесі","city":"Almaty","phone_numbers":"[]","county":"","state":"","country":"KAZ"},"geometry":{"type":"Point","coordinates":[76.87207,43.29544]}},{"type":"Feature","properties":{"recId":"","facility_type_desc":"Pharmacy","seqLength":"","poi_name":"Däryhana","houseNumber":"","street":"Абай","street_type":"даңғылы","city":"Almaty","phone_numbers":"[]","county":"","state":"","country":"KAZ"},"geometry":{"type":"Point","coordinates":[76.90182,43.23958]}},{"type":"Feature","properties":{"recId":"","facility_type_desc":"Pharmacy","seqLength":"","poi_name":"Europharma","houseNumber":"","street":"10-ші","street_type":"шағын аудан","city":"Almaty","phone_numbers":"[]","county":"","state":"","country":"KAZ"},"geometry":{"type":"Point","coordinates":[76.8699,43.22106]}},{"type":"Feature","properties":{"recId":"","facility_type_desc":"Pharmacy","seqLength":"","poi_name":"La profi farm","houseNumber":"","street":"Абдулла Розыбақиев","street_type":"көшесі","city":"Almaty","phone_numbers":"[]","county":"","state":"","country":"KAZ"},"geometry":{"type":"Point","coordinates":[76.89425,43.20289]}},{"type":"Feature","properties":{"recId":"","facility_type_desc":"Pharmacy","seqLength":"","poi_name":"Ms Help","houseNumber":"","street":"Абдулла Розыбақиев","street_type":"көшесі","city":"Almaty","phone_numbers":"[]","county":"","state":"","country":"KAZ"},"geometry":{"type":"Point","coordinates":[76.89425,43.20291]}},{"type":"Feature","properties":{"recId":"","facility_type_desc":"Pharmacy","seqLength":"","poi_name":"Däryhana","houseNumber":"","street":"Абдулла Розыбақиев","street_type":"көшесі","city":"Almaty","phone_numbers":"[]","county":"","state":"","country":"KAZ"},"geometry":{"type":"Point","coordinates":[76.89425,43.20299]}},{"type":"Feature","properties":{"recId":"","facility_type_desc":"Pharmacy","seqLength":"","poi_name":"Aelita","houseNumber":"","street":"Қожа Ахмет Яссауи","street_type":"көшесі","city":"Almaty","phone_numbers":"[]","county":"","state":"","country":"KAZ"},"geometry":{"type":"Point","coordinates":[76.82438,43.2364]}},{"type":"Feature","properties":{"recId":"","facility_type_desc":"Pharmacy","seqLength":"","poi_name":"Däryhana","houseNumber":35,"street":"1-ші","street_type":"шағын аудан","city":"Almaty","phone_numbers":"[]","county":"","state":"","country":"KAZ"},"geometry":{"type":"Point","coordinates":[76.84699,43.22732]}},{"type":"Feature","properties":{"recId":"","facility_type_desc":"Pharmacy","seqLength":"","poi_name":"Däryhana","houseNumber":"","street":"Қаныш Сәтбаев","street_type":"көшесі","city":"Almaty","phone_numbers":"[]","county":"","state":"","country":"KAZ"},"geometry":{"type":"Point","coordinates":[76.88485,43.23417]}},{"type":"Feature","properties":{"recId":"","facility_type_desc":"Pharmacy","seqLength":"","poi_name":"Dos Med Farm","houseNumber":"","street":"Айнабұлақ-4","street_type":"шағын ауданы","city":"","phone_numbers":"[\"727-2526874\"]","county":"","state":"","country":"KAZ"},"geometry":{"type":"Point","coordinates":[76.92125,43.32723]}},{"type":"Feature","properties":{"recId":"","facility_type_desc":"Pharmacy","seqLength":"","poi_name":"Roer","houseNumber":"","street":"Айнабұлақ-4","street_type":"шағын ауданы","city":"","phone_numbers":"[\"727-2526874\"]","county":"","state":"","country":"KAZ"},"geometry":{"type":"Point","coordinates":[76.92125,43.32723]}},{"type":"Feature","properties":{"recId":"","facility_type_desc":"Pharmacy","seqLength":"","poi_name":"Däryhana","houseNumber":"","street":"Орбита-4","street_type":"шағын ауданы","city":"","phone_numbers":"[]","county":"","state":"","country":"KAZ"},"geometry":{"type":"Point","coordinates":[76.88115,43.19643]}},{"type":"Feature","properties":{"recId":"","facility_type_desc":"Pharmacy","seqLength":"","poi_name":"Däryhana","houseNumber":"","street":"Құлағер","street_type":"шағын ауданы","city":"","phone_numbers":"[]","county":"","state":"","country":"KAZ"},"geometry":{"type":"Point","coordinates":[76.92352,43.3073]}},{"type":"Feature","properties":{"recId":"","facility_type_desc":"Pharmacy","seqLength":"","poi_name":"Amrita","houseNumber":"","street":"Борзов","street_type":"көшесі","city":"","phone_numbers":"[]","county":"","state":"","country":"KAZ"},"geometry":{"type":"Point","coordinates":[76.89404,43.26338]}},{"type":"Feature","properties":{"recId":"","facility_type_desc":"Pharmacy","seqLength":"","poi_name":"Däryhana","houseNumber":"","street":"Қайыңсай","street_type":"көшесі","city":"","phone_numbers":"[]","county":"","state":"","country":"KAZ"},"geometry":{"type":"Point","coordinates":[76.85397,43.30443]}},{"type":"Feature","properties":{"recId":"","facility_type_desc":"Pharmacy","seqLength":"","poi_name":"Farmatsiya Yuniversal","houseNumber":"","street":"Чарли Чаплин","street_type":"көшесі","city":"","phone_numbers":"[]","county":"","state":"","country":"KAZ"},"geometry":{"type":"Point","coordinates":[76.98171,43.28447]}},{"type":"Feature","properties":{"recId":"","facility_type_desc":"Pharmacy","seqLength":"","poi_name":"Däryhana","houseNumber":146,"street":"Григория Орджоникидзе","street_type":"улица","city":"","phone_numbers":"[\"727-2516707\"]","county":"","state":"","country":"KAZ"},"geometry":{"type":"Point","coordinates":[76.96474,43.32053]}},{"type":"Feature","properties":{"recId":"","facility_type_desc":"Pharmacy","seqLength":"","poi_name":"Farmakom","houseNumber":41,"street":"Амангельды","street_type":"улица","city":"","phone_numbers":"[\"727-3132618\"]","county":"","state":"","country":"KAZ"},"geometry":{"type":"Point","coordinates":[76.93093,43.25474]}},{"type":"Feature","properties":{"recId":"","facility_type_desc":"Pharmacy","seqLength":"","poi_name":"Däryhana","houseNumber":"","street":"Иштван Қоныр","street_type":"көшесі","city":"","phone_numbers":"[]","county":"","state":"","country":"KAZ"},"geometry":{"type":"Point","coordinates":[76.9876,43.27764]}},{"type":"Feature","properties":{"recId":"","facility_type_desc":"Pharmacy","seqLength":"","poi_name":"Däryhana","houseNumber":"","street":"Іскендіров","street_type":"көшесі","city":"","phone_numbers":"[]","county":"","state":"","country":"KAZ"},"geometry":{"type":"Point","coordinates":[76.95188,43.21648]}},{"type":"Feature","properties":{"recId":"","facility_type_desc":"Pharmacy","seqLength":"","poi_name":"M&G","houseNumber":"","street":"Абай","street_type":"даңғылы","city":"","phone_numbers":"[]","county":"","state":"","country":"KAZ"},"geometry":{"type":"Point","coordinates":[76.95141,43.24275]}},{"type":"Feature","properties":{"recId":"","facility_type_desc":"Pharmacy","seqLength":"","poi_name":"Aliar-Farm","houseNumber":"","street":"Наурызбай батыр","street_type":"көшесі","city":"","phone_numbers":"[\"727-2799447\"]","county":"","state":"","country":"KAZ"},"geometry":{"type":"Point","coordinates":[76.93567,43.25907]}},{"type":"Feature","properties":{"recId":"","facility_type_desc":"Pharmacy","seqLength":"","poi_name":"Däryhana","houseNumber":"","street":"Ахмет Жұбанов","street_type":"көшесі","city":"","phone_numbers":"[]","county":"","state":"","country":"KAZ"},"geometry":{"type":"Point","coordinates":[76.8445,43.2328]}},{"type":"Feature","properties":{"recId":"","facility_type_desc":"Pharmacy","seqLength":"","poi_name":"7-shy Däryhana","houseNumber":"","street":"Тоқтабаев","street_type":"көшесі","city":"","phone_numbers":"[]","county":"","state":"","country":"KAZ"},"geometry":{"type":"Point","coordinates":[76.88079,43.21091]}},{"type":"Feature","properties":{"recId":"","facility_type_desc":"Pharmacy","seqLength":"","poi_name":"Zara Farm","houseNumber":59,"street":"Түркебаев","street_type":"көшесі","city":"","phone_numbers":"[\"727-3745704\"]","county":"","state":"","country":"KAZ"},"geometry":{"type":"Point","coordinates":[76.87799,43.25378]}},{"type":"Feature","properties":{"recId":"","facility_type_desc":"Pharmacy","seqLength":"","poi_name":"Zhayik As","houseNumber":65,"street":"Манаса","street_type":"улица","city":"","phone_numbers":"[\"727-3290538\"]","county":"","state":"","country":"KAZ"},"geometry":{"type":"Point","coordinates":[76.90943,43.23283]}},{"type":"Feature","properties":{"recId":"","facility_type_desc":"Pharmacy","seqLength":"","poi_name":"Däryhana","houseNumber":"","street":"","street_type":"","city":"","phone_numbers":"[]","county":"","state":"","country":"KAZ"},"geometry":{"type":"Point","coordinates":[76.91775,43.3557]}},{"type":"Feature","properties":{"recId":"","facility_type_desc":"Pharmacy","seqLength":"","poi_name":"Diamed","houseNumber":96,"street":"Кармысова","street_type":"улица","city":"","phone_numbers":"[\"727-2913977\",\"727-2914560\"]","county":"","state":"","country":"KAZ"},"geometry":{"type":"Point","coordinates":[76.96027,43.24239]}},{"type":"Feature","properties":{"recId":"","facility_type_desc":"Pharmacy","seqLength":"","poi_name":"Shipa","houseNumber":26,"street":"Петра Емцова","street_type":"улица","city":"","phone_numbers":"[\"727-3829042\"]","county":"","state":"","country":"KAZ"},"geometry":{"type":"Point","coordinates":[76.85887,43.2623]}},{"type":"Feature","properties":{"recId":"","facility_type_desc":"Pharmacy","seqLength":"","poi_name":"Sanzhar","houseNumber":"","street":"Ораз Жандосов","street_type":"көшесі","city":"","phone_numbers":"[]","county":"","state":"","country":"KAZ"},"geometry":{"type":"Point","coordinates":[76.89211,43.22816]}},{"type":"Feature","properties":{"recId":"","facility_type_desc":"Pharmacy","seqLength":"","poi_name":"Däryhana","houseNumber":"","street":"Багаутдинов Шагабутдинов","street_type":"көшесі","city":"","phone_numbers":"[]","county":"","state":"","country":"KAZ"},"geometry":{"type":"Point","coordinates":[76.91944,43.26069]}},{"type":"Feature","properties":{"recId":"","facility_type_desc":"Pharmacy","seqLength":"","poi_name":"36,6","houseNumber":"","street":"Шалов","street_type":"көшесі","city":"","phone_numbers":"[]","county":"","state":"","country":"KAZ"},"geometry":{"type":"Point","coordinates":[76.87609,43.21165]}},{"type":"Feature","properties":{"recId":"","facility_type_desc":"Pharmacy","seqLength":"","poi_name":"Däryhana","houseNumber":"","street":"Тайыр Жароков","street_type":"көшесі","city":"","phone_numbers":"[]","county":"","state":"","country":"KAZ"},"geometry":{"type":"Point","coordinates":[76.90088,43.22834]}},{"type":"Feature","properties":{"recId":"","facility_type_desc":"Pharmacy","seqLength":"","poi_name":"Apteka. Com","houseNumber":"","street":"Орбита-2","street_type":"шағын ауданы","city":"","phone_numbers":"[\"727-2448448\"]","county":"","state":"","country":"KAZ"},"geometry":{"type":"Point","coordinates":[76.88708,43.19749]}},{"type":"Feature","properties":{"recId":"","facility_type_desc":"Pharmacy","seqLength":"","poi_name":"Däryhana","houseNumber":80,"street":"Махамбет Өтемісұлы","street_type":"көшесі","city":"","phone_numbers":"[]","county":"","state":"","country":"KAZ"},"geometry":{"type":"Point","coordinates":[76.86288,43.2969]}},{"type":"Feature","properties":{"recId":"","facility_type_desc":"Pharmacy","seqLength":"","poi_name":"Däryhana","houseNumber":144,"street":"Василия Бартольда","street_type":"улица","city":"","phone_numbers":"[\"727-3839370\"]","county":"","state":"","country":"KAZ"},"geometry":{"type":"Point","coordinates":[76.96526,43.36091]}},{"type":"Feature","properties":{"recId":"","facility_type_desc":"Pharmacy","seqLength":"","poi_name":"Däryhana","houseNumber":129,"street":"Нургисы Тлендиева","street_type":"улица","city":"","phone_numbers":"[]","county":"","state":"","country":"KAZ"},"geometry":{"type":"Point","coordinates":[76.87281,43.24557]}},{"type":"Feature","properties":{"recId":"","facility_type_desc":"Pharmacy","seqLength":"","poi_name":"Däryhana","houseNumber":"","street":"","street_type":"","city":"","phone_numbers":"[]","county":"","state":"","country":"KAZ"},"geometry":{"type":"Point","coordinates":[76.88925,43.26011]}},{"type":"Feature","properties":{"recId":"","facility_type_desc":"Pharmacy","seqLength":"","poi_name":"Däryhana","houseNumber":"","street":"","street_type":"","city":"","phone_numbers":"[]","county":"","state":"","country":"KAZ"},"geometry":{"type":"Point","coordinates":[76.94505,43.33269]}},{"type":"Feature","properties":{"recId":"","facility_type_desc":"Pharmacy","seqLength":"","poi_name":"Melissa","houseNumber":"","street":"","street_type":"","city":"","phone_numbers":"[]","county":"","state":"","country":"KAZ"},"geometry":{"type":"Point","coordinates":[76.95682,43.24993]}},{"type":"Feature","properties":{"recId":"","facility_type_desc":"Pharmacy","seqLength":"","poi_name":"Aydake-Farm Dobraya","houseNumber":"","street":"2-ші","street_type":"шағын аудан","city":"","phone_numbers":"[\"727-2760474\"]","county":"","state":"","country":"KAZ"},"geometry":{"type":"Point","coordinates":[76.85796,43.23056]}},{"type":"Feature","properties":{"recId":"","facility_type_desc":"Pharmacy","seqLength":"","poi_name":"Kazahstan Darileri","houseNumber":"","street":"Александр Грибоедов","street_type":"көшесі","city":"","phone_numbers":"[]","county":"","state":"","country":"KAZ"},"geometry":{"type":"Point","coordinates":[76.9512,43.27687]}},{"type":"Feature","properties":{"recId":"","facility_type_desc":"Pharmacy","seqLength":"","poi_name":"Däryhanasi24","houseNumber":"","street":"Ақсай-4","street_type":"шағын ауданы","city":"","phone_numbers":"[]","county":"","state":"","country":"KAZ"},"geometry":{"type":"Point","coordinates":[76.83743,43.22678]}},{"type":"Feature","properties":{"recId":"","facility_type_desc":"Pharmacy","seqLength":"","poi_name":"Däryhana","houseNumber":"","street":"Алмагүл","street_type":"шағын ауданы","city":"","phone_numbers":"[]","county":"","state":"","country":"KAZ"},"geometry":{"type":"Point","coordinates":[76.90229,43.20522]}},{"type":"Feature","properties":{"recId":"","facility_type_desc":"Pharmacy","seqLength":"","poi_name":"Europharma","houseNumber":"","street":"Самал-2","street_type":"шағын ауданы","city":"","phone_numbers":"[]","county":"","state":"","country":"KAZ"},"geometry":{"type":"Point","coordinates":[76.95415,43.23037]}},{"type":"Feature","properties":{"recId":"","facility_type_desc":"Pharmacy","seqLength":"","poi_name":"Biosfera","houseNumber":"","street":"Жұлдыз-2","street_type":"шағын ауданы","city":"","phone_numbers":"[\"727-2515450\"]","county":"","state":"","country":"KAZ"},"geometry":{"type":"Point","coordinates":[76.98975,43.35771]}},{"type":"Feature","properties":{"recId":"","facility_type_desc":"Pharmacy","seqLength":"","poi_name":"Däryhana","houseNumber":"","street":"","street_type":"","city":"","phone_numbers":"[]","county":"","state":"","country":"KAZ"},"geometry":{"type":"Point","coordinates":[76.88736,43.27896]}},{"type":"Feature","properties":{"recId":"","facility_type_desc":"Pharmacy","seqLength":"","poi_name":"Bayt","houseNumber":"","street":"","street_type":"","city":"","phone_numbers":"[\"727-3150438\"]","county":"","state":"","country":"KAZ"},"geometry":{"type":"Point","coordinates":[76.93337,43.25189]}},{"type":"Feature","properties":{"recId":"","facility_type_desc":"Pharmacy","seqLength":"","poi_name":"Evi Car","houseNumber":"","street":"","street_type":"","city":"","phone_numbers":"[]","county":"","state":"","country":"KAZ"},"geometry":{"type":"Point","coordinates":[76.93453,43.24295]}},{"type":"Feature","properties":{"recId":"","facility_type_desc":"Pharmacy","seqLength":"","poi_name":"Sotsial'naya Apteka Sadihan","houseNumber":"","street":"","street_type":"","city":"","phone_numbers":"[\"727-3287466\"]","county":"","state":"","country":"KAZ"},"geometry":{"type":"Point","coordinates":[76.91859,43.25778]}},{"type":"Feature","properties":{"recId":"","facility_type_desc":"Pharmacy","seqLength":"","poi_name":"Däryhana","houseNumber":"","street":"Петр Емцов","street_type":"көшесі","city":"","phone_numbers":"[]","county":"","state":"","country":"KAZ"},"geometry":{"type":"Point","coordinates":[76.859,43.26208]}},{"type":"Feature","properties":{"recId":"","facility_type_desc":"Pharmacy","seqLength":"","poi_name":"Däryhana","houseNumber":"","street":"Әзірбайжан Мәмбетов","street_type":"көшесі","city":"","phone_numbers":"[]","county":"","state":"","country":"KAZ"},"geometry":{"type":"Point","coordinates":[76.84627,43.3036]}},{"type":"Feature","properties":{"recId":"","facility_type_desc":"Pharmacy","seqLength":"","poi_name":"Däryhana","houseNumber":"","street":"Нагорная","street_type":"көшесі","city":"","phone_numbers":"[]","county":"","state":"","country":"KAZ"},"geometry":{"type":"Point","coordinates":[76.87131,43.26738]}},{"type":"Feature","properties":{"recId":"","facility_type_desc":"Pharmacy","seqLength":"","poi_name":"Dobraya","houseNumber":"","street":"Қусаинов","street_type":"көшесі","city":"","phone_numbers":"[]","county":"","state":"","country":"KAZ"},"geometry":{"type":"Point","coordinates":[76.89238,43.19811]}},{"type":"Feature","properties":{"recId":"","facility_type_desc":"Pharmacy","seqLength":"","poi_name":"Däryhana","houseNumber":"","street":"Центральная","street_type":"көшесі","city":"","phone_numbers":"[]","county":"","state":"","country":"KAZ"},"geometry":{"type":"Point","coordinates":[76.84913,43.32568]}},{"type":"Feature","properties":{"recId":"","facility_type_desc":"Pharmacy","seqLength":"","poi_name":"Däryhana","houseNumber":"","street":"","street_type":"","city":"","phone_numbers":"[]","county":"","state":"","country":"KAZ"},"geometry":{"type":"Point","coordinates":[76.88283,43.21047]}},{"type":"Feature","properties":{"recId":"","facility_type_desc":"Pharmacy","seqLength":"","poi_name":"Däryhana","houseNumber":"","street":"Самал-1","street_type":"шағын ауданы","city":"","phone_numbers":"[]","county":"","state":"","country":"KAZ"},"geometry":{"type":"Point","coordinates":[76.95603,43.23463]}},{"type":"Feature","properties":{"recId":"","facility_type_desc":"Pharmacy","seqLength":"","poi_name":"Al'-Arumed","houseNumber":"","street":"Марков","street_type":"көшесі","city":"","phone_numbers":"[]","county":"","state":"","country":"KAZ"},"geometry":{"type":"Point","coordinates":[76.9284,43.23161]}},{"type":"Feature","properties":{"recId":"","facility_type_desc":"Pharmacy","seqLength":"","poi_name":"Däryhana","houseNumber":"","street":"Сәкен Сейфуллин","street_type":"даңғылы","city":"","phone_numbers":"[]","county":"","state":"","country":"KAZ"},"geometry":{"type":"Point","coordinates":[76.9401,43.30019]}},{"type":"Feature","properties":{"recId":"","facility_type_desc":"Pharmacy","seqLength":"","poi_name":"Rauza-Ade","houseNumber":"","street":"Тастақ-3","street_type":"","city":"","phone_numbers":"[\"727-3746821\"]","county":"","state":"","country":"KAZ"},"geometry":{"type":"Point","coordinates":[76.88703,43.2515]}},{"type":"Feature","properties":{"recId":"","facility_type_desc":"Pharmacy","seqLength":"","poi_name":"Däryhana","houseNumber":6,"street":"7-ші","street_type":"шағын аудан","city":"","phone_numbers":"[\"727-2681563\"]","county":"","state":"","country":"KAZ"},"geometry":{"type":"Point","coordinates":[76.86056,43.22462]}},{"type":"Feature","properties":{"recId":"","facility_type_desc":"Pharmacy","seqLength":"","poi_name":"Evroapteka","houseNumber":"","street":"Қали Надыров","street_type":"көшесі","city":"","phone_numbers":"[]","county":"","state":"","country":"KAZ"},"geometry":{"type":"Point","coordinates":[76.84895,43.17777]}},{"type":"Feature","properties":{"recId":"","facility_type_desc":"Pharmacy","seqLength":"","poi_name":"Däryhana","houseNumber":"","street":"Басенов","street_type":"көшесі","city":"","phone_numbers":"[]","county":"","state":"","country":"KAZ"},"geometry":{"type":"Point","coordinates":[76.9013,43.22234]}},{"type":"Feature","properties":{"recId":"","facility_type_desc":"Pharmacy","seqLength":"","poi_name":"Däryhana","houseNumber":"","street":"Құлағер","street_type":"шағын ауданы","city":"","phone_numbers":"[]","county":"","state":"","country":"KAZ"},"geometry":{"type":"Point","coordinates":[76.92289,43.30543]}},{"type":"Feature","properties":{"recId":"","facility_type_desc":"Pharmacy","seqLength":"","poi_name":"Dana Farm","houseNumber":"","street":"Құлағер","street_type":"шағын ауданы","city":"","phone_numbers":"[]","county":"","state":"","country":"KAZ"},"geometry":{"type":"Point","coordinates":[76.92298,43.30543]}},{"type":"Feature","properties":{"recId":"","facility_type_desc":"Pharmacy","seqLength":"","poi_name":"Ot A Do Ya","houseNumber":"","street":"","street_type":"","city":"","phone_numbers":"[]","county":"","state":"","country":"KAZ"},"geometry":{"type":"Point","coordinates":[76.99316,43.37779]}},{"type":"Feature","properties":{"recId":"","facility_type_desc":"Pharmacy","seqLength":"","poi_name":"Däryhana","houseNumber":60,"street":"Райымбека","street_type":"проспект","city":"","phone_numbers":"[\"727-3974190\"]","county":"","state":"","country":"KAZ"},"geometry":{"type":"Point","coordinates":[76.95791,43.27147]}},{"type":"Feature","properties":{"recId":"","facility_type_desc":"Pharmacy","seqLength":"","poi_name":"Däryhana","houseNumber":"","street":"Көктем-3","street_type":"шағын ауданы","city":"","phone_numbers":"[]","county":"","state":"","country":"KAZ"},"geometry":{"type":"Point","coordinates":[76.91619,43.23611]}},{"type":"Feature","properties":{"recId":"","facility_type_desc":"Pharmacy","seqLength":"","poi_name":"Sotsial'naya Apteka","houseNumber":"","street":"Сәкен Сейфуллин","street_type":"даңғылы","city":"","phone_numbers":"[]","county":"","state":"","country":"KAZ"},"geometry":{"type":"Point","coordinates":[76.93978,43.30495]}},{"type":"Feature","properties":{"recId":"","facility_type_desc":"Pharmacy","seqLength":"","poi_name":"Däryhana","houseNumber":"","street":"Балтабай","street_type":"көшесі","city":"","phone_numbers":"[]","county":"","state":"","country":"KAZ"},"geometry":{"type":"Point","coordinates":[76.98446,43.26641]}},{"type":"Feature","properties":{"recId":"","facility_type_desc":"Pharmacy","seqLength":"","poi_name":"Valentina Farm","houseNumber":"","street":"Мағазы Масанчи","street_type":"көшесі","city":"","phone_numbers":"[\"727-2606846\"]","county":"","state":"","country":"KAZ"},"geometry":{"type":"Point","coordinates":[76.92898,43.25571]}},{"type":"Feature","properties":{"recId":"","facility_type_desc":"Pharmacy","seqLength":"","poi_name":"Na Zdorov'e","houseNumber":"","street":"","street_type":"","city":"","phone_numbers":"[]","county":"","state":"","country":"KAZ"},"geometry":{"type":"Point","coordinates":[76.90352,43.2337]}},{"type":"Feature","properties":{"recId":"","facility_type_desc":"Pharmacy","seqLength":"","poi_name":"Däryhana","houseNumber":"","street":"М. Есеналиев","street_type":"көшесі","city":"","phone_numbers":"[]","county":"","state":"","country":"KAZ"},"geometry":{"type":"Point","coordinates":[76.90172,43.19052]}},{"type":"Feature","properties":{"recId":"","facility_type_desc":"Pharmacy","seqLength":"","poi_name":"Europharma","houseNumber":"","street":"Климент Тимирязев","street_type":"көшесі","city":"","phone_numbers":"[]","county":"","state":"","country":"KAZ"},"geometry":{"type":"Point","coordinates":[76.91224,43.22631]}},{"type":"Feature","properties":{"recId":"","facility_type_desc":"Pharmacy","seqLength":"","poi_name":"Planeta","houseNumber":"","street":"Алмагүл","street_type":"шағын ауданы","city":"","phone_numbers":"[]","county":"","state":"","country":"KAZ"},"geometry":{"type":"Point","coordinates":[76.90245,43.20502]}},{"type":"Feature","properties":{"recId":"","facility_type_desc":"Pharmacy","seqLength":"","poi_name":"Kameya-A","houseNumber":19,"street":"12-ші","street_type":"шағын аудан","city":"","phone_numbers":"[\"727-3749900\"]","county":"","state":"","country":"KAZ"},"geometry":{"type":"Point","coordinates":[76.8653,43.21995]}},{"type":"Feature","properties":{"recId":"","facility_type_desc":"Pharmacy","seqLength":"","poi_name":"Brusilovskiy kösh. Däryhanasi","houseNumber":"","street":"Евгений Брусиловский","street_type":"көшесі","city":"","phone_numbers":"[]","county":"","state":"","country":"KAZ"},"geometry":{"type":"Point","coordinates":[76.87542,43.25666]}},{"type":"Feature","properties":{"recId":"","facility_type_desc":"Pharmacy","seqLength":"","poi_name":"Zarident","houseNumber":"","street":"Төле Би","street_type":"көшесі","city":"","phone_numbers":"[]","county":"","state":"","country":"KAZ"},"geometry":{"type":"Point","coordinates":[76.87097,43.24888]}},{"type":"Feature","properties":{"recId":"","facility_type_desc":"Pharmacy","seqLength":"","poi_name":"Viva Pharm","houseNumber":"","street":"Тайыр Жароков","street_type":"көшесі","city":"","phone_numbers":"[]","county":"","state":"","country":"KAZ"},"geometry":{"type":"Point","coordinates":[76.9099,43.2021]}},{"type":"Feature","properties":{"recId":"","facility_type_desc":"Pharmacy","seqLength":"","poi_name":"Rauza-Ade","houseNumber":"","street":"Орбита-4","street_type":"шағын ауданы","city":"","phone_numbers":"[\"727-2241121\"]","county":"","state":"","country":"KAZ"},"geometry":{"type":"Point","coordinates":[76.87885,43.19778]}},{"type":"Feature","properties":{"recId":"","facility_type_desc":"Pharmacy","seqLength":"","poi_name":"Ramed","houseNumber":"","street":"Алмагүл","street_type":"шағын ауданы","city":"","phone_numbers":"[\"727-3962342\",\"727-3962389\"]","county":"","state":"","country":"KAZ"},"geometry":{"type":"Point","coordinates":[76.89956,43.20786]}},{"type":"Feature","properties":{"recId":"","facility_type_desc":"Pharmacy","seqLength":"","poi_name":"Däryhana","houseNumber":3,"street":"Николай Станкевич","street_type":"көшесі","city":"","phone_numbers":"[]","county":"","state":"","country":"KAZ"},"geometry":{"type":"Point","coordinates":[76.95522,43.33275]}},{"type":"Feature","properties":{"recId":"","facility_type_desc":"Pharmacy","seqLength":"","poi_name":"Vinita Sistem","houseNumber":"","street":"Янушкевич","street_type":"көшесі","city":"","phone_numbers":"[]","county":"","state":"","country":"KAZ"},"geometry":{"type":"Point","coordinates":[76.95595,43.26758]}},{"type":"Feature","properties":{"recId":"","facility_type_desc":"Pharmacy","seqLength":"","poi_name":"Däryhana","houseNumber":102,"street":"Тұрар Рысқұлов","street_type":"көшесі","city":"","phone_numbers":"[]","county":"","state":"","country":"KAZ"},"geometry":{"type":"Point","coordinates":[76.83147,43.18708]}},{"type":"Feature","properties":{"recId":"","facility_type_desc":"Pharmacy","seqLength":"","poi_name":"Abzal-Farm","houseNumber":168,"street":"Сәкен Сейфуллин","street_type":"даңғылы","city":"","phone_numbers":"[\"727-2945221\"]","county":"","state":"","country":"KAZ"},"geometry":{"type":"Point","coordinates":[76.94025,43.30849]}},{"type":"Feature","properties":{"recId":"","facility_type_desc":"Pharmacy","seqLength":"","poi_name":"Töle Bi kösh. Däryhanasi","houseNumber":297,"street":"Төле Би","street_type":"көшесі","city":"","phone_numbers":"[]","county":"","state":"","country":"KAZ"},"geometry":{"type":"Point","coordinates":[76.8725,43.24918]}},{"type":"Feature","properties":{"recId":"","facility_type_desc":"Pharmacy","seqLength":"","poi_name":"Gold Merkuri","houseNumber":"","street":"Төле Би","street_type":"көшесі","city":"","phone_numbers":"[\"727-3747399\"]","county":"","state":"","country":"KAZ"},"geometry":{"type":"Point","coordinates":[76.87263,43.2492]}},{"type":"Feature","properties":{"recId":"","facility_type_desc":"Pharmacy","seqLength":"","poi_name":"Däryhana","houseNumber":297,"street":"Төле Би","street_type":"көшесі","city":"","phone_numbers":"[\"727-3745622\"]","county":"","state":"","country":"KAZ"},"geometry":{"type":"Point","coordinates":[76.87259,43.24919]}},{"type":"Feature","properties":{"recId":"","facility_type_desc":"Pharmacy","seqLength":"","poi_name":"Däryhana","houseNumber":"","street":"Көкқайнар","street_type":"","city":"","phone_numbers":"[]","county":"","state":"","country":"KAZ"},"geometry":{"type":"Point","coordinates":[76.84305,43.29835]}},{"type":"Feature","properties":{"recId":"","facility_type_desc":"Pharmacy","seqLength":"","poi_name":"Ayro","houseNumber":"","street":"Көкқайнар","street_type":"","city":"","phone_numbers":"[]","county":"","state":"","country":"KAZ"},"geometry":{"type":"Point","coordinates":[76.84295,43.29829]}},{"type":"Feature","properties":{"recId":"","facility_type_desc":"Pharmacy","seqLength":"","poi_name":"Däryhana","houseNumber":"","street":"Сайын","street_type":"көшесі","city":"","phone_numbers":"[]","county":"","state":"","country":"KAZ"},"geometry":{"type":"Point","coordinates":[76.83923,43.23869]}},{"type":"Feature","properties":{"recId":"","facility_type_desc":"Pharmacy","seqLength":"","poi_name":"Kazyna Pharm","houseNumber":"","street":"Сайын","street_type":"көшесі","city":"","phone_numbers":"[\"727-2220716\"]","county":"","state":"","country":"KAZ"},"geometry":{"type":"Point","coordinates":[76.83917,43.23894]}},{"type":"Feature","properties":{"recId":"","facility_type_desc":"Pharmacy","seqLength":"","poi_name":"52-shy Däryhana","houseNumber":"","street":"Сайын","street_type":"көшесі","city":"","phone_numbers":"[]","county":"","state":"","country":"KAZ"},"geometry":{"type":"Point","coordinates":[76.83928,43.23858]}},{"type":"Feature","properties":{"recId":"","facility_type_desc":"Pharmacy","seqLength":"","poi_name":"Evroapteka","houseNumber":"","street":"","street_type":"","city":"","phone_numbers":"[]","county":"","state":"","country":"KAZ"},"geometry":{"type":"Point","coordinates":[76.8437,43.22865]}},{"type":"Feature","properties":{"recId":"","facility_type_desc":"Pharmacy","seqLength":"","poi_name":"Telli","houseNumber":250,"street":"Достық","street_type":"даңғылы","city":"","phone_numbers":"[]","county":"","state":"","country":"KAZ"},"geometry":{"type":"Point","coordinates":[76.96319,43.22168]}},{"type":"Feature","properties":{"recId":"","facility_type_desc":"Pharmacy","seqLength":"","poi_name":"Däryhana","houseNumber":12,"street":"10-й","street_type":"микрорайон","city":"","phone_numbers":"[\"727-3033268\"]","county":"","state":"","country":"KAZ"},"geometry":{"type":"Point","coordinates":[76.86526,43.21773]}},{"type":"Feature","properties":{"recId":"","facility_type_desc":"Pharmacy","seqLength":"","poi_name":"Biosfera","houseNumber":89,"street":"Сергея Прокофьева","street_type":"улица","city":"","phone_numbers":"[\"727-3019995\",\"727-3020156\"]","county":"","state":"","country":"KAZ"},"geometry":{"type":"Point","coordinates":[76.87453,43.24874]}},{"type":"Feature","properties":{"recId":"","facility_type_desc":"Pharmacy","seqLength":"","poi_name":"Weider Pharm","houseNumber":23,"street":"Кыз Жибек","street_type":"улица","city":"","phone_numbers":"[\"727-2251838\"]","county":"","state":"","country":"KAZ"},"geometry":{"type":"Point","coordinates":[76.97283,43.22039]}},{"type":"Feature","properties":{"recId":"","facility_type_desc":"Pharmacy","seqLength":"","poi_name":"Däryhana","houseNumber":"","street":"Алтай-1","street_type":"шағын ауданы","city":"","phone_numbers":"[]","county":"","state":"","country":"KAZ"},"geometry":{"type":"Point","coordinates":[76.98429,43.34226]}},{"type":"Feature","properties":{"recId":"","facility_type_desc":"Pharmacy","seqLength":"","poi_name":"Däryhana","houseNumber":"","street":"Манас","street_type":"көшесі","city":"","phone_numbers":"[]","county":"","state":"","country":"KAZ"},"geometry":{"type":"Point","coordinates":[76.90873,43.23816]}},{"type":"Feature","properties":{"recId":"","facility_type_desc":"Pharmacy","seqLength":"","poi_name":"Prezidium","houseNumber":"","street":"Ақсай-2","street_type":"шағын ауданы","city":"","phone_numbers":"[\"727-2382474\"]","county":"","state":"","country":"KAZ"},"geometry":{"type":"Point","coordinates":[76.83124,43.2388]}},{"type":"Feature","properties":{"recId":"","facility_type_desc":"Pharmacy","seqLength":"","poi_name":"Däryhana","houseNumber":"","street":"Михаил Шемякин","street_type":"көшесі","city":"","phone_numbers":"[]","county":"","state":"","country":"KAZ"},"geometry":{"type":"Point","coordinates":[76.96186,43.29096]}},{"type":"Feature","properties":{"recId":"","facility_type_desc":"Pharmacy","seqLength":"","poi_name":"Ay-Dent","houseNumber":"","street":"Лебедев","street_type":"көшесі","city":"","phone_numbers":"[]","county":"","state":"","country":"KAZ"},"geometry":{"type":"Point","coordinates":[76.88391,43.22246]}},{"type":"Feature","properties":{"recId":"","facility_type_desc":"Pharmacy","seqLength":"","poi_name":"Aydake-Farm Dobraya","houseNumber":"","street":"Лебедев","street_type":"көшесі","city":"","phone_numbers":"[\"727-3941711\"]","county":"","state":"","country":"KAZ"},"geometry":{"type":"Point","coordinates":[76.88396,43.22263]}},{"type":"Feature","properties":{"recId":"","facility_type_desc":"Pharmacy","seqLength":"","poi_name":"Aydake-Farm","houseNumber":"","street":"Лебедев","street_type":"көшесі","city":"","phone_numbers":"[]","county":"","state":"","country":"KAZ"},"geometry":{"type":"Point","coordinates":[76.88391,43.22246]}},{"type":"Feature","properties":{"recId":"","facility_type_desc":"Pharmacy","seqLength":"","poi_name":"Farmakom","houseNumber":"","street":"","street_type":"","city":"","phone_numbers":"[\"727-3908433\"]","county":"","state":"","country":"KAZ"},"geometry":{"type":"Point","coordinates":[76.95129,43.29409]}},{"type":"Feature","properties":{"recId":"","facility_type_desc":"Pharmacy","seqLength":"","poi_name":"Hikma Farmas'yutikals Ko.","houseNumber":7,"street":"Керемет","street_type":"шағын ауданы","city":"","phone_numbers":"[]","county":"","state":"","country":"KAZ"},"geometry":{"type":"Point","coordinates":[76.93825,43.23524]}},{"type":"Feature","properties":{"recId":"","facility_type_desc":"Pharmacy","seqLength":"","poi_name":"Däryhana","houseNumber":"","street":"Керемет","street_type":"шағын ауданы","city":"","phone_numbers":"[]","county":"","state":"","country":"KAZ"},"geometry":{"type":"Point","coordinates":[76.93807,43.23523]}},{"type":"Feature","properties":{"recId":"","facility_type_desc":"Pharmacy","seqLength":"","poi_name":"Oad 27 Askorbinka","houseNumber":"","street":"Керемет","street_type":"шағын ауданы","city":"","phone_numbers":"[]","county":"","state":"","country":"KAZ"},"geometry":{"type":"Point","coordinates":[76.93825,43.23524]}},{"type":"Feature","properties":{"recId":"","facility_type_desc":"Pharmacy","seqLength":"","poi_name":"My Clinic","houseNumber":"","street":"9-шы","street_type":"шағын аудан","city":"","phone_numbers":"[]","county":"","state":"","country":"KAZ"},"geometry":{"type":"Point","coordinates":[76.85772,43.21354]}},{"type":"Feature","properties":{"recId":"","facility_type_desc":"Pharmacy","seqLength":"","poi_name":"Melissa","houseNumber":49,"street":"Таугүл","street_type":"шағын ауданы","city":"","phone_numbers":"[]","county":"","state":"","country":"KAZ"},"geometry":{"type":"Point","coordinates":[76.87055,43.21168]}},{"type":"Feature","properties":{"recId":"","facility_type_desc":"Pharmacy","seqLength":"","poi_name":"Izyum","houseNumber":"","street":"Ақсай-4","street_type":"шағын ауданы","city":"","phone_numbers":"[]","county":"","state":"","country":"KAZ"},"geometry":{"type":"Point","coordinates":[76.83692,43.22531]}},{"type":"Feature","properties":{"recId":"","facility_type_desc":"Pharmacy","seqLength":"","poi_name":"Biosfera","houseNumber":"","street":"Таугүл-1","street_type":"шағын ауданы","city":"","phone_numbers":"[]","county":"","state":"","country":"KAZ"},"geometry":{"type":"Point","coordinates":[76.86951,43.20958]}},{"type":"Feature","properties":{"recId":"","facility_type_desc":"Pharmacy","seqLength":"","poi_name":"Däryhana","houseNumber":"","street":"Ануарбек Үмбетбаев","street_type":"көшесі","city":"","phone_numbers":"[\"727-2459451\"]","county":"","state":"","country":"KAZ"},"geometry":{"type":"Point","coordinates":[76.89699,43.23174]}},{"type":"Feature","properties":{"recId":"","facility_type_desc":"Pharmacy","seqLength":"","poi_name":"Däryhana","houseNumber":"","street":"Петр Емцов","street_type":"көшесі","city":"","phone_numbers":"[\"727-2464332\"]","county":"","state":"","country":"KAZ"},"geometry":{"type":"Point","coordinates":[76.86217,43.25656]}},{"type":"Feature","properties":{"recId":"","facility_type_desc":"Pharmacy","seqLength":"","poi_name":"Rauza-Ade","houseNumber":"","street":"Сергей Прокофьев","street_type":"көшесі","city":"","phone_numbers":"[\"727-3951882\"]","county":"","state":"","country":"KAZ"},"geometry":{"type":"Point","coordinates":[76.87561,43.24253]}},{"type":"Feature","properties":{"recId":"","facility_type_desc":"Pharmacy","seqLength":"","poi_name":"Töle Bi kösh. Däryhanasi","houseNumber":"","street":"Төрегельды Шарманов","street_type":"көшесі","city":"","phone_numbers":"[]","county":"","state":"","country":"KAZ"},"geometry":{"type":"Point","coordinates":[76.83409,43.24534]}},{"type":"Feature","properties":{"recId":"","facility_type_desc":"Pharmacy","seqLength":"","poi_name":"Karudo","houseNumber":"","street":"Дарын","street_type":"шағын ауданы","city":"","phone_numbers":"[]","county":"","state":"","country":"KAZ"},"geometry":{"type":"Point","coordinates":[76.86873,43.19526]}},{"type":"Feature","properties":{"recId":"","facility_type_desc":"Pharmacy","seqLength":"","poi_name":"Interteach","houseNumber":"","street":"Әйтеке Би","street_type":"көшесі","city":"","phone_numbers":"[]","county":"","state":"","country":"KAZ"},"geometry":{"type":"Point","coordinates":[76.9372,43.2577]}},{"type":"Feature","properties":{"recId":"","facility_type_desc":"Pharmacy","seqLength":"","poi_name":"Kazevrofarm","houseNumber":48,"street":"Құрманғазы","street_type":"көшесі","city":"","phone_numbers":"[]","county":"","state":"","country":"KAZ"},"geometry":{"type":"Point","coordinates":[76.9472,43.24464]}},{"type":"Feature","properties":{"recId":"","facility_type_desc":"Pharmacy","seqLength":"","poi_name":"Nuga Best","houseNumber":"","street":"Төле Би","street_type":"көшесі","city":"","phone_numbers":"[]","county":"","state":"","country":"KAZ"},"geometry":{"type":"Point","coordinates":[76.85762,43.24625]}},{"type":"Feature","properties":{"recId":"","facility_type_desc":"Pharmacy","seqLength":"","poi_name":"Däryhana","houseNumber":"","street":"Дмитрий Снегин","street_type":"көшесі","city":"","phone_numbers":"[]","county":"","state":"","country":"KAZ"},"geometry":{"type":"Point","coordinates":[76.95868,43.23003]}},{"type":"Feature","properties":{"recId":"","facility_type_desc":"Pharmacy","seqLength":"","poi_name":"Magnum Däryhanasi","houseNumber":"","street":"Жетісу-3","street_type":"шағын ауданы","city":"","phone_numbers":"[]","county":"","state":"","country":"KAZ"},"geometry":{"type":"Point","coordinates":[76.84219,43.21799]}},{"type":"Feature","properties":{"recId":"","facility_type_desc":"Pharmacy","seqLength":"","poi_name":"Ms Help","houseNumber":"","street":"Зейнолла Қабдоллаев","street_type":"көшесі","city":"","phone_numbers":"[]","county":"","state":"","country":"KAZ"},"geometry":{"type":"Point","coordinates":[76.84532,43.23522]}},{"type":"Feature","properties":{"recId":"","facility_type_desc":"Pharmacy","seqLength":"","poi_name":"Däryhana","houseNumber":"","street":"Зейнолла Қабдоллаев","street_type":"көшесі","city":"","phone_numbers":"[]","county":"","state":"","country":"KAZ"},"geometry":{"type":"Point","coordinates":[76.84623,43.23543]}},{"type":"Feature","properties":{"recId":"","facility_type_desc":"Pharmacy","seqLength":"","poi_name":"Apteka. Com","houseNumber":16,"street":"8-й","street_type":"микрорайон","city":"","phone_numbers":"[\"727-2448448\"]","county":"","state":"","country":"KAZ"},"geometry":{"type":"Point","coordinates":[76.87058,43.22984]}},{"type":"Feature","properties":{"recId":"","facility_type_desc":"Pharmacy","seqLength":"","poi_name":"Akbulakfarm","houseNumber":"","street":"","street_type":"","city":"","phone_numbers":"[]","county":"","state":"","country":"KAZ"},"geometry":{"type":"Point","coordinates":[76.9209,43.26188]}},{"type":"Feature","properties":{"recId":"","facility_type_desc":"Pharmacy","seqLength":"","poi_name":"El Company","houseNumber":"","street":"","street_type":"","city":"","phone_numbers":"[]","county":"","state":"","country":"KAZ"},"geometry":{"type":"Point","coordinates":[76.93146,43.2406]}},{"type":"Feature","properties":{"recId":"","facility_type_desc":"Pharmacy","seqLength":"","poi_name":"Senim","houseNumber":"","street":"","street_type":"","city":"","phone_numbers":"[]","county":"","state":"","country":"KAZ"},"geometry":{"type":"Point","coordinates":[76.88898,43.23499]}},{"type":"Feature","properties":{"recId":"","facility_type_desc":"Pharmacy","seqLength":"","poi_name":"Ayniyaz Farm","houseNumber":"","street":"Ақсай-5","street_type":"шағын ауданы","city":"","phone_numbers":"[]","county":"","state":"","country":"KAZ"},"geometry":{"type":"Point","coordinates":[76.83261,43.22816]}},{"type":"Feature","properties":{"recId":"","facility_type_desc":"Pharmacy","seqLength":"","poi_name":"Zhuzi","houseNumber":"","street":"Ақсай-2А","street_type":"шағын ауданы","city":"","phone_numbers":"[]","county":"","state":"","country":"KAZ"},"geometry":{"type":"Point","coordinates":[76.83767,43.23167]}},{"type":"Feature","properties":{"recId":"","facility_type_desc":"Pharmacy","seqLength":"","poi_name":"Däryhana","houseNumber":"","street":"Ақсай-2А","street_type":"шағын ауданы","city":"","phone_numbers":"[]","county":"","state":"","country":"KAZ"},"geometry":{"type":"Point","coordinates":[76.83788,43.23171]}},{"type":"Feature","properties":{"recId":"","facility_type_desc":"Pharmacy","seqLength":"","poi_name":"Farmiko","houseNumber":"","street":"Ермак","street_type":"көшесі","city":"","phone_numbers":"[]","county":"","state":"","country":"KAZ"},"geometry":{"type":"Point","coordinates":[76.92848,43.28566]}},{"type":"Feature","properties":{"recId":"","facility_type_desc":"Pharmacy","seqLength":"","poi_name":"Däryhana","houseNumber":36,"street":"Мағжан Жұмабаев","street_type":"көшесі","city":"","phone_numbers":"[]","county":"","state":"","country":"KAZ"},"geometry":{"type":"Point","coordinates":[76.93834,43.31689]}},{"type":"Feature","properties":{"recId":"","facility_type_desc":"Pharmacy","seqLength":"","poi_name":"Däryhana","houseNumber":27,"street":"Мағжан Жұмабаев","street_type":"көшесі","city":"","phone_numbers":"[]","county":"","state":"","country":"KAZ"},"geometry":{"type":"Point","coordinates":[76.93848,43.31695]}},{"type":"Feature","properties":{"recId":"","facility_type_desc":"Pharmacy","seqLength":"","poi_name":"As Dari","houseNumber":"","street":"Евгений Брусиловский","street_type":"көшесі","city":"","phone_numbers":"[\"727-3739301\"]","county":"","state":"","country":"KAZ"},"geometry":{"type":"Point","coordinates":[76.87545,43.25643]}},{"type":"Feature","properties":{"recId":"","facility_type_desc":"Pharmacy","seqLength":"","poi_name":"Däryhana","houseNumber":"","street":"Айнабұлақ-3","street_type":"шағын ауданы","city":"","phone_numbers":"[]","county":"","state":"","country":"KAZ"},"geometry":{"type":"Point","coordinates":[76.91863,43.32247]}},{"type":"Feature","properties":{"recId":"","facility_type_desc":"Pharmacy","seqLength":"","poi_name":"Byrlyk","houseNumber":"","street":"Ақжар","street_type":"шағын ауданы","city":"","phone_numbers":"[]","county":"","state":"","country":"KAZ"},"geometry":{"type":"Point","coordinates":[76.79724,43.17663]}},{"type":"Feature","properties":{"recId":"","facility_type_desc":"Pharmacy","seqLength":"","poi_name":"Däryhana","houseNumber":"","street":"","street_type":"","city":"","phone_numbers":"[]","county":"","state":"","country":"KAZ"},"geometry":{"type":"Point","coordinates":[76.9055,43.24007]}},{"type":"Feature","properties":{"recId":"","facility_type_desc":"Pharmacy","seqLength":"","poi_name":"Schast'e I Radost'","houseNumber":126,"street":"Наурызбай батыра","street_type":"улица","city":"","phone_numbers":"[]","county":"","state":"","country":"KAZ"},"geometry":{"type":"Point","coordinates":[76.93732,43.24621]}},{"type":"Feature","properties":{"recId":"","facility_type_desc":"Pharmacy","seqLength":"","poi_name":"Bud'te Zdorovi","houseNumber":"","street":"Самал-1","street_type":"шағын ауданы","city":"","phone_numbers":"[]","county":"","state":"","country":"KAZ"},"geometry":{"type":"Point","coordinates":[76.95367,43.23552]}},{"type":"Feature","properties":{"recId":"","facility_type_desc":"Pharmacy","seqLength":"","poi_name":"Tam","houseNumber":"","street":"Ақсай-4","street_type":"шағын ауданы","city":"","phone_numbers":"[\"727-2383317\",\"727-2383332\"]","county":"","state":"","country":"KAZ"},"geometry":{"type":"Point","coordinates":[76.83501,43.22784]}},{"type":"Feature","properties":{"recId":"","facility_type_desc":"Pharmacy","seqLength":"","poi_name":"Di-Az-Dent","houseNumber":"","street":"Төле Би","street_type":"көшесі","city":"","phone_numbers":"[]","county":"","state":"","country":"KAZ"},"geometry":{"type":"Point","coordinates":[76.87386,43.24924]}},{"type":"Feature","properties":{"recId":"","facility_type_desc":"Pharmacy","seqLength":"","poi_name":"Biosfera","houseNumber":"","street":"Төле Би","street_type":"көшесі","city":"","phone_numbers":"[]","county":"","state":"","country":"KAZ"},"geometry":{"type":"Point","coordinates":[76.87401,43.24927]}},{"type":"Feature","properties":{"recId":"","facility_type_desc":"Pharmacy","seqLength":"","poi_name":"Saudakent","houseNumber":18,"street":"Ақкент","street_type":"шағын ауданы","city":"","phone_numbers":"[]","county":"","state":"","country":"KAZ"},"geometry":{"type":"Point","coordinates":[76.8154,43.24254]}},{"type":"Feature","properties":{"recId":"","facility_type_desc":"Pharmacy","seqLength":"","poi_name":"Limpopo","houseNumber":"","street":"Мағазы Масанчи","street_type":"көшесі","city":"","phone_numbers":"[]","county":"","state":"","country":"KAZ"},"geometry":{"type":"Point","coordinates":[76.93141,43.23749]}},{"type":"Feature","properties":{"recId":"","facility_type_desc":"Pharmacy","seqLength":"","poi_name":"Däryhana","houseNumber":"","street":"Шаңырақ-1","street_type":"","city":"","phone_numbers":"[]","county":"","state":"","country":"KAZ"},"geometry":{"type":"Point","coordinates":[76.8638,43.28896]}},{"type":"Feature","properties":{"recId":"","facility_type_desc":"Pharmacy","seqLength":"","poi_name":"Set' Aptek","houseNumber":"","street":"Айнабұлақ-4","street_type":"шағын ауданы","city":"","phone_numbers":"[]","county":"","state":"","country":"KAZ"},"geometry":{"type":"Point","coordinates":[76.91152,43.32387]}},{"type":"Feature","properties":{"recId":"","facility_type_desc":"Pharmacy","seqLength":"","poi_name":"Däryhana","houseNumber":"","street":"Айнабұлақ-4","street_type":"шағын ауданы","city":"","phone_numbers":"[\"727-2948996\"]","county":"","state":"","country":"KAZ"},"geometry":{"type":"Point","coordinates":[76.91152,43.32387]}},{"type":"Feature","properties":{"recId":"","facility_type_desc":"Pharmacy","seqLength":"","poi_name":"Däryhana","houseNumber":"","street":"Қазақфильм","street_type":"шағын ауданы","city":"","phone_numbers":"[]","county":"","state":"","country":"KAZ"},"geometry":{"type":"Point","coordinates":[76.90719,43.1973]}},{"type":"Feature","properties":{"recId":"","facility_type_desc":"Pharmacy","seqLength":"","poi_name":"Däryhana","houseNumber":"","street":"Красноармейская","street_type":"көшесі","city":"","phone_numbers":"[]","county":"","state":"","country":"KAZ"},"geometry":{"type":"Point","coordinates":[76.88131,43.28028]}},{"type":"Feature","properties":{"recId":"","facility_type_desc":"Pharmacy","seqLength":"","poi_name":"Däryhana","houseNumber":"","street":"Бердібек Соқпақбаев","street_type":"көшесі","city":"","phone_numbers":"[]","county":"","state":"","country":"KAZ"},"geometry":{"type":"Point","coordinates":[76.88288,43.26189]}},{"type":"Feature","properties":{"recId":"","facility_type_desc":"Pharmacy","seqLength":"","poi_name":"Puls","houseNumber":"","street":"Юрий Гагарин","street_type":"даңғылы","city":"","phone_numbers":"[]","county":"","state":"","country":"KAZ"},"geometry":{"type":"Point","coordinates":[76.89709,43.22011]}},{"type":"Feature","properties":{"recId":"","facility_type_desc":"Pharmacy","seqLength":"","poi_name":"Biosfera","houseNumber":"","street":"Юрий Гагарин","street_type":"даңғылы","city":"","phone_numbers":"[]","county":"","state":"","country":"KAZ"},"geometry":{"type":"Point","coordinates":[76.89709,43.22009]}},{"type":"Feature","properties":{"recId":"","facility_type_desc":"Pharmacy","seqLength":"","poi_name":"Däryhana","houseNumber":"","street":"Юрий Гагарин","street_type":"даңғылы","city":"","phone_numbers":"[]","county":"","state":"","country":"KAZ"},"geometry":{"type":"Point","coordinates":[76.89703,43.2203]}},{"type":"Feature","properties":{"recId":"","facility_type_desc":"Pharmacy","seqLength":"","poi_name":"Däryhana","houseNumber":"","street":"Петр Чайковский","street_type":"көшесі","city":"","phone_numbers":"[]","county":"","state":"","country":"KAZ"},"geometry":{"type":"Point","coordinates":[76.93627,43.2686]}},{"type":"Feature","properties":{"recId":"","facility_type_desc":"Pharmacy","seqLength":"","poi_name":"Sante Group Greenovea","houseNumber":"","street":"Петр Чайковский","street_type":"көшесі","city":"","phone_numbers":"[]","county":"","state":"","country":"KAZ"},"geometry":{"type":"Point","coordinates":[76.93626,43.26867]}},{"type":"Feature","properties":{"recId":"","facility_type_desc":"Pharmacy","seqLength":"","poi_name":"Däryhana","houseNumber":"","street":"","street_type":"","city":"","phone_numbers":"[]","county":"","state":"","country":"KAZ"},"geometry":{"type":"Point","coordinates":[76.8709,43.2481]}},{"type":"Feature","properties":{"recId":"","facility_type_desc":"Pharmacy","seqLength":"","poi_name":"Däryhana","houseNumber":"","street":"Мұқағали Мақатаев","street_type":"көшесі","city":"","phone_numbers":"[]","county":"","state":"","country":"KAZ"},"geometry":{"type":"Point","coordinates":[76.9151,43.26188]}},{"type":"Feature","properties":{"recId":"","facility_type_desc":"Pharmacy","seqLength":"","poi_name":"Apteka","houseNumber":"","street":"Абай","street_type":"көшесі","city":"","phone_numbers":"[]","county":"","state":"","country":"KAZ"},"geometry":{"type":"Point","coordinates":[76.83466,43.21582]}},{"type":"Feature","properties":{"recId":"","facility_type_desc":"Pharmacy","seqLength":"","poi_name":"Däryhana","houseNumber":"","street":"Тұрар Рысқұлов","street_type":"даңғылы","city":"","phone_numbers":"[]","county":"","state":"","country":"KAZ"},"geometry":{"type":"Point","coordinates":[76.87093,43.26696]}},{"type":"Feature","properties":{"recId":"","facility_type_desc":"Pharmacy","seqLength":"","poi_name":"Däryhana","houseNumber":"","street":"Бұрабайұлы","street_type":"көшесі","city":"","phone_numbers":"[]","county":"","state":"","country":"KAZ"},"geometry":{"type":"Point","coordinates":[77.01133,43.28268]}},{"type":"Feature","properties":{"recId":"","facility_type_desc":"Pharmacy","seqLength":"","poi_name":"Däryhana","houseNumber":"","street":"Жұмақан Күдерин","street_type":"көшесі","city":"","phone_numbers":"[]","county":"","state":"","country":"KAZ"},"geometry":{"type":"Point","coordinates":[76.88668,43.26137]}},{"type":"Feature","properties":{"recId":"","facility_type_desc":"Pharmacy","seqLength":"","poi_name":"Däryhana","houseNumber":"","street":"Шухов","street_type":"көшесі","city":"","phone_numbers":"[]","county":"","state":"","country":"KAZ"},"geometry":{"type":"Point","coordinates":[76.9827,43.27564]}},{"type":"Feature","properties":{"recId":"","facility_type_desc":"Pharmacy","seqLength":"","poi_name":"Mar'yam","houseNumber":"","street":"Айнабұлақ-4","street_type":"шағын ауданы","city":"","phone_numbers":"[]","county":"","state":"","country":"KAZ"},"geometry":{"type":"Point","coordinates":[76.9136,43.32399]}},{"type":"Feature","properties":{"recId":"","facility_type_desc":"Pharmacy","seqLength":"","poi_name":"Biosfera","houseNumber":27,"street":"Ақан Сері","street_type":"көшесі","city":"","phone_numbers":"[\"727-2431818\"]","county":"","state":"","country":"KAZ"},"geometry":{"type":"Point","coordinates":[76.94997,43.32743]}},{"type":"Feature","properties":{"recId":"","facility_type_desc":"Pharmacy","seqLength":"","poi_name":"Tochka","houseNumber":"","street":"","street_type":"","city":"","phone_numbers":"[]","county":"","state":"","country":"KAZ"},"geometry":{"type":"Point","coordinates":[76.93365,43.2315]}},{"type":"Feature","properties":{"recId":"","facility_type_desc":"Pharmacy","seqLength":"","poi_name":"Takeda","houseNumber":44,"street":"Зеина Шашкина","street_type":"улица","city":"","phone_numbers":"[\"727-2444004\",\"727-2444005\"]","county":"","state":"","country":"KAZ"},"geometry":{"type":"Point","coordinates":[76.93952,43.21901]}},{"type":"Feature","properties":{"recId":"","facility_type_desc":"Pharmacy","seqLength":"","poi_name":"Däryhana","houseNumber":"","street":"Рамазан Сүлейменов","street_type":"көшесі","city":"","phone_numbers":"[]","county":"","state":"","country":"KAZ"},"geometry":{"type":"Point","coordinates":[76.87804,43.21088]}},{"type":"Feature","properties":{"recId":"","facility_type_desc":"Pharmacy","seqLength":"","poi_name":"Däryhana","houseNumber":155,"street":"Тұрар Рысқұлов","street_type":"даңғылы","city":"","phone_numbers":"[]","county":"","state":"","country":"KAZ"},"geometry":{"type":"Point","coordinates":[76.83744,43.24886]}},{"type":"Feature","properties":{"recId":"","facility_type_desc":"Pharmacy","seqLength":"","poi_name":"Däryhana","houseNumber":"","street":"Дүнген","street_type":"көшесі","city":"","phone_numbers":"[]","county":"","state":"","country":"KAZ"},"geometry":{"type":"Point","coordinates":[76.88518,43.28445]}},{"type":"Feature","properties":{"recId":"","facility_type_desc":"Pharmacy","seqLength":"","poi_name":"Apteka. Com","houseNumber":"","street":"13-ші Әскери Қалашық","street_type":"көшесі","city":"","phone_numbers":"[\"727-2448448\"]","county":"","state":"","country":"KAZ"},"geometry":{"type":"Point","coordinates":[76.99262,43.37753]}},{"type":"Feature","properties":{"recId":"","facility_type_desc":"Pharmacy","seqLength":"","poi_name":"Däryhana","houseNumber":"","street":"Тастақ-3","street_type":"","city":"","phone_numbers":"[]","county":"","state":"","country":"KAZ"},"geometry":{"type":"Point","coordinates":[76.88004,43.25542]}},{"type":"Feature","properties":{"recId":"","facility_type_desc":"Pharmacy","seqLength":"","poi_name":"Däryhana","houseNumber":"","street":"Ақши Қойшыманов","street_type":"көшесі","city":"","phone_numbers":"[]","county":"","state":"","country":"KAZ"},"geometry":{"type":"Point","coordinates":[76.86363,43.21729]}},{"type":"Feature","properties":{"recId":"","facility_type_desc":"Pharmacy","seqLength":"","poi_name":"Däryhana","houseNumber":63,"street":"Түркебаев","street_type":"көшесі","city":"","phone_numbers":"[]","county":"","state":"","country":"KAZ"},"geometry":{"type":"Point","coordinates":[76.87826,43.2519]}},{"type":"Feature","properties":{"recId":"","facility_type_desc":"Pharmacy","seqLength":"","poi_name":"Nurmax Group","houseNumber":"","street":"Тайторы Батыр","street_type":"көшесі","city":"","phone_numbers":"[]","county":"","state":"","country":"KAZ"},"geometry":{"type":"Point","coordinates":[76.82065,43.22279]}},{"type":"Feature","properties":{"recId":"","facility_type_desc":"Pharmacy","seqLength":"","poi_name":"Gold Mercury","houseNumber":2,"street":"Оренбургская","street_type":"улица","city":"","phone_numbers":"[\"727-2345872\"]","county":"","state":"","country":"KAZ"},"geometry":{"type":"Point","coordinates":[76.97641,43.27429]}},{"type":"Feature","properties":{"recId":"","facility_type_desc":"Pharmacy","seqLength":"","poi_name":"Däryhana","houseNumber":"","street":"","street_type":"","city":"","phone_numbers":"[]","county":"","state":"","country":"KAZ"},"geometry":{"type":"Point","coordinates":[76.92904,43.35115]}},{"type":"Feature","properties":{"recId":"","facility_type_desc":"Pharmacy","seqLength":"","poi_name":"Ak-Kayin","houseNumber":"","street":"Сәкен Сейфуллин","street_type":"даңғылы","city":"","phone_numbers":"[\"727-3791109\",\"727-3791144\"]","county":"","state":"","country":"KAZ"},"geometry":{"type":"Point","coordinates":[76.93315,43.25149]}},{"type":"Feature","properties":{"recId":"","facility_type_desc":"Pharmacy","seqLength":"","poi_name":"Apteka Magiya","houseNumber":55,"street":"Жібек Жолы","street_type":"көшесі","city":"","phone_numbers":"[\"727-2736079\"]","county":"","state":"","country":"KAZ"},"geometry":{"type":"Point","coordinates":[76.95391,43.26259]}},{"type":"Feature","properties":{"recId":"","facility_type_desc":"Pharmacy","seqLength":"","poi_name":"Däryhana","houseNumber":"","street":"Жібек Жолы","street_type":"көшесі","city":"","phone_numbers":"[]","county":"","state":"","country":"KAZ"},"geometry":{"type":"Point","coordinates":[76.95391,43.26259]}},{"type":"Feature","properties":{"recId":"","facility_type_desc":"Pharmacy","seqLength":"","poi_name":"Däryhana","houseNumber":"","street":"Тайыр Жароков","street_type":"көшесі","city":"","phone_numbers":"[]","county":"","state":"","country":"KAZ"},"geometry":{"type":"Point","coordinates":[76.9016,43.22252]}},{"type":"Feature","properties":{"recId":"","facility_type_desc":"Pharmacy","seqLength":"","poi_name":"Aqbulaq","houseNumber":18,"street":"Баян батыр","street_type":"көшесі","city":"","phone_numbers":"[]","county":"","state":"","country":"KAZ"},"geometry":{"type":"Point","coordinates":[76.83077,43.24754]}},{"type":"Feature","properties":{"recId":"","facility_type_desc":"Pharmacy","seqLength":"","poi_name":"Biosfera","houseNumber":"","street":"Ыбырай Алтынсарин","street_type":"даңғылы","city":"","phone_numbers":"[]","county":"","state":"","country":"KAZ"},"geometry":{"type":"Point","coordinates":[76.87212,43.21992]}},{"type":"Feature","properties":{"recId":"","facility_type_desc":"Pharmacy","seqLength":"","poi_name":"Ayro","houseNumber":"","street":"Николай Чернышевский","street_type":"көшесі","city":"","phone_numbers":"[]","county":"","state":"","country":"KAZ"},"geometry":{"type":"Point","coordinates":[76.95254,43.32969]}},{"type":"Feature","properties":{"recId":"","facility_type_desc":"Pharmacy","seqLength":"","poi_name":"Däryhana","houseNumber":"","street":"Мамыр-2","street_type":"шағын ауданы","city":"","phone_numbers":"[]","county":"","state":"","country":"KAZ"},"geometry":{"type":"Point","coordinates":[76.85128,43.21205]}},{"type":"Feature","properties":{"recId":"","facility_type_desc":"Pharmacy","seqLength":"","poi_name":"Biosfera","houseNumber":"","street":"","street_type":"","city":"","phone_numbers":"[]","county":"","state":"","country":"KAZ"},"geometry":{"type":"Point","coordinates":[76.86512,43.22927]}},{"type":"Feature","properties":{"recId":"","facility_type_desc":"Pharmacy","seqLength":"","poi_name":"Evrodäryhanasi","houseNumber":"","street":"","street_type":"","city":"","phone_numbers":"[]","county":"","state":"","country":"KAZ"},"geometry":{"type":"Point","coordinates":[76.86517,43.22931]}},{"type":"Feature","properties":{"recId":"","facility_type_desc":"Pharmacy","seqLength":"","poi_name":"Europharma","houseNumber":"","street":"","street_type":"","city":"","phone_numbers":"[]","county":"","state":"","country":"KAZ"},"geometry":{"type":"Point","coordinates":[76.89778,43.23976]}},{"type":"Feature","properties":{"recId":"","facility_type_desc":"Pharmacy","seqLength":"","poi_name":"S-Pharma","houseNumber":"","street":"","street_type":"","city":"","phone_numbers":"[]","county":"","state":"","country":"KAZ"},"geometry":{"type":"Point","coordinates":[76.88451,43.25853]}},{"type":"Feature","properties":{"recId":"","facility_type_desc":"Pharmacy","seqLength":"","poi_name":"Däryhana","houseNumber":"","street":"","street_type":"","city":"","phone_numbers":"[]","county":"","state":"","country":"KAZ"},"geometry":{"type":"Point","coordinates":[76.88451,43.25853]}},{"type":"Feature","properties":{"recId":"","facility_type_desc":"Pharmacy","seqLength":"","poi_name":"Smile Dent","houseNumber":"","street":"Айнабұлақ-3","street_type":"шағын ауданы","city":"","phone_numbers":"[]","county":"","state":"","country":"KAZ"},"geometry":{"type":"Point","coordinates":[76.92327,43.32584]}},{"type":"Feature","properties":{"recId":"","facility_type_desc":"Pharmacy","seqLength":"","poi_name":"Transatlantik Almati","houseNumber":"","street":"Әл-Фараби","street_type":"даңғылы","city":"","phone_numbers":"[]","county":"","state":"","country":"KAZ"},"geometry":{"type":"Point","coordinates":[76.94616,43.22906]}},{"type":"Feature","properties":{"recId":"","facility_type_desc":"Pharmacy","seqLength":"","poi_name":"Turksib","houseNumber":59,"street":"Оспанов","street_type":"көшесі","city":"","phone_numbers":"[]","county":"","state":"","country":"KAZ"},"geometry":{"type":"Point","coordinates":[76.97347,43.19567]}},{"type":"Feature","properties":{"recId":"","facility_type_desc":"Pharmacy","seqLength":"","poi_name":"Däryhana","houseNumber":"","street":"Ақсай-5","street_type":"шағын ауданы","city":"","phone_numbers":"[]","county":"","state":"","country":"KAZ"},"geometry":{"type":"Point","coordinates":[76.83425,43.22665]}},{"type":"Feature","properties":{"recId":"","facility_type_desc":"Pharmacy","seqLength":"","poi_name":"Apteka. Com","houseNumber":"","street":"Ақсай-5","street_type":"шағын ауданы","city":"","phone_numbers":"[\"727-2448448\"]","county":"","state":"","country":"KAZ"},"geometry":{"type":"Point","coordinates":[76.83425,43.22665]}},{"type":"Feature","properties":{"recId":"","facility_type_desc":"Pharmacy","seqLength":"","poi_name":"Health Kz","houseNumber":"","street":"","street_type":"","city":"","phone_numbers":"[]","county":"","state":"","country":"KAZ"},"geometry":{"type":"Point","coordinates":[76.89395,43.22855]}},{"type":"Feature","properties":{"recId":"","facility_type_desc":"Pharmacy","seqLength":"","poi_name":"Asc Farm Kazakhstan","houseNumber":"","street":"","street_type":"","city":"","phone_numbers":"[]","county":"","state":"","country":"KAZ"},"geometry":{"type":"Point","coordinates":[76.90453,43.23855]}},{"type":"Feature","properties":{"recId":"","facility_type_desc":"Pharmacy","seqLength":"","poi_name":"Komplit Farma","houseNumber":"","street":"","street_type":"","city":"","phone_numbers":"[]","county":"","state":"","country":"KAZ"},"geometry":{"type":"Point","coordinates":[76.90474,43.23859]}},{"type":"Feature","properties":{"recId":"","facility_type_desc":"Pharmacy","seqLength":"","poi_name":"Däryhana","houseNumber":"","street":"Таугүл-1","street_type":"шағын ауданы","city":"","phone_numbers":"[]","county":"","state":"","country":"KAZ"},"geometry":{"type":"Point","coordinates":[76.88126,43.21234]}},{"type":"Feature","properties":{"recId":"","facility_type_desc":"Pharmacy","seqLength":"","poi_name":"Aurika","houseNumber":45,"street":"2-ші","street_type":"шағын аудан","city":"","phone_numbers":"[]","county":"","state":"","country":"KAZ"},"geometry":{"type":"Point","coordinates":[76.85854,43.23177]}},{"type":"Feature","properties":{"recId":"","facility_type_desc":"Pharmacy","seqLength":"","poi_name":"Apteka. Com","houseNumber":"","street":"Ақсай-4","street_type":"шағын ауданы","city":"","phone_numbers":"[\"727-2448448\"]","county":"","state":"","country":"KAZ"},"geometry":{"type":"Point","coordinates":[76.8408,43.22599]}},{"type":"Feature","properties":{"recId":"","facility_type_desc":"Pharmacy","seqLength":"","poi_name":"Shashkina Kösh Däryhanasi","houseNumber":21,"street":"Зейін Шашкин","street_type":"көшесі","city":"","phone_numbers":"[]","county":"","state":"","country":"KAZ"},"geometry":{"type":"Point","coordinates":[76.93514,43.22105]}},{"type":"Feature","properties":{"recId":"","facility_type_desc":"Pharmacy","seqLength":"","poi_name":"Al-Madat Däryhanasi","houseNumber":"","street":"Түргүт Озал","street_type":"көшесі","city":"","phone_numbers":"[]","county":"","state":"","country":"KAZ"},"geometry":{"type":"Point","coordinates":[76.8831,43.23544]}},{"type":"Feature","properties":{"recId":"","facility_type_desc":"Pharmacy","seqLength":"","poi_name":"Sadihan","houseNumber":241,"street":"Түргүт Озал","street_type":"көшесі","city":"","phone_numbers":"[]","county":"","state":"","country":"KAZ"},"geometry":{"type":"Point","coordinates":[76.88308,43.23559]}},{"type":"Feature","properties":{"recId":"","facility_type_desc":"Pharmacy","seqLength":"","poi_name":"Pharmacom","houseNumber":"","street":"Николай Гоголь","street_type":"көшесі","city":"","phone_numbers":"[]","county":"","state":"","country":"KAZ"},"geometry":{"type":"Point","coordinates":[76.95989,43.26094]}},{"type":"Feature","properties":{"recId":"","facility_type_desc":"Pharmacy","seqLength":"","poi_name":"Kefar Kenes Farma","houseNumber":"","street":"","street_type":"","city":"","phone_numbers":"[]","county":"","state":"","country":"KAZ"},"geometry":{"type":"Point","coordinates":[76.95134,43.26868]}},{"type":"Feature","properties":{"recId":"","facility_type_desc":"Pharmacy","seqLength":"","poi_name":"Zaman","houseNumber":"","street":"","street_type":"","city":"","phone_numbers":"[]","county":"","state":"","country":"KAZ"},"geometry":{"type":"Point","coordinates":[76.95134,43.26868]}},{"type":"Feature","properties":{"recId":"","facility_type_desc":"Pharmacy","seqLength":"","poi_name":"Arifar","houseNumber":"","street":"","street_type":"","city":"","phone_numbers":"[]","county":"","state":"","country":"KAZ"},"geometry":{"type":"Point","coordinates":[76.95117,43.26867]}},{"type":"Feature","properties":{"recId":"","facility_type_desc":"Pharmacy","seqLength":"","poi_name":"Argo","houseNumber":"","street":"","street_type":"","city":"","phone_numbers":"[]","county":"","state":"","country":"KAZ"},"geometry":{"type":"Point","coordinates":[76.90421,43.24162]}},{"type":"Feature","properties":{"recId":"","facility_type_desc":"Pharmacy","seqLength":"","poi_name":"Farmakom","houseNumber":"","street":"","street_type":"","city":"","phone_numbers":"[\"727-3322746\"]","county":"","state":"","country":"KAZ"},"geometry":{"type":"Point","coordinates":[76.95941,43.22833]}},{"type":"Feature","properties":{"recId":"","facility_type_desc":"Pharmacy","seqLength":"","poi_name":"Däryhana","houseNumber":18,"street":"Ақсай-1А","street_type":"шағын ауданы","city":"","phone_numbers":"[]","county":"","state":"","country":"KAZ"},"geometry":{"type":"Point","coordinates":[76.82592,43.24155]}},{"type":"Feature","properties":{"recId":"","facility_type_desc":"Pharmacy","seqLength":"","poi_name":"Däryhana","houseNumber":"","street":"Баянауыл","street_type":"көшесі","city":"","phone_numbers":"[]","county":"","state":"","country":"KAZ"},"geometry":{"type":"Point","coordinates":[76.9574,43.28702]}},{"type":"Feature","properties":{"recId":"","facility_type_desc":"Pharmacy","seqLength":"","poi_name":"Sanitas","houseNumber":"","street":"Никифор Ахрименко","street_type":"көшесі","city":"","phone_numbers":"[]","county":"","state":"","country":"KAZ"},"geometry":{"type":"Point","coordinates":[76.84283,43.25973]}},{"type":"Feature","properties":{"recId":"","facility_type_desc":"Pharmacy","seqLength":"","poi_name":"Zina","houseNumber":"","street":"Никифор Ахрименко","street_type":"көшесі","city":"","phone_numbers":"[]","county":"","state":"","country":"KAZ"},"geometry":{"type":"Point","coordinates":[76.84283,43.2597]}},{"type":"Feature","properties":{"recId":"","facility_type_desc":"Pharmacy","seqLength":"","poi_name":"Aydake-Farm Dobraya","houseNumber":"","street":"Орбита-4","street_type":"шағын ауданы","city":"","phone_numbers":"[\"727-2650803\"]","county":"","state":"","country":"KAZ"},"geometry":{"type":"Point","coordinates":[76.88066,43.19679]}},{"type":"Feature","properties":{"recId":"","facility_type_desc":"Pharmacy","seqLength":"","poi_name":"Däryhana","houseNumber":"","street":"Ғапар Айтиев","street_type":"көшесі","city":"","phone_numbers":"[]","county":"","state":"","country":"KAZ"},"geometry":{"type":"Point","coordinates":[76.90464,43.25239]}},{"type":"Feature","properties":{"recId":"","facility_type_desc":"Pharmacy","seqLength":"","poi_name":"Däryhana","houseNumber":"","street":"Сұлтан Байсұлтанов","street_type":"көшесі","city":"","phone_numbers":"[]","county":"","state":"","country":"KAZ"},"geometry":{"type":"Point","coordinates":[76.8071,43.19115]}},{"type":"Feature","properties":{"recId":"","facility_type_desc":"Pharmacy","seqLength":"","poi_name":"Sadihan","houseNumber":"","street":"","street_type":"","city":"","phone_numbers":"[]","county":"","state":"","country":"KAZ"},"geometry":{"type":"Point","coordinates":[76.90029,43.23558]}},{"type":"Feature","properties":{"recId":"","facility_type_desc":"Pharmacy","seqLength":"","poi_name":"Bud' Zdorov","houseNumber":"","street":"","street_type":"","city":"","phone_numbers":"[]","county":"","state":"","country":"KAZ"},"geometry":{"type":"Point","coordinates":[76.90034,43.23558]}},{"type":"Feature","properties":{"recId":"","facility_type_desc":"Pharmacy","seqLength":"","poi_name":"Forte","houseNumber":"","street":"","street_type":"","city":"","phone_numbers":"[\"727-2601423\"]","county":"","state":"","country":"KAZ"},"geometry":{"type":"Point","coordinates":[76.92208,43.24129]}},{"type":"Feature","properties":{"recId":"","facility_type_desc":"Pharmacy","seqLength":"","poi_name":"Set' Aptek","houseNumber":58,"street":"Кокжиек","street_type":"микрорайон","city":"","phone_numbers":"[\"727-3516386\"]","county":"","state":"","country":"KAZ"},"geometry":{"type":"Point","coordinates":[76.92089,43.35553]}},{"type":"Feature","properties":{"recId":"","facility_type_desc":"Pharmacy","seqLength":"","poi_name":"Sinapharm International","houseNumber":"","street":"","street_type":"","city":"","phone_numbers":"[]","county":"","state":"","country":"KAZ"},"geometry":{"type":"Point","coordinates":[76.94241,43.27199]}},{"type":"Feature","properties":{"recId":"","facility_type_desc":"Pharmacy","seqLength":"","poi_name":"Däryhana","houseNumber":"","street":"Сайын","street_type":"көшесі","city":"","phone_numbers":"[]","county":"","state":"","country":"KAZ"},"geometry":{"type":"Point","coordinates":[76.84387,43.2293]}},{"type":"Feature","properties":{"recId":"","facility_type_desc":"Pharmacy","seqLength":"","poi_name":"Däryhana","houseNumber":"","street":"Волочаевск","street_type":"көшесі","city":"","phone_numbers":"[]","county":"","state":"","country":"KAZ"},"geometry":{"type":"Point","coordinates":[76.97296,43.29587]}},{"type":"Feature","properties":{"recId":"","facility_type_desc":"Pharmacy","seqLength":"","poi_name":"Däryhana","houseNumber":"","street":"Әбдіразақ Елібаев","street_type":"көшесі","city":"","phone_numbers":"[]","county":"","state":"","country":"KAZ"},"geometry":{"type":"Point","coordinates":[76.80584,43.2131]}},{"type":"Feature","properties":{"recId":"","facility_type_desc":"Pharmacy","seqLength":"","poi_name":"Däryhana","houseNumber":2,"street":"12-ші","street_type":"шағын аудан","city":"","phone_numbers":"[]","county":"","state":"","country":"KAZ"},"geometry":{"type":"Point","coordinates":[76.86466,43.21845]}},{"type":"Feature","properties":{"recId":"","facility_type_desc":"Pharmacy","seqLength":"","poi_name":"Shans","houseNumber":"","street":"","street_type":"","city":"","phone_numbers":"[]","county":"","state":"","country":"KAZ"},"geometry":{"type":"Point","coordinates":[76.8976,43.21955]}},{"type":"Feature","properties":{"recId":"","facility_type_desc":"Pharmacy","seqLength":"","poi_name":"Ekonom'","houseNumber":"","street":"Ақсай-3","street_type":"шағын ауданы","city":"","phone_numbers":"[]","county":"","state":"","country":"KAZ"},"geometry":{"type":"Point","coordinates":[76.82851,43.23817]}},{"type":"Feature","properties":{"recId":"","facility_type_desc":"Pharmacy","seqLength":"","poi_name":"Däryhana","houseNumber":"","street":"Лавренев","street_type":"көшесі","city":"","phone_numbers":"[]","county":"","state":"","country":"KAZ"},"geometry":{"type":"Point","coordinates":[76.98404,43.34202]}},{"type":"Feature","properties":{"recId":"","facility_type_desc":"Pharmacy","seqLength":"","poi_name":"Däryhana","houseNumber":40,"street":"Ақкент","street_type":"шағын ауданы","city":"","phone_numbers":"[]","county":"","state":"","country":"KAZ"},"geometry":{"type":"Point","coordinates":[76.81376,43.24288]}},{"type":"Feature","properties":{"recId":"","facility_type_desc":"Pharmacy","seqLength":"","poi_name":"Däryhana","houseNumber":"","street":"Малая Саина","street_type":"көшесі","city":"","phone_numbers":"[]","county":"","state":"","country":"KAZ"},"geometry":{"type":"Point","coordinates":[76.84525,43.2302]}},{"type":"Feature","properties":{"recId":"","facility_type_desc":"Pharmacy","seqLength":"","poi_name":"Däryhana","houseNumber":"","street":"Абай","street_type":"даңғылы","city":"","phone_numbers":"[]","county":"","state":"","country":"KAZ"},"geometry":{"type":"Point","coordinates":[76.91415,43.24011]}},{"type":"Feature","properties":{"recId":"","facility_type_desc":"Pharmacy","seqLength":"","poi_name":"Däryhana","houseNumber":"","street":"Олимпийский","street_type":"көшесі","city":"","phone_numbers":"[]","county":"","state":"","country":"KAZ"},"geometry":{"type":"Point","coordinates":[76.96703,43.19131]}},{"type":"Feature","properties":{"recId":"","facility_type_desc":"Pharmacy","seqLength":"","poi_name":"Däryhana","houseNumber":"","street":"Райымбек","street_type":"даңғылы","city":"","phone_numbers":"[]","county":"","state":"","country":"KAZ"},"geometry":{"type":"Point","coordinates":[76.85384,43.25104]}},{"type":"Feature","properties":{"recId":"","facility_type_desc":"Pharmacy","seqLength":"","poi_name":"Däryhana","houseNumber":"","street":"Жібек Жолы","street_type":"көшесі","city":"","phone_numbers":"[]","county":"","state":"","country":"KAZ"},"geometry":{"type":"Point","coordinates":[76.94685,43.26227]}},{"type":"Feature","properties":{"recId":"","facility_type_desc":"Pharmacy","seqLength":"","poi_name":"Däryhana","houseNumber":73,"street":"Северное кольцо","street_type":"көшесі","city":"","phone_numbers":"[]","county":"","state":"","country":"KAZ"},"geometry":{"type":"Point","coordinates":[76.92454,43.35096]}},{"type":"Feature","properties":{"recId":"","facility_type_desc":"Pharmacy","seqLength":"","poi_name":"Pilyul'ka","houseNumber":"","street":"Спартак","street_type":"көшесі","city":"","phone_numbers":"[]","county":"","state":"","country":"KAZ"},"geometry":{"type":"Point","coordinates":[76.94814,43.33411]}},{"type":"Feature","properties":{"recId":"","facility_type_desc":"Pharmacy","seqLength":"","poi_name":"As Med","houseNumber":"","street":"Көктем-1","street_type":"шағын ауданы","city":"","phone_numbers":"[\"727-3774102\"]","county":"","state":"","country":"KAZ"},"geometry":{"type":"Point","coordinates":[76.92507,43.22871]}},{"type":"Feature","properties":{"recId":"","facility_type_desc":"Pharmacy","seqLength":"","poi_name":"Däryhana","houseNumber":"","street":"Көктем-3","street_type":"шағын ауданы","city":"","phone_numbers":"[]","county":"","state":"","country":"KAZ"},"geometry":{"type":"Point","coordinates":[76.91809,43.23319]}},{"type":"Feature","properties":{"recId":"","facility_type_desc":"Pharmacy","seqLength":"","poi_name":"Däryhana","houseNumber":"","street":"Дінмұхамед Қонаев","street_type":"көшесі","city":"","phone_numbers":"[]","county":"","state":"","country":"KAZ"},"geometry":{"type":"Point","coordinates":[76.83139,43.19271]}},{"type":"Feature","properties":{"recId":"","facility_type_desc":"Pharmacy","seqLength":"","poi_name":"Europharma","houseNumber":"","street":"Төле Би","street_type":"көшесі","city":"","phone_numbers":"[]","county":"","state":"","country":"KAZ"},"geometry":{"type":"Point","coordinates":[76.85228,43.245]}},{"type":"Feature","properties":{"recId":"","facility_type_desc":"Pharmacy","seqLength":"","poi_name":"Firma Adonis","houseNumber":81,"street":"Николай Гастелло","street_type":"көшесі","city":"","phone_numbers":"[\"727-2785340\",\"727-2909025\"]","county":"","state":"","country":"KAZ"},"geometry":{"type":"Point","coordinates":[76.95889,43.28855]}},{"type":"Feature","properties":{"recId":"","facility_type_desc":"Pharmacy","seqLength":"","poi_name":"Däryhana","houseNumber":"","street":"Николай Гастелло","street_type":"көшесі","city":"","phone_numbers":"[]","county":"","state":"","country":"KAZ"},"geometry":{"type":"Point","coordinates":[76.95887,43.28841]}},{"type":"Feature","properties":{"recId":"","facility_type_desc":"Pharmacy","seqLength":"","poi_name":"Däryhana","houseNumber":"","street":"Шамиева","street_type":"көшесі","city":"","phone_numbers":"[]","county":"","state":"","country":"KAZ"},"geometry":{"type":"Point","coordinates":[76.9273,43.28315]}},{"type":"Feature","properties":{"recId":"","facility_type_desc":"Pharmacy","seqLength":"","poi_name":"Antfarma","houseNumber":"","street":"Иван Сеченов","street_type":"көшесі","city":"","phone_numbers":"[]","county":"","state":"","country":"KAZ"},"geometry":{"type":"Point","coordinates":[76.89616,43.21441]}},{"type":"Feature","properties":{"recId":"","facility_type_desc":"Pharmacy","seqLength":"","poi_name":"Däryhana","houseNumber":"","street":"Ұлықбек","street_type":"даңғылы","city":"","phone_numbers":"[]","county":"","state":"","country":"KAZ"},"geometry":{"type":"Point","coordinates":[76.84381,43.2263]}},{"type":"Feature","properties":{"recId":"","facility_type_desc":"Pharmacy","seqLength":"","poi_name":"Däryhana","houseNumber":"","street":"Мамыр-2","street_type":"шағын ауданы","city":"","phone_numbers":"[]","county":"","state":"","country":"KAZ"},"geometry":{"type":"Point","coordinates":[76.85078,43.21503]}},{"type":"Feature","properties":{"recId":"","facility_type_desc":"Pharmacy","seqLength":"","poi_name":"Interfarma-Medika Apteka","houseNumber":"","street":"Құрманғазы","street_type":"көшесі","city":"","phone_numbers":"[\"727-2779000\",\"727-2779707\",\"727-2779777\"]","county":"","state":"","country":"KAZ"},"geometry":{"type":"Point","coordinates":[76.90218,43.24141]}},{"type":"Feature","properties":{"recId":"","facility_type_desc":"Pharmacy","seqLength":"","poi_name":"Däryhana","houseNumber":"","street":"Көкжиек","street_type":"шағын ауданы","city":"","phone_numbers":"[]","county":"","state":"","country":"KAZ"},"geometry":{"type":"Point","coordinates":[76.9182,43.35617]}},{"type":"Feature","properties":{"recId":"","facility_type_desc":"Pharmacy","seqLength":"","poi_name":"Däryhana","houseNumber":16,"street":"Бенберин","street_type":"көшесі","city":"","phone_numbers":"[]","county":"","state":"","country":"KAZ"},"geometry":{"type":"Point","coordinates":[76.8452,43.27456]}},{"type":"Feature","properties":{"recId":"","facility_type_desc":"Pharmacy","seqLength":"","poi_name":"Däryhana","houseNumber":"","street":"Радостовец","street_type":"көшесі","city":"","phone_numbers":"[]","county":"","state":"","country":"KAZ"},"geometry":{"type":"Point","coordinates":[76.89083,43.2481]}},{"type":"Feature","properties":{"recId":"","facility_type_desc":"Pharmacy","seqLength":"","poi_name":"Aptechniy Dom","houseNumber":"","street":"Сәкен Сейфуллин","street_type":"даңғылы","city":"","phone_numbers":"[]","county":"","state":"","country":"KAZ"},"geometry":{"type":"Point","coordinates":[76.9361,43.28225]}},{"type":"Feature","properties":{"recId":"","facility_type_desc":"Pharmacy","seqLength":"","poi_name":"Rauza-Ade","houseNumber":"","street":"Орбита-2","street_type":"шағын ауданы","city":"","phone_numbers":"[\"727-2657881\"]","county":"","state":"","country":"KAZ"},"geometry":{"type":"Point","coordinates":[76.88674,43.19818]}},{"type":"Feature","properties":{"recId":"","facility_type_desc":"Pharmacy","seqLength":"","poi_name":"Däryhana","houseNumber":"","street":"Дінмұхамед Қонаев","street_type":"көшесі","city":"","phone_numbers":"[]","county":"","state":"","country":"KAZ"},"geometry":{"type":"Point","coordinates":[76.83338,43.19367]}},{"type":"Feature","properties":{"recId":"","facility_type_desc":"Pharmacy","seqLength":"","poi_name":"Däryhana","houseNumber":"","street":"Байқадамов","street_type":"көшесі","city":"","phone_numbers":"[]","county":"","state":"","country":"KAZ"},"geometry":{"type":"Point","coordinates":[76.8902,43.21361]}},{"type":"Feature","properties":{"recId":"","facility_type_desc":"Pharmacy","seqLength":"","poi_name":"Däryhana","houseNumber":110,"street":"Желтоқсан","street_type":"көшесі","city":"","phone_numbers":"[]","county":"","state":"","country":"KAZ"},"geometry":{"type":"Point","coordinates":[76.93947,43.25679]}},{"type":"Feature","properties":{"recId":"","facility_type_desc":"Pharmacy","seqLength":"","poi_name":"Parasat Pharma Medical","houseNumber":"","street":"","street_type":"","city":"","phone_numbers":"[]","county":"","state":"","country":"KAZ"},"geometry":{"type":"Point","coordinates":[76.88514,43.23654]}},{"type":"Feature","properties":{"recId":"","facility_type_desc":"Pharmacy","seqLength":"","poi_name":"Däryhana","houseNumber":"","street":"","street_type":"","city":"","phone_numbers":"[]","county":"","state":"","country":"KAZ"},"geometry":{"type":"Point","coordinates":[76.84898,43.2187]}},{"type":"Feature","properties":{"recId":"","facility_type_desc":"Pharmacy","seqLength":"","poi_name":"Däryhana","houseNumber":"","street":"","street_type":"","city":"","phone_numbers":"[]","county":"","state":"","country":"KAZ"},"geometry":{"type":"Point","coordinates":[76.9496,43.27183]}},{"type":"Feature","properties":{"recId":"","facility_type_desc":"Pharmacy","seqLength":"","poi_name":"Däryhana","houseNumber":125,"street":"Ғани Мұратбаев","street_type":"көшесі","city":"","phone_numbers":"[]","county":"","state":"","country":"KAZ"},"geometry":{"type":"Point","coordinates":[76.9184,43.25549]}},{"type":"Feature","properties":{"recId":"","facility_type_desc":"Pharmacy","seqLength":"","poi_name":"Däryhana","houseNumber":"","street":"Әбділда Тәжібаев","street_type":"көшесі","city":"","phone_numbers":"[]","county":"","state":"","country":"KAZ"},"geometry":{"type":"Point","coordinates":[76.89241,43.20541]}},{"type":"Feature","properties":{"recId":"","facility_type_desc":"Pharmacy","seqLength":"","poi_name":"Sadihan","houseNumber":"","street":"Тастақ-3","street_type":"","city":"","phone_numbers":"[\"727-2234845\",\"727-3748081\"]","county":"","state":"","country":"KAZ"},"geometry":{"type":"Point","coordinates":[76.88611,43.25123]}},{"type":"Feature","properties":{"recId":"","facility_type_desc":"Pharmacy","seqLength":"","poi_name":"Däryhana","houseNumber":"","street":"Айнабұлақ-3","street_type":"шағын ауданы","city":"","phone_numbers":"[]","county":"","state":"","country":"KAZ"},"geometry":{"type":"Point","coordinates":[76.92297,43.32535]}},{"type":"Feature","properties":{"recId":"","facility_type_desc":"Pharmacy","seqLength":"","poi_name":"Zerde","houseNumber":"","street":"Ақсай-2","street_type":"шағын ауданы","city":"","phone_numbers":"[]","county":"","state":"","country":"KAZ"},"geometry":{"type":"Point","coordinates":[76.83368,43.23406]}},{"type":"Feature","properties":{"recId":"","facility_type_desc":"Pharmacy","seqLength":"","poi_name":"Däryhana","houseNumber":"","street":"Ақсай-2","street_type":"шағын ауданы","city":"","phone_numbers":"[]","county":"","state":"","country":"KAZ"},"geometry":{"type":"Point","coordinates":[76.83335,43.23388]}},{"type":"Feature","properties":{"recId":"","facility_type_desc":"Pharmacy","seqLength":"","poi_name":"Vita Pharma","houseNumber":"","street":"","street_type":"","city":"","phone_numbers":"[]","county":"","state":"","country":"KAZ"},"geometry":{"type":"Point","coordinates":[76.96219,43.26137]}},{"type":"Feature","properties":{"recId":"","facility_type_desc":"Pharmacy","seqLength":"","poi_name":"Farma Mir","houseNumber":"","street":"Көктем-3","street_type":"шағын ауданы","city":"","phone_numbers":"[\"727-2752577\"]","county":"","state":"","country":"KAZ"},"geometry":{"type":"Point","coordinates":[76.911,43.2355]}},{"type":"Feature","properties":{"recId":"","facility_type_desc":"Pharmacy","seqLength":"","poi_name":"Däryhana","houseNumber":"","street":"Немирович-Данченко","street_type":"көшесі","city":"","phone_numbers":"[]","county":"","state":"","country":"KAZ"},"geometry":{"type":"Point","coordinates":[76.86955,43.25979]}},{"type":"Feature","properties":{"recId":"","facility_type_desc":"Pharmacy","seqLength":"","poi_name":"Europharma","houseNumber":"","street":"Бектуров","street_type":"көшесі","city":"","phone_numbers":"[]","county":"","state":"","country":"KAZ"},"geometry":{"type":"Point","coordinates":[76.95369,43.23251]}},{"type":"Feature","properties":{"recId":"","facility_type_desc":"Pharmacy","seqLength":"","poi_name":"Alatau","houseNumber":35,"street":"Қазығұрт","street_type":"көшесі","city":"","phone_numbers":"[]","county":"","state":"","country":"KAZ"},"geometry":{"type":"Point","coordinates":[77.00286,43.27895]}},{"type":"Feature","properties":{"recId":"","facility_type_desc":"Pharmacy","seqLength":"","poi_name":"Däryhana","houseNumber":"","street":"Вокзальная","street_type":"көшесі","city":"","phone_numbers":"[]","county":"","state":"","country":"KAZ"},"geometry":{"type":"Point","coordinates":[76.93674,43.36781]}},{"type":"Feature","properties":{"recId":"","facility_type_desc":"Pharmacy","seqLength":"","poi_name":"Däryhana","houseNumber":"","street":"Метростроевская","street_type":"көшесі","city":"","phone_numbers":"[]","county":"","state":"","country":"KAZ"},"geometry":{"type":"Point","coordinates":[76.88214,43.26518]}},{"type":"Feature","properties":{"recId":"","facility_type_desc":"Pharmacy","seqLength":"","poi_name":"Sadihan","houseNumber":"","street":"Мамыр-2","street_type":"шағын ауданы","city":"","phone_numbers":"[]","county":"","state":"","country":"KAZ"},"geometry":{"type":"Point","coordinates":[76.84981,43.21167]}},{"type":"Feature","properties":{"recId":"","facility_type_desc":"Pharmacy","seqLength":"","poi_name":"Rauza-Ade","houseNumber":"","street":"Айнабұлақ-3","street_type":"шағын ауданы","city":"","phone_numbers":"[\"727-3852234\"]","county":"","state":"","country":"KAZ"},"geometry":{"type":"Point","coordinates":[76.91615,43.32205]}},{"type":"Feature","properties":{"recId":"","facility_type_desc":"Pharmacy","seqLength":"","poi_name":"Optima","houseNumber":"","street":"Айнабұлақ-3","street_type":"шағын ауданы","city":"","phone_numbers":"[]","county":"","state":"","country":"KAZ"},"geometry":{"type":"Point","coordinates":[76.91759,43.32111]}},{"type":"Feature","properties":{"recId":"","facility_type_desc":"Pharmacy","seqLength":"","poi_name":"Däryhana","houseNumber":"","street":"Ағаділ Сухамбаев","street_type":"көшесі","city":"","phone_numbers":"[]","county":"","state":"","country":"KAZ"},"geometry":{"type":"Point","coordinates":[76.81915,43.24278]}},{"type":"Feature","properties":{"recId":"","facility_type_desc":"Pharmacy","seqLength":"","poi_name":"Tsvetnaya","houseNumber":"","street":"","street_type":"","city":"","phone_numbers":"[]","county":"","state":"","country":"KAZ"},"geometry":{"type":"Point","coordinates":[76.96032,43.22938]}},{"type":"Feature","properties":{"recId":"","facility_type_desc":"Pharmacy","seqLength":"","poi_name":"Däryhana","houseNumber":9,"street":"Николая Огарёва","street_type":"улица","city":"","phone_numbers":"[\"727-3383421\"]","county":"","state":"","country":"KAZ"},"geometry":{"type":"Point","coordinates":[77.00675,43.34529]}},{"type":"Feature","properties":{"recId":"","facility_type_desc":"Pharmacy","seqLength":"","poi_name":"Alis Farm","houseNumber":40,"street":"Аккент","street_type":"микрорайон","city":"","phone_numbers":"[\"727-2467094\"]","county":"","state":"","country":"KAZ"},"geometry":{"type":"Point","coordinates":[76.81376,43.24288]}},{"type":"Feature","properties":{"recId":"","facility_type_desc":"Pharmacy","seqLength":"","poi_name":"Apteka. Com","houseNumber":40,"street":"Аккент","street_type":"микрорайон","city":"","phone_numbers":"[\"727-2448448\"]","county":"","state":"","country":"KAZ"},"geometry":{"type":"Point","coordinates":[76.81376,43.24288]}},{"type":"Feature","properties":{"recId":"","facility_type_desc":"Pharmacy","seqLength":"","poi_name":"Däryhana","houseNumber":"","street":"","street_type":"","city":"","phone_numbers":"[]","county":"","state":"","country":"KAZ"},"geometry":{"type":"Point","coordinates":[76.93096,43.24271]}},{"type":"Feature","properties":{"recId":"","facility_type_desc":"Pharmacy","seqLength":"","poi_name":"Rauza-Ade","houseNumber":"","street":"","street_type":"","city":"","phone_numbers":"[\"727-2206670\"]","county":"","state":"","country":"KAZ"},"geometry":{"type":"Point","coordinates":[76.88361,43.23616]}},{"type":"Feature","properties":{"recId":"","facility_type_desc":"Pharmacy","seqLength":"","poi_name":"Däryhana","houseNumber":"","street":"Абылай хан","street_type":"даңғылы","city":"","phone_numbers":"[\"727-2711834\"]","county":"","state":"","country":"KAZ"},"geometry":{"type":"Point","coordinates":[76.93936,43.27128]}},{"type":"Feature","properties":{"recId":"","facility_type_desc":"Pharmacy","seqLength":"","poi_name":"Däryhana","houseNumber":"","street":"Сәкен Сейфуллин","street_type":"даңғылы","city":"","phone_numbers":"[]","county":"","state":"","country":"KAZ"},"geometry":{"type":"Point","coordinates":[76.93421,43.24289]}},{"type":"Feature","properties":{"recId":"","facility_type_desc":"Pharmacy","seqLength":"","poi_name":"Akmaral","houseNumber":"","street":"Іле тракт","street_type":"көшесі","city":"","phone_numbers":"[]","county":"","state":"","country":"KAZ"},"geometry":{"type":"Point","coordinates":[77.0043,43.39241]}},{"type":"Feature","properties":{"recId":"","facility_type_desc":"Pharmacy","seqLength":"","poi_name":"Däryhana","houseNumber":"","street":"Райымбек","street_type":"даңғылы","city":"","phone_numbers":"[]","county":"","state":"","country":"KAZ"},"geometry":{"type":"Point","coordinates":[76.94747,43.27071]}},{"type":"Feature","properties":{"recId":"","facility_type_desc":"Pharmacy","seqLength":"","poi_name":"Däryhana","houseNumber":139,"street":"Казыбек би","street_type":"улица","city":"","phone_numbers":"[\"727-3850305\"]","county":"","state":"","country":"KAZ"},"geometry":{"type":"Point","coordinates":[76.91981,43.2548]}},