{"type":"FeatureCollection","features":[{"type":"Feature","properties":{"recId":"","facility_type_desc":"Residential Area/Building","seqLength":"","poi_name":"Zharqin 2 Turgin kesheny","houseNumber":"","street":"","street_type":"","city":"Nur-Sultan","phone_numbers":"","county":"","state":"","country":"KAZ"},"geometry":{"type":"Point","coordinates":[71.47307,51.16568]}},{"type":"Feature","properties":{"recId":"","facility_type_desc":"Residential Area/Building","seqLength":"","poi_name":"Altin Gasir Turgin Kesheny","houseNumber":"","street":"","street_type":"","city":"Nur-Sultan","phone_numbers":"","county":"","state":"","country":"KAZ"},"geometry":{"type":"Point","coordinates":[71.46632,51.1387]}},{"type":"Feature","properties":{"recId":"","facility_type_desc":"Residential Area/Building","seqLength":"","poi_name":"Amangeldi Turgin Kesheny","houseNumber":"","street":"","street_type":"","city":"Nur-Sultan","phone_numbers":"","county":"","state":"","country":"KAZ"},"geometry":{"type":"Point","coordinates":[71.45602,51.16067]}},{"type":"Feature","properties":{"recId":"","facility_type_desc":"Residential Area/Building","seqLength":"","poi_name":"Zhk Burlin-2","houseNumber":"","street":"","street_type":"","city":"Nur-Sultan","phone_numbers":"","county":"","state":"","country":"KAZ"},"geometry":{"type":"Point","coordinates":[71.40746,51.16675]}},{"type":"Feature","properties":{"recId":"","facility_type_desc":"Residential Area/Building","seqLength":"","poi_name":"Zhk AK Dala","houseNumber":"","street":"","street_type":"","city":"Nur-Sultan","phone_numbers":"","county":"","state":"","country":"KAZ"},"geometry":{"type":"Point","coordinates":[71.51136,51.15702]}},{"type":"Feature","properties":{"recId":"","facility_type_desc":"Residential Area/Building","seqLength":"","poi_name":"Zhetysu Tü","houseNumber":"","street":"Аманкелді Иманов","street_type":"көшесі","city":"Nur-Sultan","phone_numbers":"","county":"","state":"","country":"KAZ"},"geometry":{"type":"Point","coordinates":[71.44123,51.16428]}},{"type":"Feature","properties":{"recId":"","facility_type_desc":"Residential Area/Building","seqLength":"","poi_name":"Zhk Evropa Palas","houseNumber":"","street":"","street_type":"","city":"Nur-Sultan","phone_numbers":"","county":"","state":"","country":"KAZ"},"geometry":{"type":"Point","coordinates":[71.42542,51.12308]}},{"type":"Feature","properties":{"recId":"","facility_type_desc":"Residential Area/Building","seqLength":"","poi_name":"Zhk King Khaus","houseNumber":"","street":"","street_type":"","city":"Nur-Sultan","phone_numbers":"","county":"","state":"","country":"KAZ"},"geometry":{"type":"Point","coordinates":[71.38991,51.14716]}},{"type":"Feature","properties":{"recId":"","facility_type_desc":"Residential Area/Building","seqLength":"","poi_name":"Altin bosaga turgin kesheny","houseNumber":"","street":"Кенесары","street_type":"көшесі","city":"Nur-Sultan","phone_numbers":"","county":"","state":"","country":"KAZ"},"geometry":{"type":"Point","coordinates":[71.43508,51.16644]}},{"type":"Feature","properties":{"recId":"","facility_type_desc":"Residential Area/Building","seqLength":"","poi_name":"Zhk Akerke","houseNumber":"","street":"","street_type":"","city":"Nur-Sultan","phone_numbers":"","county":"","state":"","country":"KAZ"},"geometry":{"type":"Point","coordinates":[71.39418,51.16884]}},{"type":"Feature","properties":{"recId":"","facility_type_desc":"Residential Area/Building","seqLength":"","poi_name":"Egalit Turgin Kesheny","houseNumber":"","street":"","street_type":"","city":"Nur-Sultan","phone_numbers":"","county":"","state":"","country":"KAZ"},"geometry":{"type":"Point","coordinates":[71.46531,51.16317]}},{"type":"Feature","properties":{"recId":"","facility_type_desc":"Residential Area/Building","seqLength":"","poi_name":"Edem Palas Tü","houseNumber":"","street":"Луи Пастер","street_type":"көшесі","city":"Nur-Sultan","phone_numbers":"","county":"","state":"","country":"KAZ"},"geometry":{"type":"Point","coordinates":[71.43489,51.16739]}},{"type":"Feature","properties":{"recId":"","facility_type_desc":"Residential Area/Building","seqLength":"","poi_name":"Zhk Zhansaya","houseNumber":"","street":"","street_type":"","city":"Nur-Sultan","phone_numbers":"","county":"","state":"","country":"KAZ"},"geometry":{"type":"Point","coordinates":[71.41529,51.12944]}},{"type":"Feature","properties":{"recId":"","facility_type_desc":"Residential Area/Building","seqLength":"","poi_name":"Zhk Garmoniya","houseNumber":"","street":"","street_type":"","city":"Nur-Sultan","phone_numbers":"","county":"","state":"","country":"KAZ"},"geometry":{"type":"Point","coordinates":[71.40212,51.17349]}},{"type":"Feature","properties":{"recId":"","facility_type_desc":"Residential Area/Building","seqLength":"","poi_name":"Zhk Arman Kala","houseNumber":"","street":"","street_type":"","city":"Nur-Sultan","phone_numbers":"","county":"","state":"","country":"KAZ"},"geometry":{"type":"Point","coordinates":[71.42352,51.09703]}},{"type":"Feature","properties":{"recId":"","facility_type_desc":"Residential Area/Building","seqLength":"","poi_name":"Zhk Komfort Khaus","houseNumber":"","street":"Ұмай Ана","street_type":"көшесі","city":"Nur-Sultan","phone_numbers":"","county":"","state":"","country":"KAZ"},"geometry":{"type":"Point","coordinates":[71.39114,51.14572]}},{"type":"Feature","properties":{"recId":"","facility_type_desc":"Residential Area/Building","seqLength":"","poi_name":"Zhk Khayvil park","houseNumber":"","street":"","street_type":"","city":"Nur-Sultan","phone_numbers":"","county":"","state":"","country":"KAZ"},"geometry":{"type":"Point","coordinates":[71.40778,51.1132]}},{"type":"Feature","properties":{"recId":"","facility_type_desc":"Residential Area/Building","seqLength":"","poi_name":"Grand Alatau Turgin kesheny","houseNumber":"","street":"Бұқарбай батыр","street_type":"көшесі","city":"Nur-Sultan","phone_numbers":"","county":"","state":"","country":"KAZ"},"geometry":{"type":"Point","coordinates":[71.4212,51.16285]}},{"type":"Feature","properties":{"recId":"","facility_type_desc":"Residential Area/Building","seqLength":"","poi_name":"Zhk po Makhtumkuli","houseNumber":"","street":"","street_type":"","city":"Nur-Sultan","phone_numbers":"","county":"","state":"","country":"KAZ"},"geometry":{"type":"Point","coordinates":[71.49763,51.16211]}},{"type":"Feature","properties":{"recId":"","facility_type_desc":"Residential Area/Building","seqLength":"","poi_name":"Batir Turgin kesheny","houseNumber":"","street":"","street_type":"","city":"Nur-Sultan","phone_numbers":"","county":"","state":"","country":"KAZ"},"geometry":{"type":"Point","coordinates":[71.40357,51.17238]}},{"type":"Feature","properties":{"recId":"","facility_type_desc":"Residential Area/Building","seqLength":"","poi_name":"Zhk Uyut","houseNumber":"","street":"","street_type":"","city":"Nur-Sultan","phone_numbers":"","county":"","state":"","country":"KAZ"},"geometry":{"type":"Point","coordinates":[71.43035,51.12111]}},{"type":"Feature","properties":{"recId":"","facility_type_desc":"Residential Area/Building","seqLength":"","poi_name":"Zhk Hayvil Astana","houseNumber":"","street":"","street_type":"","city":"Nur-Sultan","phone_numbers":"","county":"","state":"","country":"KAZ"},"geometry":{"type":"Point","coordinates":[71.46441,51.12724]}},{"type":"Feature","properties":{"recId":"","facility_type_desc":"Residential Area/Building","seqLength":"","poi_name":"Zhk Yuzhniy","houseNumber":"","street":"","street_type":"","city":"Nur-Sultan","phone_numbers":"","county":"","state":"","country":"KAZ"},"geometry":{"type":"Point","coordinates":[71.45357,51.17575]}},{"type":"Feature","properties":{"recId":"","facility_type_desc":"Residential Area/Building","seqLength":"","poi_name":"Almali Turgin Kesheny","houseNumber":"","street":"","street_type":"","city":"Nur-Sultan","phone_numbers":"","county":"","state":"","country":"KAZ"},"geometry":{"type":"Point","coordinates":[71.44037,51.1631]}},{"type":"Feature","properties":{"recId":"","facility_type_desc":"Residential Area/Building","seqLength":"","poi_name":"Zhk Minima Plyus","houseNumber":"","street":"","street_type":"","city":"Nur-Sultan","phone_numbers":"","county":"","state":"","country":"KAZ"},"geometry":{"type":"Point","coordinates":[71.46881,51.16596]}},{"type":"Feature","properties":{"recId":"","facility_type_desc":"Residential Area/Building","seqLength":"","poi_name":"Zhk Vizit","houseNumber":"","street":"","street_type":"","city":"Nur-Sultan","phone_numbers":"","county":"","state":"","country":"KAZ"},"geometry":{"type":"Point","coordinates":[71.42214,51.12493]}},{"type":"Feature","properties":{"recId":"","facility_type_desc":"Residential Area/Building","seqLength":"","poi_name":"Zhk Nomad-3","houseNumber":"","street":"","street_type":"","city":"Nur-Sultan","phone_numbers":"","county":"","state":"","country":"KAZ"},"geometry":{"type":"Point","coordinates":[71.41921,51.12346]}},{"type":"Feature","properties":{"recId":"","facility_type_desc":"Residential Area/Building","seqLength":"","poi_name":"Zhk AK Shanyrak","houseNumber":"","street":"","street_type":"","city":"Nur-Sultan","phone_numbers":"","county":"","state":"","country":"KAZ"},"geometry":{"type":"Point","coordinates":[71.46069,51.13305]}},{"type":"Feature","properties":{"recId":"","facility_type_desc":"Residential Area/Building","seqLength":"","poi_name":"Zhk Kulan","houseNumber":"","street":"","street_type":"","city":"Nur-Sultan","phone_numbers":"","county":"","state":"","country":"KAZ"},"geometry":{"type":"Point","coordinates":[71.50442,51.1319]}},{"type":"Feature","properties":{"recId":"","facility_type_desc":"Residential Area/Building","seqLength":"","poi_name":"Bereke Turgin kesheny","houseNumber":"","street":"Әлмұқан Сембинов","street_type":"көшесі","city":"Nur-Sultan","phone_numbers":"","county":"","state":"","country":"KAZ"},"geometry":{"type":"Point","coordinates":[71.4544,51.17491]}},{"type":"Feature","properties":{"recId":"","facility_type_desc":"Residential Area/Building","seqLength":"","poi_name":"Zhk Gradkompleks","houseNumber":"","street":"","street_type":"","city":"Nur-Sultan","phone_numbers":"","county":"","state":"","country":"KAZ"},"geometry":{"type":"Point","coordinates":[71.41723,51.11659]}},{"type":"Feature","properties":{"recId":"","facility_type_desc":"Residential Area/Building","seqLength":"","poi_name":"Zhk Bavariya","houseNumber":"","street":"Космонавтар","street_type":"көшесі","city":"Nur-Sultan","phone_numbers":"","county":"","state":"","country":"KAZ"},"geometry":{"type":"Point","coordinates":[71.43684,51.14673]}},{"type":"Feature","properties":{"recId":"","facility_type_desc":"Residential Area/Building","seqLength":"","poi_name":"Zhk Kukuruza","houseNumber":"","street":"","street_type":"","city":"Nur-Sultan","phone_numbers":"","county":"","state":"","country":"KAZ"},"geometry":{"type":"Point","coordinates":[71.43414,51.15492]}},{"type":"Feature","properties":{"recId":"","facility_type_desc":"Residential Area/Building","seqLength":"","poi_name":"Almatau turgin kesheny","houseNumber":"","street":"Сығанақ","street_type":"көшесі","city":"Nur-Sultan","phone_numbers":"","county":"","state":"","country":"KAZ"},"geometry":{"type":"Point","coordinates":[71.41134,51.12569]}},{"type":"Feature","properties":{"recId":"","facility_type_desc":"Residential Area/Building","seqLength":"","poi_name":"Zhk Turkestan","houseNumber":"","street":"","street_type":"","city":"Nur-Sultan","phone_numbers":"","county":"","state":"","country":"KAZ"},"geometry":{"type":"Point","coordinates":[71.48287,51.1245]}},{"type":"Feature","properties":{"recId":"","facility_type_desc":"Residential Area/Building","seqLength":"","poi_name":"Gul'stan turgin kesheny","houseNumber":"","street":"","street_type":"","city":"Nur-Sultan","phone_numbers":"","county":"","state":"","country":"KAZ"},"geometry":{"type":"Point","coordinates":[71.44066,51.11653]}},{"type":"Feature","properties":{"recId":"","facility_type_desc":"Residential Area/Building","seqLength":"","poi_name":"Zhk Meyrim","houseNumber":"","street":"","street_type":"","city":"Nur-Sultan","phone_numbers":"","county":"","state":"","country":"KAZ"},"geometry":{"type":"Point","coordinates":[71.3944,51.11745]}},{"type":"Feature","properties":{"recId":"","facility_type_desc":"Residential Area/Building","seqLength":"","poi_name":"Akerke Turgin kesheni","houseNumber":"","street":"","street_type":"","city":"Nur-Sultan","phone_numbers":"","county":"","state":"","country":"KAZ"},"geometry":{"type":"Point","coordinates":[71.43852,51.16703]}},{"type":"Feature","properties":{"recId":"","facility_type_desc":"Residential Area/Building","seqLength":"","poi_name":"Tselinograd 2 Turgin kesheni","houseNumber":"","street":"","street_type":"","city":"Nur-Sultan","phone_numbers":"","county":"","state":"","country":"KAZ"},"geometry":{"type":"Point","coordinates":[71.43847,51.16706]}},{"type":"Feature","properties":{"recId":"","facility_type_desc":"Residential Area/Building","seqLength":"","poi_name":"Diplomat turgin kesheny","houseNumber":"","street":"","street_type":"","city":"Nur-Sultan","phone_numbers":"","county":"","state":"","country":"KAZ"},"geometry":{"type":"Point","coordinates":[71.42965,51.13208]}},{"type":"Feature","properties":{"recId":"","facility_type_desc":"Residential Area/Building","seqLength":"","poi_name":"Zhk Status","houseNumber":"","street":"","street_type":"","city":"Nur-Sultan","phone_numbers":"","county":"","state":"","country":"KAZ"},"geometry":{"type":"Point","coordinates":[71.41537,51.17816]}},{"type":"Feature","properties":{"recId":"","facility_type_desc":"Residential Area/Building","seqLength":"","poi_name":"Zerde Turgin üy kesheny","houseNumber":"","street":"","street_type":"","city":"Nur-Sultan","phone_numbers":"","county":"","state":"","country":"KAZ"},"geometry":{"type":"Point","coordinates":[71.47792,51.16253]}},{"type":"Feature","properties":{"recId":"","facility_type_desc":"Residential Area/Building","seqLength":"","poi_name":"Dostiq turgin kesheny","houseNumber":"","street":"Әлия Молдағұлова","street_type":"көшесі","city":"Nur-Sultan","phone_numbers":"","county":"","state":"","country":"KAZ"},"geometry":{"type":"Point","coordinates":[71.39443,51.18365]}},{"type":"Feature","properties":{"recId":"","facility_type_desc":"Residential Area/Building","seqLength":"","poi_name":"Etalon turgin kesheny","houseNumber":"","street":"Мәскеу","street_type":"көшесі","city":"Nur-Sultan","phone_numbers":"","county":"","state":"","country":"KAZ"},"geometry":{"type":"Point","coordinates":[71.39213,51.17967]}},{"type":"Feature","properties":{"recId":"","facility_type_desc":"Residential Area/Building","seqLength":"","poi_name":"Oqzhetpes turgin kesheny","houseNumber":"","street":"Мәскеу","street_type":"көшесі","city":"Nur-Sultan","phone_numbers":"","county":"","state":"","country":"KAZ"},"geometry":{"type":"Point","coordinates":[71.39213,51.17967]}},{"type":"Feature","properties":{"recId":"","facility_type_desc":"Residential Area/Building","seqLength":"","poi_name":"Ayka turgin kesheny","houseNumber":"","street":"Мәскеу","street_type":"көшесі","city":"Nur-Sultan","phone_numbers":"","county":"","state":"","country":"KAZ"},"geometry":{"type":"Point","coordinates":[71.39213,51.17967]}},{"type":"Feature","properties":{"recId":"","facility_type_desc":"Residential Area/Building","seqLength":"","poi_name":"Zhk Al'-Farabi","houseNumber":"","street":"","street_type":"","city":"Nur-Sultan","phone_numbers":"","county":"","state":"","country":"KAZ"},"geometry":{"type":"Point","coordinates":[71.49517,51.15734]}},{"type":"Feature","properties":{"recId":"","facility_type_desc":"Residential Area/Building","seqLength":"","poi_name":"Zhk Solnechniy Gorod","houseNumber":"","street":"","street_type":"","city":"Nur-Sultan","phone_numbers":"","county":"","state":"","country":"KAZ"},"geometry":{"type":"Point","coordinates":[71.49638,51.16134]}},{"type":"Feature","properties":{"recId":"","facility_type_desc":"Residential Area/Building","seqLength":"","poi_name":"Zhk Sever","houseNumber":"","street":"","street_type":"","city":"Nur-Sultan","phone_numbers":"","county":"","state":"","country":"KAZ"},"geometry":{"type":"Point","coordinates":[71.41878,51.18146]}},{"type":"Feature","properties":{"recId":"","facility_type_desc":"Residential Area/Building","seqLength":"","poi_name":"El'nara Turgin Kesheny","houseNumber":"","street":"","street_type":"","city":"Nur-Sultan","phone_numbers":"","county":"","state":"","country":"KAZ"},"geometry":{"type":"Point","coordinates":[71.45891,51.15941]}},{"type":"Feature","properties":{"recId":"","facility_type_desc":"Residential Area/Building","seqLength":"","poi_name":"Zhk Zhasyl El","houseNumber":"","street":"","street_type":"","city":"Nur-Sultan","phone_numbers":"","county":"","state":"","country":"KAZ"},"geometry":{"type":"Point","coordinates":[71.47637,51.1421]}},{"type":"Feature","properties":{"recId":"","facility_type_desc":"Residential Area/Building","seqLength":"","poi_name":"Edem Tü","houseNumber":"","street":"Қараөткел-2","street_type":"","city":"Nur-Sultan","phone_numbers":"","county":"","state":"","country":"KAZ"},"geometry":{"type":"Point","coordinates":[71.41153,51.14654]}},{"type":"Feature","properties":{"recId":"","facility_type_desc":"Residential Area/Building","seqLength":"","poi_name":"Zhk Parkoviy","houseNumber":"","street":"Шұбар","street_type":"","city":"Nur-Sultan","phone_numbers":"","county":"","state":"","country":"KAZ"},"geometry":{"type":"Point","coordinates":[71.43472,51.1357]}},{"type":"Feature","properties":{"recId":"","facility_type_desc":"Residential Area/Building","seqLength":"","poi_name":"Atameken Turgin Kesheny","houseNumber":"","street":"Жұмабек Тәшенов","street_type":"көшесі","city":"Nur-Sultan","phone_numbers":"","county":"","state":"","country":"KAZ"},"geometry":{"type":"Point","coordinates":[71.44031,51.152]}},{"type":"Feature","properties":{"recId":"","facility_type_desc":"Residential Area/Building","seqLength":"","poi_name":"Zhk Yantarniy","houseNumber":"","street":"Мәңгілік Ел","street_type":"даңғылы","city":"Nur-Sultan","phone_numbers":"","county":"","state":"","country":"KAZ"},"geometry":{"type":"Point","coordinates":[71.43215,51.1101]}},{"type":"Feature","properties":{"recId":"","facility_type_desc":"Residential Area/Building","seqLength":"","poi_name":"Araylim Turgin kesheny","houseNumber":"","street":"Арайлым Тұрғын кешені","street_type":"","city":"Nur-Sultan","phone_numbers":"","county":"","state":"","country":"KAZ"},"geometry":{"type":"Point","coordinates":[71.43467,51.13217]}},{"type":"Feature","properties":{"recId":"","facility_type_desc":"Residential Area/Building","seqLength":"","poi_name":"Edem Palas Turgin kesheny","houseNumber":"","street":"","street_type":"","city":"Nur-Sultan","phone_numbers":"","county":"","state":"","country":"KAZ"},"geometry":{"type":"Point","coordinates":[71.44014,51.16784]}},{"type":"Feature","properties":{"recId":"","facility_type_desc":"Residential Area/Building","seqLength":"","poi_name":"Zhk Zolotaya Milya","houseNumber":"","street":"Қасым Аманжолов","street_type":"көшесі","city":"Nur-Sultan","phone_numbers":"","county":"","state":"","country":"KAZ"},"geometry":{"type":"Point","coordinates":[71.47139,51.11418]}},{"type":"Feature","properties":{"recId":"","facility_type_desc":"Residential Area/Building","seqLength":"","poi_name":"Zhk Akkord Plyus","houseNumber":"","street":"","street_type":"","city":"Nur-Sultan","phone_numbers":"","county":"","state":"","country":"KAZ"},"geometry":{"type":"Point","coordinates":[71.50748,51.15255]}},{"type":"Feature","properties":{"recId":"","facility_type_desc":"Residential Area/Building","seqLength":"","poi_name":"Zhk Leya Komfort","houseNumber":"","street":"","street_type":"","city":"Nur-Sultan","phone_numbers":"","county":"","state":"","country":"KAZ"},"geometry":{"type":"Point","coordinates":[71.42115,51.18053]}},{"type":"Feature","properties":{"recId":"","facility_type_desc":"Residential Area/Building","seqLength":"","poi_name":"Tarhan Turgin kesheny","houseNumber":"","street":"Тарас Шевченко","street_type":"көшесі","city":"Nur-Sultan","phone_numbers":"","county":"","state":"","country":"KAZ"},"geometry":{"type":"Point","coordinates":[71.40601,51.16001]}},{"type":"Feature","properties":{"recId":"","facility_type_desc":"Residential Area/Building","seqLength":"","poi_name":"Zhagalau Turgin kesheny","houseNumber":"","street":"Тарас Шевченко","street_type":"көшесі","city":"Nur-Sultan","phone_numbers":"","county":"","state":"","country":"KAZ"},"geometry":{"type":"Point","coordinates":[71.40506,51.15997]}},{"type":"Feature","properties":{"recId":"","facility_type_desc":"Residential Area/Building","seqLength":"","poi_name":"Vip-Gorodok Saranda","houseNumber":"","street":"Саранда ВИП қалашығы","street_type":"","city":"Nur-Sultan","phone_numbers":"","county":"","state":"","country":"KAZ"},"geometry":{"type":"Point","coordinates":[71.45273,51.09777]}},{"type":"Feature","properties":{"recId":"","facility_type_desc":"Residential Area/Building","seqLength":"","poi_name":"Pioner turgin kesheny","houseNumber":"","street":"Қажымұқан Мұңайтпасов","street_type":"көшесі","city":"Nur-Sultan","phone_numbers":"","county":"","state":"","country":"KAZ"},"geometry":{"type":"Point","coordinates":[71.46276,51.15279]}},{"type":"Feature","properties":{"recId":"","facility_type_desc":"Residential Area/Building","seqLength":"","poi_name":"Zhk Arabi","houseNumber":"","street":"","street_type":"","city":"Nur-Sultan","phone_numbers":"","county":"","state":"","country":"KAZ"},"geometry":{"type":"Point","coordinates":[71.43062,51.07577]}},{"type":"Feature","properties":{"recId":"","facility_type_desc":"Residential Area/Building","seqLength":"","poi_name":"River Park Lea","houseNumber":"","street":"","street_type":"","city":"Nur-Sultan","phone_numbers":"","county":"","state":"","country":"KAZ"},"geometry":{"type":"Point","coordinates":[71.37321,51.15187]}},{"type":"Feature","properties":{"recId":"","facility_type_desc":"Residential Area/Building","seqLength":"","poi_name":"Zhk Alem-Tau","houseNumber":"","street":"","street_type":"","city":"Nur-Sultan","phone_numbers":"","county":"","state":"","country":"KAZ"},"geometry":{"type":"Point","coordinates":[71.37267,51.15172]}},{"type":"Feature","properties":{"recId":"","facility_type_desc":"Residential Area/Building","seqLength":"","poi_name":"Zhk Territoriya Komforta","houseNumber":"","street":"","street_type":"","city":"Nur-Sultan","phone_numbers":"","county":"","state":"","country":"KAZ"},"geometry":{"type":"Point","coordinates":[71.42905,51.11832]}},{"type":"Feature","properties":{"recId":"","facility_type_desc":"Residential Area/Building","seqLength":"","poi_name":"Zharkin Turgin Kesheny","houseNumber":"","street":"Минск","street_type":"қысқа көшесі","city":"Nur-Sultan","phone_numbers":"","county":"","state":"","country":"KAZ"},"geometry":{"type":"Point","coordinates":[71.46435,51.16486]}},{"type":"Feature","properties":{"recId":"","facility_type_desc":"Residential Area/Building","seqLength":"","poi_name":"Noviy Mir Turgin kesheny","houseNumber":"","street":"Дінмұхамед Қонаев","street_type":"көшесі","city":"Nur-Sultan","phone_numbers":"","county":"","state":"","country":"KAZ"},"geometry":{"type":"Point","coordinates":[71.43908,51.13027]}},{"type":"Feature","properties":{"recId":"","facility_type_desc":"Residential Area/Building","seqLength":"","poi_name":"Zhk Barys","houseNumber":"","street":"","street_type":"","city":"Nur-Sultan","phone_numbers":"","county":"","state":"","country":"KAZ"},"geometry":{"type":"Point","coordinates":[71.4974,51.13133]}},{"type":"Feature","properties":{"recId":"","facility_type_desc":"Residential Area/Building","seqLength":"","poi_name":"Titanik Turgin kesheny","houseNumber":"","street":"Ирченко","street_type":"көшесі","city":"Nur-Sultan","phone_numbers":"","county":"","state":"","country":"KAZ"},"geometry":{"type":"Point","coordinates":[71.41263,51.16055]}},{"type":"Feature","properties":{"recId":"","facility_type_desc":"Residential Area/Building","seqLength":"","poi_name":"Zhk Garant","houseNumber":"","street":"Ықылас Дүкенұлы","street_type":"көшесі","city":"Nur-Sultan","phone_numbers":"","county":"","state":"","country":"KAZ"},"geometry":{"type":"Point","coordinates":[71.43705,51.18087]}},{"type":"Feature","properties":{"recId":"","facility_type_desc":"Residential Area/Building","seqLength":"","poi_name":"Miras Turgin kesheny","houseNumber":"","street":"Абылай хан","street_type":"даңғылы","city":"Nur-Sultan","phone_numbers":"","county":"","state":"","country":"KAZ"},"geometry":{"type":"Point","coordinates":[71.48594,51.1543]}},{"type":"Feature","properties":{"recId":"","facility_type_desc":"Residential Area/Building","seqLength":"","poi_name":"Sezim Qala","houseNumber":"","street":"","street_type":"","city":"Nur-Sultan","phone_numbers":"","county":"","state":"","country":"KAZ"},"geometry":{"type":"Point","coordinates":[71.39648,51.11566]}},{"type":"Feature","properties":{"recId":"","facility_type_desc":"Residential Area/Building","seqLength":"","poi_name":"Zhk Oazis","houseNumber":"","street":"","street_type":"","city":"Nur-Sultan","phone_numbers":"","county":"","state":"","country":"KAZ"},"geometry":{"type":"Point","coordinates":[71.35223,51.15606]}},{"type":"Feature","properties":{"recId":"","facility_type_desc":"Residential Area/Building","seqLength":"","poi_name":"Zhk Merriti","houseNumber":"","street":"","street_type":"","city":"Nur-Sultan","phone_numbers":"","county":"","state":"","country":"KAZ"},"geometry":{"type":"Point","coordinates":[71.50967,51.1552]}},{"type":"Feature","properties":{"recId":"","facility_type_desc":"Residential Area/Building","seqLength":"","poi_name":"Zhk Riksos Khan Shatyr Rezidents","houseNumber":"","street":"","street_type":"","city":"Nur-Sultan","phone_numbers":"","county":"","state":"","country":"KAZ"},"geometry":{"type":"Point","coordinates":[71.40245,51.13053]}},{"type":"Feature","properties":{"recId":"","facility_type_desc":"Residential Area/Building","seqLength":"","poi_name":"Raduga Turgin kesheny","houseNumber":"","street":"Радуга Тұрғын кешені","street_type":"","city":"Nur-Sultan","phone_numbers":"","county":"","state":"","country":"KAZ"},"geometry":{"type":"Point","coordinates":[71.41684,51.1447]}},{"type":"Feature","properties":{"recId":"","facility_type_desc":"Residential Area/Building","seqLength":"","poi_name":"Samuriq Turgin kesheny","houseNumber":"","street":"Кенесары","street_type":"көшесі","city":"Nur-Sultan","phone_numbers":"","county":"","state":"","country":"KAZ"},"geometry":{"type":"Point","coordinates":[71.40825,51.163]}},{"type":"Feature","properties":{"recId":"","facility_type_desc":"Residential Area/Building","seqLength":"","poi_name":"Bi-Village","houseNumber":"","street":"Құрмет","street_type":"көшесі","city":"Nur-Sultan","phone_numbers":"","county":"","state":"","country":"KAZ"},"geometry":{"type":"Point","coordinates":[71.4375,51.0888]}},{"type":"Feature","properties":{"recId":"","facility_type_desc":"Residential Area/Building","seqLength":"","poi_name":"Tobil turgin kesheny","houseNumber":"","street":"Абай","street_type":"даңғылы","city":"Nur-Sultan","phone_numbers":"","county":"","state":"","country":"KAZ"},"geometry":{"type":"Point","coordinates":[71.4433,51.17029]}},{"type":"Feature","properties":{"recId":"","facility_type_desc":"Residential Area/Building","seqLength":"","poi_name":"Expo Plaza-D","houseNumber":"","street":"","street_type":"","city":"Nur-Sultan","phone_numbers":"","county":"","state":"","country":"KAZ"},"geometry":{"type":"Point","coordinates":[71.4094,51.09628]}},{"type":"Feature","properties":{"recId":"","facility_type_desc":"Residential Area/Building","seqLength":"","poi_name":"Vremena goda turgin kesheny","houseNumber":"","street":"","street_type":"","city":"Nur-Sultan","phone_numbers":"","county":"","state":"","country":"KAZ"},"geometry":{"type":"Point","coordinates":[71.44077,51.1188]}},{"type":"Feature","properties":{"recId":"","facility_type_desc":"Residential Area/Building","seqLength":"","poi_name":"Batanicheskiy","houseNumber":"","street":"Сауран","street_type":"көшесі","city":"Nur-Sultan","phone_numbers":"","county":"","state":"","country":"KAZ"},"geometry":{"type":"Point","coordinates":[71.41271,51.10112]}},{"type":"Feature","properties":{"recId":"","facility_type_desc":"Residential Area/Building","seqLength":"","poi_name":"Zhk Elimay","houseNumber":"","street":"","street_type":"","city":"Nur-Sultan","phone_numbers":"","county":"","state":"","country":"KAZ"},"geometry":{"type":"Point","coordinates":[71.36465,51.15006]}},{"type":"Feature","properties":{"recId":"","facility_type_desc":"Residential Area/Building","seqLength":"","poi_name":"Zhk Sotsial","houseNumber":"","street":"","street_type":"","city":"Nur-Sultan","phone_numbers":"","county":"","state":"","country":"KAZ"},"geometry":{"type":"Point","coordinates":[71.4926,51.16326]}},{"type":"Feature","properties":{"recId":"","facility_type_desc":"Residential Area/Building","seqLength":"","poi_name":"Victoria Palace","houseNumber":"","street":"","street_type":"","city":"Nur-Sultan","phone_numbers":"","county":"","state":"","country":"KAZ"},"geometry":{"type":"Point","coordinates":[71.39106,51.15284]}},{"type":"Feature","properties":{"recId":"","facility_type_desc":"Residential Area/Building","seqLength":"","poi_name":"Zhk AK Bota","houseNumber":"","street":"","street_type":"","city":"Nur-Sultan","phone_numbers":"","county":"","state":"","country":"KAZ"},"geometry":{"type":"Point","coordinates":[71.42368,51.17356]}},{"type":"Feature","properties":{"recId":"","facility_type_desc":"Residential Area/Building","seqLength":"","poi_name":"Studentter üyy","houseNumber":"","street":"","street_type":"","city":"Nur-Sultan","phone_numbers":"","county":"","state":"","country":"KAZ"},"geometry":{"type":"Point","coordinates":[71.47451,51.15866]}},{"type":"Feature","properties":{"recId":"","facility_type_desc":"Residential Area/Building","seqLength":"","poi_name":"Külsay Tü","houseNumber":"","street":"Қорғалжын","street_type":"тас жолы","city":"Nur-Sultan","phone_numbers":"","county":"","state":"","country":"KAZ"},"geometry":{"type":"Point","coordinates":[71.38968,51.14866]}},{"type":"Feature","properties":{"recId":"","facility_type_desc":"Residential Area/Building","seqLength":"","poi_name":"San Siti Tü","houseNumber":"","street":"Речной","street_type":"қысқа көшесі","city":"Nur-Sultan","phone_numbers":"","county":"","state":"","country":"KAZ"},"geometry":{"type":"Point","coordinates":[71.43591,51.15838]}},{"type":"Feature","properties":{"recId":"","facility_type_desc":"Residential Area/Building","seqLength":"","poi_name":"Zhk Dauletkerey","houseNumber":"","street":"Дәулеткерей","street_type":"көшесі","city":"Nur-Sultan","phone_numbers":"","county":"","state":"","country":"KAZ"},"geometry":{"type":"Point","coordinates":[71.35904,51.1803]}},{"type":"Feature","properties":{"recId":"","facility_type_desc":"Residential Area/Building","seqLength":"","poi_name":"Zhk Sirdar'ya","houseNumber":"","street":"","street_type":"","city":"Nur-Sultan","phone_numbers":"","county":"","state":"","country":"KAZ"},"geometry":{"type":"Point","coordinates":[71.35472,51.14711]}},{"type":"Feature","properties":{"recId":"","facility_type_desc":"Residential Area/Building","seqLength":"","poi_name":"Expo New Life","houseNumber":"","street":"","street_type":"","city":"Nur-Sultan","phone_numbers":"","county":"","state":"","country":"KAZ"},"geometry":{"type":"Point","coordinates":[71.42092,51.09495]}},{"type":"Feature","properties":{"recId":"","facility_type_desc":"Residential Area/Building","seqLength":"","poi_name":"Zhk Angliyskiy kvartal","houseNumber":"","street":"","street_type":"","city":"Nur-Sultan","phone_numbers":"","county":"","state":"","country":"KAZ"},"geometry":{"type":"Point","coordinates":[71.45531,51.11473]}},{"type":"Feature","properties":{"recId":"","facility_type_desc":"Residential Area/Building","seqLength":"","poi_name":"Zhk Skif","houseNumber":"","street":"","street_type":"","city":"Nur-Sultan","phone_numbers":"","county":"","state":"","country":"KAZ"},"geometry":{"type":"Point","coordinates":[71.41328,51.17204]}},{"type":"Feature","properties":{"recId":"","facility_type_desc":"Residential Area/Building","seqLength":"","poi_name":"Avitsenna Turgin kesheny","houseNumber":"","street":"Сарайшық","street_type":"көшесі","city":"Nur-Sultan","phone_numbers":"","county":"","state":"","country":"KAZ"},"geometry":{"type":"Point","coordinates":[71.43,51.13446]}},{"type":"Feature","properties":{"recId":"","facility_type_desc":"Residential Area/Building","seqLength":"","poi_name":"Zhk Svechki","houseNumber":"","street":"","street_type":"","city":"Nur-Sultan","phone_numbers":"","county":"","state":"","country":"KAZ"},"geometry":{"type":"Point","coordinates":[71.40556,51.17448]}},{"type":"Feature","properties":{"recId":"","facility_type_desc":"Residential Area/Building","seqLength":"","poi_name":"Zhk Senym","houseNumber":"","street":"","street_type":"","city":"Nur-Sultan","phone_numbers":"","county":"","state":"","country":"KAZ"},"geometry":{"type":"Point","coordinates":[71.38178,51.14608]}},{"type":"Feature","properties":{"recId":"","facility_type_desc":"Residential Area/Building","seqLength":"","poi_name":"Karavan TK","houseNumber":"","street":"Юго-Восток","street_type":"шағын ауданы","city":"Nur-Sultan","phone_numbers":"","county":"","state":"","country":"KAZ"},"geometry":{"type":"Point","coordinates":[71.47773,51.13749]}},{"type":"Feature","properties":{"recId":"","facility_type_desc":"Residential Area/Building","seqLength":"","poi_name":"Zhk Tumar","houseNumber":"","street":"","street_type":"","city":"Nur-Sultan","phone_numbers":"","county":"","state":"","country":"KAZ"},"geometry":{"type":"Point","coordinates":[71.42793,51.11696]}},{"type":"Feature","properties":{"recId":"","facility_type_desc":"Residential Area/Building","seqLength":"","poi_name":"Manhetten 2","houseNumber":"","street":"","street_type":"","city":"Nur-Sultan","phone_numbers":"","county":"","state":"","country":"KAZ"},"geometry":{"type":"Point","coordinates":[71.38461,51.13836]}},{"type":"Feature","properties":{"recId":"","facility_type_desc":"Residential Area/Building","seqLength":"","poi_name":"Lazurniy kvartal Turgin kesheny","houseNumber":"","street":"Қабанбай батыр","street_type":"даңғылы","city":"Nur-Sultan","phone_numbers":"","county":"","state":"","country":"KAZ"},"geometry":{"type":"Point","coordinates":[71.41996,51.14245]}},{"type":"Feature","properties":{"recId":"","facility_type_desc":"Residential Area/Building","seqLength":"","poi_name":"Zhk Ulytau","houseNumber":"","street":"","street_type":"","city":"Nur-Sultan","phone_numbers":"","county":"","state":"","country":"KAZ"},"geometry":{"type":"Point","coordinates":[71.42864,51.16717]}},{"type":"Feature","properties":{"recId":"","facility_type_desc":"Residential Area/Building","seqLength":"","poi_name":"Zhk Kurshevel'","houseNumber":"","street":"","street_type":"","city":"Nur-Sultan","phone_numbers":"","county":"","state":"","country":"KAZ"},"geometry":{"type":"Point","coordinates":[71.4347,51.07686]}},{"type":"Feature","properties":{"recId":"","facility_type_desc":"Residential Area/Building","seqLength":"","poi_name":"Greenwich","houseNumber":"","street":"Қасым Қайсенов","street_type":"көшесі","city":"Nur-Sultan","phone_numbers":"","county":"","state":"","country":"KAZ"},"geometry":{"type":"Point","coordinates":[71.43895,51.08251]}},{"type":"Feature","properties":{"recId":"","facility_type_desc":"Residential Area/Building","seqLength":"","poi_name":"Zhk Aristokrat","houseNumber":"","street":"","street_type":"","city":"Nur-Sultan","phone_numbers":"","county":"","state":"","country":"KAZ"},"geometry":{"type":"Point","coordinates":[71.38569,51.14712]}},{"type":"Feature","properties":{"recId":"","facility_type_desc":"Residential Area/Building","seqLength":"","poi_name":"Zhk Stepnoy","houseNumber":"","street":"","street_type":"","city":"Nur-Sultan","phone_numbers":"","county":"","state":"","country":"KAZ"},"geometry":{"type":"Point","coordinates":[71.50718,51.15483]}},{"type":"Feature","properties":{"recId":"","facility_type_desc":"Residential Area/Building","seqLength":"","poi_name":"Zhk Zheleznodorozhniy","houseNumber":"","street":"","street_type":"","city":"Nur-Sultan","phone_numbers":"","county":"","state":"","country":"KAZ"},"geometry":{"type":"Point","coordinates":[71.55833,51.14632]}},{"type":"Feature","properties":{"recId":"","facility_type_desc":"Residential Area/Building","seqLength":"","poi_name":"Zhk Kulager","houseNumber":"","street":"","street_type":"","city":"Nur-Sultan","phone_numbers":"","county":"","state":"","country":"KAZ"},"geometry":{"type":"Point","coordinates":[71.42456,51.12538]}},{"type":"Feature","properties":{"recId":"","facility_type_desc":"Residential Area/Building","seqLength":"","poi_name":"Zhk Dzhungarskie Vorota","houseNumber":"","street":"","street_type":"","city":"Nur-Sultan","phone_numbers":"","county":"","state":"","country":"KAZ"},"geometry":{"type":"Point","coordinates":[71.40517,51.16939]}},{"type":"Feature","properties":{"recId":"","facility_type_desc":"Residential Area/Building","seqLength":"","poi_name":"Zhk Ayken","houseNumber":"","street":"","street_type":"","city":"Nur-Sultan","phone_numbers":"","county":"","state":"","country":"KAZ"},"geometry":{"type":"Point","coordinates":[71.3792,51.17145]}},{"type":"Feature","properties":{"recId":"","facility_type_desc":"Residential Area/Building","seqLength":"","poi_name":"Arman Turgin kesheny","houseNumber":"","street":"","street_type":"","city":"Nur-Sultan","phone_numbers":"","county":"","state":"","country":"KAZ"},"geometry":{"type":"Point","coordinates":[71.41441,51.16004]}},{"type":"Feature","properties":{"recId":"","facility_type_desc":"Residential Area/Building","seqLength":"","poi_name":"Zhk Beybarys","houseNumber":"","street":"","street_type":"","city":"Nur-Sultan","phone_numbers":"","county":"","state":"","country":"KAZ"},"geometry":{"type":"Point","coordinates":[71.49892,51.11439]}},{"type":"Feature","properties":{"recId":"","facility_type_desc":"Residential Area/Building","seqLength":"","poi_name":"Tselinograd Turgin kesheny","houseNumber":"","street":"","street_type":"","city":"Nur-Sultan","phone_numbers":"","county":"","state":"","country":"KAZ"},"geometry":{"type":"Point","coordinates":[71.40586,51.16992]}},{"type":"Feature","properties":{"recId":"","facility_type_desc":"Residential Area/Building","seqLength":"","poi_name":"Zhk Zamechatel'niy","houseNumber":"","street":"","street_type":"","city":"Nur-Sultan","phone_numbers":"","county":"","state":"","country":"KAZ"},"geometry":{"type":"Point","coordinates":[71.42877,51.17304]}},{"type":"Feature","properties":{"recId":"","facility_type_desc":"Residential Area/Building","seqLength":"","poi_name":"Zhk Prem'er Palas","houseNumber":"","street":"Касыма Аманжолова","street_type":"улица","city":"Nur-Sultan","phone_numbers":"","county":"","state":"","country":"KAZ"},"geometry":{"type":"Point","coordinates":[71.47334,51.11832]}},{"type":"Feature","properties":{"recId":"","facility_type_desc":"Residential Area/Building","seqLength":"","poi_name":"Expo Plaza A","houseNumber":"","street":"","street_type":"","city":"Nur-Sultan","phone_numbers":"","county":"","state":"","country":"KAZ"},"geometry":{"type":"Point","coordinates":[71.40709,51.09729]}},{"type":"Feature","properties":{"recId":"","facility_type_desc":"Residential Area/Building","seqLength":"","poi_name":"Zhk Shygys","houseNumber":"","street":"","street_type":"","city":"Nur-Sultan","phone_numbers":"","county":"","state":"","country":"KAZ"},"geometry":{"type":"Point","coordinates":[71.37894,51.12888]}},{"type":"Feature","properties":{"recId":"","facility_type_desc":"Residential Area/Building","seqLength":"","poi_name":"Medeo Turgin kesheny","houseNumber":"","street":"","street_type":"","city":"Nur-Sultan","phone_numbers":"","county":"","state":"","country":"KAZ"},"geometry":{"type":"Point","coordinates":[71.42806,51.16717]}},{"type":"Feature","properties":{"recId":"","facility_type_desc":"Residential Area/Building","seqLength":"","poi_name":"Nursaya-1 Turgin kesheny","houseNumber":"","street":"Дінмұхамед Қонаев","street_type":"көшесі","city":"Nur-Sultan","phone_numbers":"","county":"","state":"","country":"KAZ"},"geometry":{"type":"Point","coordinates":[71.43628,51.12986]}},{"type":"Feature","properties":{"recId":"","facility_type_desc":"Residential Area/Building","seqLength":"","poi_name":"Zhk Debyut","houseNumber":"","street":"","street_type":"","city":"Nur-Sultan","phone_numbers":"","county":"","state":"","country":"KAZ"},"geometry":{"type":"Point","coordinates":[71.47236,51.1439]}},{"type":"Feature","properties":{"recId":"","facility_type_desc":"Residential Area/Building","seqLength":"","poi_name":"Evropeyskiy-1 Turgin kesheny","houseNumber":"","street":"Боталы","street_type":"көшесі","city":"Nur-Sultan","phone_numbers":"","county":"","state":"","country":"KAZ"},"geometry":{"type":"Point","coordinates":[71.4044,51.17205]}},{"type":"Feature","properties":{"recId":"","facility_type_desc":"Residential Area/Building","seqLength":"","poi_name":"Zhk Granitniy","houseNumber":"","street":"","street_type":"","city":"Nur-Sultan","phone_numbers":"","county":"","state":"","country":"KAZ"},"geometry":{"type":"Point","coordinates":[71.45256,51.16211]}},{"type":"Feature","properties":{"recId":"","facility_type_desc":"Residential Area/Building","seqLength":"","poi_name":"Zhar Zhar Turgin Kesheny","houseNumber":"","street":"","street_type":"","city":"Nur-Sultan","phone_numbers":"","county":"","state":"","country":"KAZ"},"geometry":{"type":"Point","coordinates":[71.4571,51.16203]}},{"type":"Feature","properties":{"recId":"","facility_type_desc":"Residential Area/Building","seqLength":"","poi_name":"Nomad Turgin kesheny","houseNumber":"","street":"","street_type":"","city":"Nur-Sultan","phone_numbers":"","county":"","state":"","country":"KAZ"},"geometry":{"type":"Point","coordinates":[71.41841,51.12028]}},{"type":"Feature","properties":{"recId":"","facility_type_desc":"Residential Area/Building","seqLength":"","poi_name":"Zhk Sarayshik","houseNumber":"","street":"","street_type":"","city":"Nur-Sultan","phone_numbers":"","county":"","state":"","country":"KAZ"},"geometry":{"type":"Point","coordinates":[71.50393,51.12435]}},{"type":"Feature","properties":{"recId":"","facility_type_desc":"Residential Area/Building","seqLength":"","poi_name":"Kulager 2 Turgin üy kesheny","houseNumber":"","street":"","street_type":"","city":"Nur-Sultan","phone_numbers":"","county":"","state":"","country":"KAZ"},"geometry":{"type":"Point","coordinates":[71.36681,51.13098]}},{"type":"Feature","properties":{"recId":"","facility_type_desc":"Residential Area/Building","seqLength":"","poi_name":"Zhk Arman De Lyuks","houseNumber":"","street":"","street_type":"","city":"Nur-Sultan","phone_numbers":"","county":"","state":"","country":"KAZ"},"geometry":{"type":"Point","coordinates":[71.41839,51.11254]}},{"type":"Feature","properties":{"recId":"","facility_type_desc":"Residential Area/Building","seqLength":"","poi_name":"Zhk Apato Tauer","houseNumber":"","street":"","street_type":"","city":"Nur-Sultan","phone_numbers":"","county":"","state":"","country":"KAZ"},"geometry":{"type":"Point","coordinates":[71.48118,51.14751]}},{"type":"Feature","properties":{"recId":"","facility_type_desc":"Residential Area/Building","seqLength":"","poi_name":"Zhk Abay-2","houseNumber":"","street":"","street_type":"","city":"Nur-Sultan","phone_numbers":"","county":"","state":"","country":"KAZ"},"geometry":{"type":"Point","coordinates":[71.44059,51.16853]}},{"type":"Feature","properties":{"recId":"","facility_type_desc":"Residential Area/Building","seqLength":"","poi_name":"Zhk Zolotoy","houseNumber":"","street":"","street_type":"","city":"Nur-Sultan","phone_numbers":"","county":"","state":"","country":"KAZ"},"geometry":{"type":"Point","coordinates":[71.42946,51.16615]}},{"type":"Feature","properties":{"recId":"","facility_type_desc":"Residential Area/Building","seqLength":"","poi_name":"Zhk Akbulak 3","houseNumber":"","street":"Ақ-Бұлақ 3","street_type":"","city":"Nur-Sultan","phone_numbers":"","county":"","state":"","country":"KAZ"},"geometry":{"type":"Point","coordinates":[71.44918,51.14051]}},{"type":"Feature","properties":{"recId":"","facility_type_desc":"Residential Area/Building","seqLength":"","poi_name":"Milanskiy Kvartal Turgin Kesheny","houseNumber":"","street":"Гейдар Алиев","street_type":"көшесі","city":"Nur-Sultan","phone_numbers":"","county":"","state":"","country":"KAZ"},"geometry":{"type":"Point","coordinates":[71.45208,51.15]}},{"type":"Feature","properties":{"recId":"","facility_type_desc":"Residential Area/Building","seqLength":"","poi_name":"Zhk Evropa Palas 2","houseNumber":"","street":"","street_type":"","city":"Nur-Sultan","phone_numbers":"","county":"","state":"","country":"KAZ"},"geometry":{"type":"Point","coordinates":[71.42491,51.12206]}},{"type":"Feature","properties":{"recId":"","facility_type_desc":"Residential Area/Building","seqLength":"","poi_name":"Zhk Soyuz Apollon","houseNumber":"","street":"","street_type":"","city":"Nur-Sultan","phone_numbers":"","county":"","state":"","country":"KAZ"},"geometry":{"type":"Point","coordinates":[71.41057,51.12518]}},{"type":"Feature","properties":{"recId":"","facility_type_desc":"Residential Area/Building","seqLength":"","poi_name":"Zhk Erkezhan","houseNumber":"","street":"Қыз Жібек","street_type":"көшесі","city":"Nur-Sultan","phone_numbers":"","county":"","state":"","country":"KAZ"},"geometry":{"type":"Point","coordinates":[71.38784,51.14409]}},{"type":"Feature","properties":{"recId":"","facility_type_desc":"Residential Area/Building","seqLength":"","poi_name":"Expo Boulevard-2","houseNumber":"","street":"","street_type":"","city":"Nur-Sultan","phone_numbers":"","county":"","state":"","country":"KAZ"},"geometry":{"type":"Point","coordinates":[71.41209,51.09373]}},{"type":"Feature","properties":{"recId":"","facility_type_desc":"Residential Area/Building","seqLength":"","poi_name":"Severnaya Korona Turgin kesheny","houseNumber":"","street":"6-шы","street_type":"өтпе","city":"Nur-Sultan","phone_numbers":"","county":"","state":"","country":"KAZ"},"geometry":{"type":"Point","coordinates":[71.42507,51.14867]}},{"type":"Feature","properties":{"recId":"","facility_type_desc":"Residential Area/Building","seqLength":"","poi_name":"3 Ga","houseNumber":"","street":"Қобыланды батыр","street_type":"көшесі","city":"Nur-Sultan","phone_numbers":"","county":"","state":"","country":"KAZ"},"geometry":{"type":"Point","coordinates":[71.52099,51.15498]}},{"type":"Feature","properties":{"recId":"","facility_type_desc":"Residential Area/Building","seqLength":"","poi_name":"Bi City Tokyo","houseNumber":"","street":"","street_type":"","city":"Nur-Sultan","phone_numbers":"","county":"","state":"","country":"KAZ"},"geometry":{"type":"Point","coordinates":[71.40218,51.13657]}},{"type":"Feature","properties":{"recId":"","facility_type_desc":"Residential Area/Building","seqLength":"","poi_name":"Zhk Kerege","houseNumber":"","street":"","street_type":"","city":"Nur-Sultan","phone_numbers":"","county":"","state":"","country":"KAZ"},"geometry":{"type":"Point","coordinates":[71.50854,51.15608]}},{"type":"Feature","properties":{"recId":"","facility_type_desc":"Residential Area/Building","seqLength":"","poi_name":"Zhk Imperiya","houseNumber":"","street":"","street_type":"","city":"Nur-Sultan","phone_numbers":"","county":"","state":"","country":"KAZ"},"geometry":{"type":"Point","coordinates":[71.41124,51.16471]}},{"type":"Feature","properties":{"recId":"","facility_type_desc":"Residential Area/Building","seqLength":"","poi_name":"Astana Zhuldizi Turgin kesheny","houseNumber":"","street":"Самал","street_type":"шағын ауданы","city":"Nur-Sultan","phone_numbers":"","county":"","state":"","country":"KAZ"},"geometry":{"type":"Point","coordinates":[71.42797,51.15708]}},{"type":"Feature","properties":{"recId":"","facility_type_desc":"Residential Area/Building","seqLength":"","poi_name":"Zhk Zhagalau-2","houseNumber":"","street":"Тұран","street_type":"даңғылы","city":"Nur-Sultan","phone_numbers":"","county":"","state":"","country":"KAZ"},"geometry":{"type":"Point","coordinates":[71.40393,51.12537]}},{"type":"Feature","properties":{"recId":"","facility_type_desc":"Residential Area/Building","seqLength":"","poi_name":"Stolichniy Turgin kesheny","houseNumber":"","street":"Столичный Тұрғын кешені","street_type":"","city":"Nur-Sultan","phone_numbers":"","county":"","state":"","country":"KAZ"},"geometry":{"type":"Point","coordinates":[71.4049,51.16546]}},{"type":"Feature","properties":{"recId":"","facility_type_desc":"Residential Area/Building","seqLength":"","poi_name":"Zhk Gradkompleks-3","houseNumber":"","street":"","street_type":"","city":"Nur-Sultan","phone_numbers":"","county":"","state":"","country":"KAZ"},"geometry":{"type":"Point","coordinates":[71.4222,51.11744]}},{"type":"Feature","properties":{"recId":"","facility_type_desc":"Residential Area/Building","seqLength":"","poi_name":"Kulager Turgin üy kesheny","houseNumber":"","street":"","street_type":"","city":"Nur-Sultan","phone_numbers":"","county":"","state":"","country":"KAZ"},"geometry":{"type":"Point","coordinates":[71.36652,51.13102]}},{"type":"Feature","properties":{"recId":"","facility_type_desc":"Residential Area/Building","seqLength":"","poi_name":"Zhk Sulu","houseNumber":"","street":"","street_type":"","city":"Nur-Sultan","phone_numbers":"","county":"","state":"","country":"KAZ"},"geometry":{"type":"Point","coordinates":[71.4758,51.11815]}},{"type":"Feature","properties":{"recId":"","facility_type_desc":"Residential Area/Building","seqLength":"","poi_name":"Zhk Zere","houseNumber":"","street":"Мұса Жәлел","street_type":"көшесі","city":"Nur-Sultan","phone_numbers":"","county":"","state":"","country":"KAZ"},"geometry":{"type":"Point","coordinates":[71.38133,51.18768]}},{"type":"Feature","properties":{"recId":"","facility_type_desc":"Residential Area/Building","seqLength":"","poi_name":"Zhk Eltay-2","houseNumber":"","street":"","street_type":"","city":"Nur-Sultan","phone_numbers":"","county":"","state":"","country":"KAZ"},"geometry":{"type":"Point","coordinates":[71.39191,51.16704]}},{"type":"Feature","properties":{"recId":"","facility_type_desc":"Residential Area/Building","seqLength":"","poi_name":"Zhk Dzhi park Femili","houseNumber":"","street":"Бухар Жырау","street_type":"улица","city":"Nur-Sultan","phone_numbers":"","county":"","state":"","country":"KAZ"},"geometry":{"type":"Point","coordinates":[71.43258,51.09931]}},{"type":"Feature","properties":{"recId":"","facility_type_desc":"Residential Area/Building","seqLength":"","poi_name":"Zhk Etyud","houseNumber":"","street":"","street_type":"","city":"Nur-Sultan","phone_numbers":"","county":"","state":"","country":"KAZ"},"geometry":{"type":"Point","coordinates":[71.483,51.15833]}},{"type":"Feature","properties":{"recId":"","facility_type_desc":"Residential Area/Building","seqLength":"","poi_name":"Zhk Zhenis","houseNumber":"","street":"","street_type":"","city":"Nur-Sultan","phone_numbers":"","county":"","state":"","country":"KAZ"},"geometry":{"type":"Point","coordinates":[71.40726,51.18568]}},{"type":"Feature","properties":{"recId":"","facility_type_desc":"Residential Area/Building","seqLength":"","poi_name":"Zhk Ulan","houseNumber":"","street":"","street_type":"","city":"Nur-Sultan","phone_numbers":"","county":"","state":"","country":"KAZ"},"geometry":{"type":"Point","coordinates":[71.49532,51.15591]}},{"type":"Feature","properties":{"recId":"","facility_type_desc":"Residential Area/Building","seqLength":"","poi_name":"Prem'er Palas Turgin kesheny","houseNumber":"","street":"Нұрғиса Тілендиев","street_type":"даңғылы","city":"Nur-Sultan","phone_numbers":"","county":"","state":"","country":"KAZ"},"geometry":{"type":"Point","coordinates":[71.36781,51.18325]}},{"type":"Feature","properties":{"recId":"","facility_type_desc":"Residential Area/Building","seqLength":"","poi_name":"Zhk Zhanuya","houseNumber":"","street":"","street_type":"","city":"Nur-Sultan","phone_numbers":"","county":"","state":"","country":"KAZ"},"geometry":{"type":"Point","coordinates":[71.48027,51.12356]}},{"type":"Feature","properties":{"recId":"","facility_type_desc":"Residential Area/Building","seqLength":"","poi_name":"Zhk Omir Ozen","houseNumber":"","street":"","street_type":"","city":"Nur-Sultan","phone_numbers":"","county":"","state":"","country":"KAZ"},"geometry":{"type":"Point","coordinates":[71.499,51.11323]}},{"type":"Feature","properties":{"recId":"","facility_type_desc":"Residential Area/Building","seqLength":"","poi_name":"Zhk Royal park","houseNumber":"","street":"","street_type":"","city":"Nur-Sultan","phone_numbers":"","county":"","state":"","country":"KAZ"},"geometry":{"type":"Point","coordinates":[71.42086,51.06211]}},{"type":"Feature","properties":{"recId":"","facility_type_desc":"Residential Area/Building","seqLength":"","poi_name":"Zhk Al'-Arka","houseNumber":"","street":"","street_type":"","city":"Nur-Sultan","phone_numbers":"","county":"","state":"","country":"KAZ"},"geometry":{"type":"Point","coordinates":[71.43878,51.18305]}},{"type":"Feature","properties":{"recId":"","facility_type_desc":"Residential Area/Building","seqLength":"","poi_name":"Zhk Zere-2","houseNumber":"","street":"","street_type":"","city":"Nur-Sultan","phone_numbers":"","county":"","state":"","country":"KAZ"},"geometry":{"type":"Point","coordinates":[71.48363,51.12645]}},{"type":"Feature","properties":{"recId":"","facility_type_desc":"Residential Area/Building","seqLength":"","poi_name":"Grand Astana Turgin kesheny","houseNumber":"","street":"Шәмші Қалдаяқов","street_type":"көшесі","city":"Nur-Sultan","phone_numbers":"","county":"","state":"","country":"KAZ"},"geometry":{"type":"Point","coordinates":[71.462,51.11816]}},{"type":"Feature","properties":{"recId":"","facility_type_desc":"Residential Area/Building","seqLength":"","poi_name":"Triumfal'niy Turgin kesheny","houseNumber":"","street":"Триумфальный Тұрғын кешені","street_type":"","city":"Nur-Sultan","phone_numbers":"","county":"","state":"","country":"KAZ"},"geometry":{"type":"Point","coordinates":[71.41557,51.13738]}},{"type":"Feature","properties":{"recId":"","facility_type_desc":"Residential Area/Building","seqLength":"","poi_name":"Vozrozhdenie Turgin kesheny","houseNumber":"","street":"","street_type":"","city":"Nur-Sultan","phone_numbers":"","county":"","state":"","country":"KAZ"},"geometry":{"type":"Point","coordinates":[71.40347,51.17467]}},{"type":"Feature","properties":{"recId":"","facility_type_desc":"Residential Area/Building","seqLength":"","poi_name":"Zhk Lazurniy Bereg","houseNumber":"","street":"Шыңғыс Айтматов","street_type":"көшесі","city":"Nur-Sultan","phone_numbers":"","county":"","state":"","country":"KAZ"},"geometry":{"type":"Point","coordinates":[71.36644,51.14472]}},{"type":"Feature","properties":{"recId":"","facility_type_desc":"Residential Area/Building","seqLength":"","poi_name":"Zhk Komfort Taun","houseNumber":"","street":"38-ші","street_type":"көше","city":"Nur-Sultan","phone_numbers":"","county":"","state":"","country":"KAZ"},"geometry":{"type":"Point","coordinates":[71.44799,51.08807]}},{"type":"Feature","properties":{"recId":"","facility_type_desc":"Residential Area/Building","seqLength":"","poi_name":"Zhk Zhibek Zholy","houseNumber":"","street":"","street_type":"","city":"Nur-Sultan","phone_numbers":"","county":"","state":"","country":"KAZ"},"geometry":{"type":"Point","coordinates":[71.39506,51.17007]}},{"type":"Feature","properties":{"recId":"","facility_type_desc":"Residential Area/Building","seqLength":"","poi_name":"Kipshak Turgin Kesheny","houseNumber":"","street":"Ахмет Жұбанов","street_type":"көшесі","city":"Nur-Sultan","phone_numbers":"","county":"","state":"","country":"KAZ"},"geometry":{"type":"Point","coordinates":[71.46062,51.16277]}},{"type":"Feature","properties":{"recId":"","facility_type_desc":"Residential Area/Building","seqLength":"","poi_name":"Zhk Aygerim","houseNumber":"","street":"","street_type":"","city":"Nur-Sultan","phone_numbers":"","county":"","state":"","country":"KAZ"},"geometry":{"type":"Point","coordinates":[71.47521,51.14046]}},{"type":"Feature","properties":{"recId":"","facility_type_desc":"Residential Area/Building","seqLength":"","poi_name":"Sarmat turgin kesheny","houseNumber":"","street":"","street_type":"","city":"Nur-Sultan","phone_numbers":"","county":"","state":"","country":"KAZ"},"geometry":{"type":"Point","coordinates":[71.422,51.12192]}},{"type":"Feature","properties":{"recId":"","facility_type_desc":"Residential Area/Building","seqLength":"","poi_name":"Monblan turgin kesheny","houseNumber":"","street":"","street_type":"","city":"Nur-Sultan","phone_numbers":"","county":"","state":"","country":"KAZ"},"geometry":{"type":"Point","coordinates":[71.40079,51.16172]}},{"type":"Feature","properties":{"recId":"","facility_type_desc":"Residential Area/Building","seqLength":"","poi_name":"Zhk Etalon","houseNumber":"","street":"","street_type":"","city":"Nur-Sultan","phone_numbers":"","county":"","state":"","country":"KAZ"},"geometry":{"type":"Point","coordinates":[71.39116,51.17469]}},{"type":"Feature","properties":{"recId":"","facility_type_desc":"Residential Area/Building","seqLength":"","poi_name":"Mirniy Turgin kesheny","houseNumber":"","street":"","street_type":"","city":"Nur-Sultan","phone_numbers":"","county":"","state":"","country":"KAZ"},"geometry":{"type":"Point","coordinates":[71.40778,51.16434]}},{"type":"Feature","properties":{"recId":"","facility_type_desc":"Residential Area/Building","seqLength":"","poi_name":"Kaminniy Turgin kesheny","houseNumber":"","street":"","street_type":"","city":"Nur-Sultan","phone_numbers":"","county":"","state":"","country":"KAZ"},"geometry":{"type":"Point","coordinates":[71.44833,51.16811]}},{"type":"Feature","properties":{"recId":"","facility_type_desc":"Residential Area/Building","seqLength":"","poi_name":"Solnechniy Turgin kesheny","houseNumber":"","street":"Республика","street_type":"даңғылы","city":"Nur-Sultan","phone_numbers":"","county":"","state":"","country":"KAZ"},"geometry":{"type":"Point","coordinates":[71.42527,51.1729]}},{"type":"Feature","properties":{"recId":"","facility_type_desc":"Residential Area/Building","seqLength":"","poi_name":"Kaspian Palas Turgin kesheny","houseNumber":"","street":"Түркістан","street_type":"көшесі","city":"Nur-Sultan","phone_numbers":"","county":"","state":"","country":"KAZ"},"geometry":{"type":"Point","coordinates":[71.42978,51.12144]}},{"type":"Feature","properties":{"recId":"","facility_type_desc":"Residential Area/Building","seqLength":"","poi_name":"Interkontinental' Turgin kesheny","houseNumber":"","street":"","street_type":"","city":"Nur-Sultan","phone_numbers":"","county":"","state":"","country":"KAZ"},"geometry":{"type":"Point","coordinates":[71.43984,51.1697]}},{"type":"Feature","properties":{"recId":"","facility_type_desc":"Residential Area/Building","seqLength":"","poi_name":"Zhk Azat","houseNumber":"","street":"","street_type":"","city":"Nur-Sultan","phone_numbers":"","county":"","state":"","country":"KAZ"},"geometry":{"type":"Point","coordinates":[71.48392,51.14886]}},{"type":"Feature","properties":{"recId":"","facility_type_desc":"Residential Area/Building","seqLength":"","poi_name":"Zhk Gratsiya","houseNumber":"","street":"","street_type":"","city":"Nur-Sultan","phone_numbers":"","county":"","state":"","country":"KAZ"},"geometry":{"type":"Point","coordinates":[71.42272,51.11584]}},{"type":"Feature","properties":{"recId":"","facility_type_desc":"Residential Area/Building","seqLength":"","poi_name":"Zhastar-2 Turgin kesheny","houseNumber":"","street":"","street_type":"","city":"Nur-Sultan","phone_numbers":"","county":"","state":"","country":"KAZ"},"geometry":{"type":"Point","coordinates":[71.39995,51.16702]}},{"type":"Feature","properties":{"recId":"","facility_type_desc":"Residential Area/Building","seqLength":"","poi_name":"Zapad Turgin kesheny","houseNumber":"","street":"","street_type":"","city":"Nur-Sultan","phone_numbers":"","county":"","state":"","country":"KAZ"},"geometry":{"type":"Point","coordinates":[71.40174,51.16985]}},{"type":"Feature","properties":{"recId":"","facility_type_desc":"Residential Area/Building","seqLength":"","poi_name":"Sed'moy Kontinent Tü","houseNumber":"","street":"Аманкелді Иманов","street_type":"көшесі","city":"Nur-Sultan","phone_numbers":"","county":"","state":"","country":"KAZ"},"geometry":{"type":"Point","coordinates":[71.43488,51.16351]}},{"type":"Feature","properties":{"recId":"","facility_type_desc":"Residential Area/Building","seqLength":"","poi_name":"Skazochniy Mir Turgin kesheny","houseNumber":"","street":"Сказочный Мир Тұрғын кешені","street_type":"","city":"Nur-Sultan","phone_numbers":"","county":"","state":"","country":"KAZ"},"geometry":{"type":"Point","coordinates":[71.47799,51.12603]}},{"type":"Feature","properties":{"recId":"","facility_type_desc":"Residential Area/Building","seqLength":"","poi_name":"Zhetysu turgin kesheny","houseNumber":"","street":"Тұран","street_type":"даңғылы","city":"Nur-Sultan","phone_numbers":"","county":"","state":"","country":"KAZ"},"geometry":{"type":"Point","coordinates":[71.41304,51.15347]}},{"type":"Feature","properties":{"recId":"","facility_type_desc":"Residential Area/Building","seqLength":"","poi_name":"Zhk Prem'era","houseNumber":"","street":"","street_type":"","city":"Nur-Sultan","phone_numbers":"","county":"","state":"","country":"KAZ"},"geometry":{"type":"Point","coordinates":[71.41803,51.14166]}},{"type":"Feature","properties":{"recId":"","facility_type_desc":"Residential Area/Building","seqLength":"","poi_name":"Expo Boulevard 6","houseNumber":"","street":"","street_type":"","city":"Nur-Sultan","phone_numbers":"","county":"","state":"","country":"KAZ"},"geometry":{"type":"Point","coordinates":[71.40727,51.09656]}},{"type":"Feature","properties":{"recId":"","facility_type_desc":"Residential Area/Building","seqLength":"","poi_name":"Zhk Roza","houseNumber":"","street":"","street_type":"","city":"Nur-Sultan","phone_numbers":"","county":"","state":"","country":"KAZ"},"geometry":{"type":"Point","coordinates":[71.49742,51.12064]}},{"type":"Feature","properties":{"recId":"","facility_type_desc":"Residential Area/Building","seqLength":"","poi_name":"Zhk Bayan Sulu","houseNumber":"","street":"","street_type":"","city":"Nur-Sultan","phone_numbers":"","county":"","state":"","country":"KAZ"},"geometry":{"type":"Point","coordinates":[71.48776,51.12748]}},{"type":"Feature","properties":{"recId":"","facility_type_desc":"Residential Area/Building","seqLength":"","poi_name":"Zhk Aray","houseNumber":"","street":"","street_type":"","city":"Nur-Sultan","phone_numbers":"","county":"","state":"","country":"KAZ"},"geometry":{"type":"Point","coordinates":[71.50148,51.15188]}},{"type":"Feature","properties":{"recId":"","facility_type_desc":"Residential Area/Building","seqLength":"","poi_name":"Zhk Otrada","houseNumber":"","street":"","street_type":"","city":"Nur-Sultan","phone_numbers":"","county":"","state":"","country":"KAZ"},"geometry":{"type":"Point","coordinates":[71.41939,51.17786]}},{"type":"Feature","properties":{"recId":"","facility_type_desc":"Residential Area/Building","seqLength":"","poi_name":"Kraun plaza turgin kesheny","houseNumber":"","street":"Республика","street_type":"даңғылы","city":"Nur-Sultan","phone_numbers":"","county":"","state":"","country":"KAZ"},"geometry":{"type":"Point","coordinates":[71.42265,51.18157]}},{"type":"Feature","properties":{"recId":"","facility_type_desc":"Residential Area/Building","seqLength":"","poi_name":"Otandastar turgin kesheny","houseNumber":"","street":"Республика","street_type":"даңғылы","city":"Nur-Sultan","phone_numbers":"","county":"","state":"","country":"KAZ"},"geometry":{"type":"Point","coordinates":[71.42259,51.18176]}},{"type":"Feature","properties":{"recId":"","facility_type_desc":"Residential Area/Building","seqLength":"","poi_name":"Uyut turgin kesheny","houseNumber":"","street":"Республика","street_type":"даңғылы","city":"Nur-Sultan","phone_numbers":"","county":"","state":"","country":"KAZ"},"geometry":{"type":"Point","coordinates":[71.42264,51.18162]}},{"type":"Feature","properties":{"recId":"","facility_type_desc":"Residential Area/Building","seqLength":"","poi_name":"Zhk Orbita","houseNumber":"","street":"1-ші","street_type":"шағын аудан","city":"Nur-Sultan","phone_numbers":"","county":"","state":"","country":"KAZ"},"geometry":{"type":"Point","coordinates":[71.462,51.14886]}},{"type":"Feature","properties":{"recId":"","facility_type_desc":"Residential Area/Building","seqLength":"","poi_name":"Stolichniy türgin kesheny 2","houseNumber":"","street":"Бауыржан Момышұлы","street_type":"даңғылы","city":"Nur-Sultan","phone_numbers":"","county":"","state":"","country":"KAZ"},"geometry":{"type":"Point","coordinates":[71.48525,51.1418]}},{"type":"Feature","properties":{"recId":"","facility_type_desc":"Residential Area/Building","seqLength":"","poi_name":"Kaskad Turgin kesheny","houseNumber":"","street":"Шұбар","street_type":"","city":"Nur-Sultan","phone_numbers":"","county":"","state":"","country":"KAZ"},"geometry":{"type":"Point","coordinates":[71.42437,51.14545]}},{"type":"Feature","properties":{"recId":"","facility_type_desc":"Residential Area/Building","seqLength":"","poi_name":"Garant Turgin üy kesheny","houseNumber":"","street":"Ілияс Есенберлин","street_type":"көшесі","city":"Nur-Sultan","phone_numbers":"","county":"","state":"","country":"KAZ"},"geometry":{"type":"Point","coordinates":[71.41397,51.18909]}},{"type":"Feature","properties":{"recId":"","facility_type_desc":"Residential Area/Building","seqLength":"","poi_name":"Zhk Tulpar","houseNumber":"","street":"","street_type":"","city":"Nur-Sultan","phone_numbers":"","county":"","state":"","country":"KAZ"},"geometry":{"type":"Point","coordinates":[71.39871,51.17017]}},{"type":"Feature","properties":{"recId":"","facility_type_desc":"Residential Area/Building","seqLength":"","poi_name":"Mariya TK","houseNumber":"","street":"Бауыржан Момышұлы","street_type":"көшесі","city":"Nur-Sultan","phone_numbers":"","county":"","state":"","country":"KAZ"},"geometry":{"type":"Point","coordinates":[71.4778,51.13898]}},{"type":"Feature","properties":{"recId":"","facility_type_desc":"Residential Area/Building","seqLength":"","poi_name":"Expo Boulevard-3","houseNumber":"","street":"","street_type":"","city":"Nur-Sultan","phone_numbers":"","county":"","state":"","country":"KAZ"},"geometry":{"type":"Point","coordinates":[71.40706,51.09587]}},{"type":"Feature","properties":{"recId":"","facility_type_desc":"Residential Area/Building","seqLength":"","poi_name":"Zhk Daniya","houseNumber":"","street":"","street_type":"","city":"Nur-Sultan","phone_numbers":"","county":"","state":"","country":"KAZ"},"geometry":{"type":"Point","coordinates":[71.36911,51.14717]}},{"type":"Feature","properties":{"recId":"","facility_type_desc":"Residential Area/Building","seqLength":"","poi_name":"Premium Turgin kesheny","houseNumber":"","street":"","street_type":"","city":"Nur-Sultan","phone_numbers":"","county":"","state":"","country":"KAZ"},"geometry":{"type":"Point","coordinates":[71.43,51.13371]}},{"type":"Feature","properties":{"recId":"","facility_type_desc":"Residential Area/Building","seqLength":"","poi_name":"Altin Orda Turgin kesheny","houseNumber":"","street":"Самал","street_type":"шағын ауданы","city":"Nur-Sultan","phone_numbers":"","county":"","state":"","country":"KAZ"},"geometry":{"type":"Point","coordinates":[71.4297,51.1557]}},{"type":"Feature","properties":{"recId":"","facility_type_desc":"Residential Area/Building","seqLength":"","poi_name":"Severnoe Siyanie TK","houseNumber":"","street":"Достық","street_type":"көшесі","city":"Nur-Sultan","phone_numbers":"","county":"","state":"","country":"KAZ"},"geometry":{"type":"Point","coordinates":[71.42179,51.12755]}},{"type":"Feature","properties":{"recId":"","facility_type_desc":"Residential Area/Building","seqLength":"","poi_name":"Pobeda Turgin kesheny","houseNumber":"","street":"Әліби Жанкелдин","street_type":"көшесі","city":"Nur-Sultan","phone_numbers":"","county":"","state":"","country":"KAZ"},"geometry":{"type":"Point","coordinates":[71.41865,51.17365]}},{"type":"Feature","properties":{"recId":"","facility_type_desc":"Residential Area/Building","seqLength":"","poi_name":"Zhk Zhas Kanat","houseNumber":"","street":"","street_type":"","city":"Nur-Sultan","phone_numbers":"","county":"","state":"","country":"KAZ"},"geometry":{"type":"Point","coordinates":[71.49834,51.15077]}},{"type":"Feature","properties":{"recId":"","facility_type_desc":"Residential Area/Building","seqLength":"","poi_name":"Zhk Infiniti-2","houseNumber":"","street":"","street_type":"","city":"Nur-Sultan","phone_numbers":"","county":"","state":"","country":"KAZ"},"geometry":{"type":"Point","coordinates":[71.41429,51.11964]}},{"type":"Feature","properties":{"recId":"","facility_type_desc":"Residential Area/Building","seqLength":"","poi_name":"Zhk Ishim","houseNumber":"","street":"","street_type":"","city":"Nur-Sultan","phone_numbers":"","county":"","state":"","country":"KAZ"},"geometry":{"type":"Point","coordinates":[71.43969,51.11931]}},{"type":"Feature","properties":{"recId":"","facility_type_desc":"Residential Area/Building","seqLength":"","poi_name":"Zhk Kazakhstan","houseNumber":"","street":"","street_type":"","city":"Nur-Sultan","phone_numbers":"","county":"","state":"","country":"KAZ"},"geometry":{"type":"Point","coordinates":[71.37824,51.17138]}},{"type":"Feature","properties":{"recId":"","facility_type_desc":"Residential Area/Building","seqLength":"","poi_name":"Orbita Turgin Kesheny","houseNumber":"","street":"Күйші Дина","street_type":"көшесі","city":"Nur-Sultan","phone_numbers":"","county":"","state":"","country":"KAZ"},"geometry":{"type":"Point","coordinates":[71.46442,51.14612]}},{"type":"Feature","properties":{"recId":"","facility_type_desc":"Residential Area/Building","seqLength":"","poi_name":"Zhk Pamir","houseNumber":"","street":"Шыңғыс Айтматов","street_type":"көшесі","city":"Nur-Sultan","phone_numbers":"","county":"","state":"","country":"KAZ"},"geometry":{"type":"Point","coordinates":[71.3649,51.14001]}},{"type":"Feature","properties":{"recId":"","facility_type_desc":"Residential Area/Building","seqLength":"","poi_name":"Zhk Korgalzhinskiy kvartal","houseNumber":"","street":"Е-128","street_type":"көшесі","city":"Nur-Sultan","phone_numbers":"","county":"","state":"","country":"KAZ"},"geometry":{"type":"Point","coordinates":[71.34502,51.15415]}},{"type":"Feature","properties":{"recId":"","facility_type_desc":"Residential Area/Building","seqLength":"","poi_name":"Zhk Koktal","houseNumber":"","street":"Арқалық","street_type":"көшесі","city":"Nur-Sultan","phone_numbers":"","county":"","state":"","country":"KAZ"},"geometry":{"type":"Point","coordinates":[71.32553,51.19509]}},{"type":"Feature","properties":{"recId":"","facility_type_desc":"Residential Area/Building","seqLength":"","poi_name":"Zhk Eltay","houseNumber":"","street":"","street_type":"","city":"Nur-Sultan","phone_numbers":"","county":"","state":"","country":"KAZ"},"geometry":{"type":"Point","coordinates":[71.40221,51.16813]}},{"type":"Feature","properties":{"recId":"","facility_type_desc":"Residential Area/Building","seqLength":"","poi_name":"Magistral'niy Tü","houseNumber":"","street":"Бауыржан Момышұлы","street_type":"даңғылы","city":"Nur-Sultan","phone_numbers":"","county":"","state":"","country":"KAZ"},"geometry":{"type":"Point","coordinates":[71.47044,51.13801]}},{"type":"Feature","properties":{"recId":"","facility_type_desc":"Residential Area/Building","seqLength":"","poi_name":"Zhk Munar","houseNumber":"","street":"","street_type":"","city":"Nur-Sultan","phone_numbers":"","county":"","state":"","country":"KAZ"},"geometry":{"type":"Point","coordinates":[71.49562,51.15795]}},{"type":"Feature","properties":{"recId":"","facility_type_desc":"Residential Area/Building","seqLength":"","poi_name":"Evropeyskiy-2 Turgin kesheny","houseNumber":"","street":"Щорс","street_type":"көшесі","city":"Nur-Sultan","phone_numbers":"","county":"","state":"","country":"KAZ"},"geometry":{"type":"Point","coordinates":[71.40186,51.17391]}},{"type":"Feature","properties":{"recId":"","facility_type_desc":"Residential Area/Building","seqLength":"","poi_name":"Vodno-Zeleniy Bal'var TK","houseNumber":"","street":"Дінмұхамед Қонаев","street_type":"көшесі","city":"Nur-Sultan","phone_numbers":"","county":"","state":"","country":"KAZ"},"geometry":{"type":"Point","coordinates":[71.42704,51.13094]}},{"type":"Feature","properties":{"recId":"","facility_type_desc":"Residential Area/Building","seqLength":"","poi_name":"Baisanat","houseNumber":"","street":"Қарашаш Ана","street_type":"көшесі","city":"Nur-Sultan","phone_numbers":"","county":"","state":"","country":"KAZ"},"geometry":{"type":"Point","coordinates":[71.3985,51.14388]}},{"type":"Feature","properties":{"recId":"","facility_type_desc":"Residential Area/Building","seqLength":"","poi_name":"Zhk Skay Siti","houseNumber":"","street":"","street_type":"","city":"Nur-Sultan","phone_numbers":"","county":"","state":"","country":"KAZ"},"geometry":{"type":"Point","coordinates":[71.38563,51.1447]}},{"type":"Feature","properties":{"recId":"","facility_type_desc":"Residential Area/Building","seqLength":"","poi_name":"Shigis Turgin üy kesheny","houseNumber":"","street":"Орынбор","street_type":"көшесі","city":"Nur-Sultan","phone_numbers":"","county":"","state":"","country":"KAZ"},"geometry":{"type":"Point","coordinates":[71.37842,51.13024]}},{"type":"Feature","properties":{"recId":"","facility_type_desc":"Residential Area/Building","seqLength":"","poi_name":"Zhk Molodaya Sem'ya-2","houseNumber":"","street":"","street_type":"","city":"Nur-Sultan","phone_numbers":"","county":"","state":"","country":"KAZ"},"geometry":{"type":"Point","coordinates":[71.46394,51.16774]}},{"type":"Feature","properties":{"recId":"","facility_type_desc":"Residential Area/Building","seqLength":"","poi_name":"Crocus City","houseNumber":"","street":"","street_type":"","city":"Nur-Sultan","phone_numbers":"","county":"","state":"","country":"KAZ"},"geometry":{"type":"Point","coordinates":[71.41001,51.09919]}},{"type":"Feature","properties":{"recId":"","facility_type_desc":"Residential Area/Building","seqLength":"","poi_name":"Zhk London","houseNumber":"","street":"","street_type":"","city":"Nur-Sultan","phone_numbers":"","county":"","state":"","country":"KAZ"},"geometry":{"type":"Point","coordinates":[71.45474,51.11635]}},{"type":"Feature","properties":{"recId":"","facility_type_desc":"Residential Area/Building","seqLength":"","poi_name":"Zhk Kraun Plaza","houseNumber":"","street":"","street_type":"","city":"Nur-Sultan","phone_numbers":"","county":"","state":"","country":"KAZ"},"geometry":{"type":"Point","coordinates":[71.43171,51.12183]}},{"type":"Feature","properties":{"recId":"","facility_type_desc":"Residential Area/Building","seqLength":"","poi_name":"Kampus Turgin Kesheny","houseNumber":"","street":"","street_type":"","city":"Nur-Sultan","phone_numbers":"","county":"","state":"","country":"KAZ"},"geometry":{"type":"Point","coordinates":[71.4603,51.16136]}},{"type":"Feature","properties":{"recId":"","facility_type_desc":"Residential Area/Building","seqLength":"","poi_name":"Zhk akademiya","houseNumber":"","street":"","street_type":"","city":"Nur-Sultan","phone_numbers":"","county":"","state":"","country":"KAZ"},"geometry":{"type":"Point","coordinates":[71.3782,51.14656]}},{"type":"Feature","properties":{"recId":"","facility_type_desc":"Residential Area/Building","seqLength":"","poi_name":"Zhk Keruen","houseNumber":"","street":"150 Жыл Абай","street_type":"көшесі","city":"Nur-Sultan","phone_numbers":"","county":"","state":"","country":"KAZ"},"geometry":{"type":"Point","coordinates":[71.35595,51.18123]}},{"type":"Feature","properties":{"recId":"","facility_type_desc":"Residential Area/Building","seqLength":"","poi_name":"Aydidar Turgin kesheny","houseNumber":"","street":"Нұрғиса Тілендиев","street_type":"даңғылы","city":"Nur-Sultan","phone_numbers":"","county":"","state":"","country":"KAZ"},"geometry":{"type":"Point","coordinates":[71.3444,51.18886]}},{"type":"Feature","properties":{"recId":"","facility_type_desc":"Residential Area/Building","seqLength":"","poi_name":"Aziya plyus Turgin kesheny","houseNumber":"","street":"Нұрғиса Тілендиев","street_type":"даңғылы","city":"Nur-Sultan","phone_numbers":"","county":"","state":"","country":"KAZ"},"geometry":{"type":"Point","coordinates":[71.34429,51.18889]}},{"type":"Feature","properties":{"recId":"","facility_type_desc":"Residential Area/Building","seqLength":"","poi_name":"Zhk Barys-2","houseNumber":"","street":"","street_type":"","city":"Nur-Sultan","phone_numbers":"","county":"","state":"","country":"KAZ"},"geometry":{"type":"Point","coordinates":[71.49927,51.13195]}},{"type":"Feature","properties":{"recId":"","facility_type_desc":"Residential Area/Building","seqLength":"","poi_name":"Simfoniya Turgin kesheny","houseNumber":"","street":"Челюскинцев","street_type":"көшесі","city":"Nur-Sultan","phone_numbers":"","county":"","state":"","country":"KAZ"},"geometry":{"type":"Point","coordinates":[71.4074,51.16063]}},{"type":"Feature","properties":{"recId":"","facility_type_desc":"Residential Area/Building","seqLength":"","poi_name":"Zhk Akbulak","houseNumber":"","street":"","street_type":"","city":"Nur-Sultan","phone_numbers":"","county":"","state":"","country":"KAZ"},"geometry":{"type":"Point","coordinates":[71.46495,51.13545]}},{"type":"Feature","properties":{"recId":"","facility_type_desc":"Residential Area/Building","seqLength":"","poi_name":"Zhk Tabisti","houseNumber":"","street":"55-ші","street_type":"көше","city":"Nur-Sultan","phone_numbers":"","county":"","state":"","country":"KAZ"},"geometry":{"type":"Point","coordinates":[71.36234,51.14917]}},{"type":"Feature","properties":{"recId":"","facility_type_desc":"Residential Area/Building","seqLength":"","poi_name":"Zhk Enlik","houseNumber":"","street":"","street_type":"","city":"Nur-Sultan","phone_numbers":"","county":"","state":"","country":"KAZ"},"geometry":{"type":"Point","coordinates":[71.50346,51.15986]}},{"type":"Feature","properties":{"recId":"","facility_type_desc":"Residential Area/Building","seqLength":"","poi_name":"Zhk Zhasmin","houseNumber":"","street":"","street_type":"","city":"Nur-Sultan","phone_numbers":"","county":"","state":"","country":"KAZ"},"geometry":{"type":"Point","coordinates":[71.48721,51.16041]}},{"type":"Feature","properties":{"recId":"","facility_type_desc":"Residential Area/Building","seqLength":"","poi_name":"ZhK Dostik","houseNumber":"","street":"","street_type":"","city":"Nur-Sultan","phone_numbers":"","county":"","state":"","country":"KAZ"},"geometry":{"type":"Point","coordinates":[71.46772,51.14633]}},{"type":"Feature","properties":{"recId":"","facility_type_desc":"Residential Area/Building","seqLength":"","poi_name":"Zhk Viktoriya","houseNumber":"","street":"","street_type":"","city":"Nur-Sultan","phone_numbers":"","county":"","state":"","country":"KAZ"},"geometry":{"type":"Point","coordinates":[71.46005,51.1305]}},{"type":"Feature","properties":{"recId":"","facility_type_desc":"Residential Area/Building","seqLength":"","poi_name":"Zhk Turan","houseNumber":"","street":"","street_type":"","city":"Nur-Sultan","phone_numbers":"","county":"","state":"","country":"KAZ"},"geometry":{"type":"Point","coordinates":[71.45653,51.15941]}},{"type":"Feature","properties":{"recId":"","facility_type_desc":"Residential Area/Building","seqLength":"","poi_name":"VIP Gorodok Saranda","houseNumber":"","street":"","street_type":"","city":"Nur-Sultan","phone_numbers":"","county":"","state":"","country":"KAZ"},"geometry":{"type":"Point","coordinates":[71.4597,51.10081]}},{"type":"Feature","properties":{"recId":"","facility_type_desc":"Residential Area/Building","seqLength":"","poi_name":"Zhk Izumrudniy kvartal","houseNumber":"","street":"","street_type":"","city":"Nur-Sultan","phone_numbers":"","county":"","state":"","country":"KAZ"},"geometry":{"type":"Point","coordinates":[71.42466,51.13128]}},{"type":"Feature","properties":{"recId":"","facility_type_desc":"Residential Area/Building","seqLength":"","poi_name":"Zhk Verniy","houseNumber":"","street":"","street_type":"","city":"Nur-Sultan","phone_numbers":"","county":"","state":"","country":"KAZ"},"geometry":{"type":"Point","coordinates":[71.43291,51.17296]}},{"type":"Feature","properties":{"recId":"","facility_type_desc":"Residential Area/Building","seqLength":"","poi_name":"Triumf Astani TK","houseNumber":"","street":"Қабанбай батыр","street_type":"даңғылы","city":"Nur-Sultan","phone_numbers":"","county":"","state":"","country":"KAZ"},"geometry":{"type":"Point","coordinates":[71.41645,51.14038]}},{"type":"Feature","properties":{"recId":"","facility_type_desc":"Residential Area/Building","seqLength":"","poi_name":"Gorodskoy Romans Turgin kesheny","houseNumber":"","street":"Шәмші Қалдаяқов","street_type":"көшесі","city":"Nur-Sultan","phone_numbers":"","county":"","state":"","country":"KAZ"},"geometry":{"type":"Point","coordinates":[71.45455,51.11892]}},{"type":"Feature","properties":{"recId":"","facility_type_desc":"Residential Area/Building","seqLength":"","poi_name":"Zhk park Avenyu","houseNumber":"","street":"","street_type":"","city":"Nur-Sultan","phone_numbers":"","county":"","state":"","country":"KAZ"},"geometry":{"type":"Point","coordinates":[71.42607,51.10381]}},{"type":"Feature","properties":{"recId":"","facility_type_desc":"Residential Area/Building","seqLength":"","poi_name":"Zhk Krasnaya derevnya","houseNumber":"","street":"","street_type":"","city":"Nur-Sultan","phone_numbers":"","county":"","state":"","country":"KAZ"},"geometry":{"type":"Point","coordinates":[71.50475,51.14982]}},{"type":"Feature","properties":{"recId":"","facility_type_desc":"Residential Area/Building","seqLength":"","poi_name":"Zhk Korkem","houseNumber":"","street":"","street_type":"","city":"Nur-Sultan","phone_numbers":"","county":"","state":"","country":"KAZ"},"geometry":{"type":"Point","coordinates":[71.43327,51.11652]}},{"type":"Feature","properties":{"recId":"","facility_type_desc":"Residential Area/Building","seqLength":"","poi_name":"Zhk Tehnikum","houseNumber":"","street":"","street_type":"","city":"Nur-Sultan","phone_numbers":"","county":"","state":"","country":"KAZ"},"geometry":{"type":"Point","coordinates":[71.36322,51.15017]}},{"type":"Feature","properties":{"recId":"","facility_type_desc":"Residential Area/Building","seqLength":"","poi_name":"Zhk Otau","houseNumber":"","street":"","street_type":"","city":"Nur-Sultan","phone_numbers":"","county":"","state":"","country":"KAZ"},"geometry":{"type":"Point","coordinates":[71.50079,51.1538]}},{"type":"Feature","properties":{"recId":"","facility_type_desc":"Residential Area/Building","seqLength":"","poi_name":"Sensata","houseNumber":"","street":"Тұран","street_type":"даңғылы","city":"Nur-Sultan","phone_numbers":"","county":"","state":"","country":"KAZ"},"geometry":{"type":"Point","coordinates":[71.41047,51.14077]}},{"type":"Feature","properties":{"recId":"","facility_type_desc":"Residential Area/Building","seqLength":"","poi_name":"Al'bin Tü","houseNumber":"","street":"Қорғалжын","street_type":"тас жолы","city":"Nur-Sultan","phone_numbers":"","county":"","state":"","country":"KAZ"},"geometry":{"type":"Point","coordinates":[71.38449,51.14866]}},{"type":"Feature","properties":{"recId":"","facility_type_desc":"Residential Area/Building","seqLength":"","poi_name":"Nura Esil","houseNumber":"","street":"","street_type":"","city":"Nur-Sultan","phone_numbers":"","county":"","state":"","country":"KAZ"},"geometry":{"type":"Point","coordinates":[71.44697,51.09166]}},{"type":"Feature","properties":{"recId":"","facility_type_desc":"Residential Area/Building","seqLength":"","poi_name":"Zhk Komsomol'skiy","houseNumber":"","street":"Максута Нарикбаева","street_type":"улица","city":"Nur-Sultan","phone_numbers":"","county":"","state":"","country":"KAZ"},"geometry":{"type":"Point","coordinates":[71.38957,51.14081]}},{"type":"Feature","properties":{"recId":"","facility_type_desc":"Residential Area/Building","seqLength":"","poi_name":"Galamat Park","houseNumber":"","street":"","street_type":"","city":"Nur-Sultan","phone_numbers":"","county":"","state":"","country":"KAZ"},"geometry":{"type":"Point","coordinates":[71.40282,51.09942]}},{"type":"Feature","properties":{"recId":"","facility_type_desc":"Residential Area/Building","seqLength":"","poi_name":"Zhk Klabkhaus","houseNumber":"","street":"Алихана Бокейханова","street_type":"улица","city":"Nur-Sultan","phone_numbers":"","county":"","state":"","country":"KAZ"},"geometry":{"type":"Point","coordinates":[71.43127,51.09766]}},{"type":"Feature","properties":{"recId":"","facility_type_desc":"Residential Area/Building","seqLength":"","poi_name":"Park Avenue","houseNumber":"","street":"","street_type":"","city":"Nur-Sultan","phone_numbers":"","county":"","state":"","country":"KAZ"},"geometry":{"type":"Point","coordinates":[71.42608,51.10396]}},{"type":"Feature","properties":{"recId":"","facility_type_desc":"Residential Area/Building","seqLength":"","poi_name":"Zhk Zhagalau 4","houseNumber":"","street":"Е-16","street_type":"улица","city":"Nur-Sultan","phone_numbers":"","county":"","state":"","country":"KAZ"},"geometry":{"type":"Point","coordinates":[71.36574,51.12571]}},{"type":"Feature","properties":{"recId":"","facility_type_desc":"Residential Area/Building","seqLength":"","poi_name":"Samruk Towers","houseNumber":"","street":"","street_type":"","city":"Nur-Sultan","phone_numbers":"","county":"","state":"","country":"KAZ"},"geometry":{"type":"Point","coordinates":[71.38684,51.14073]}},{"type":"Feature","properties":{"recId":"","facility_type_desc":"Residential Area/Building","seqLength":"","poi_name":"Zhk Otandastar","houseNumber":"","street":"","street_type":"","city":"Nur-Sultan","phone_numbers":"","county":"","state":"","country":"KAZ"},"geometry":{"type":"Point","coordinates":[71.43137,51.1161]}},{"type":"Feature","properties":{"recId":"","facility_type_desc":"Residential Area/Building","seqLength":"","poi_name":"Alatau turgin kesheny","houseNumber":"","street":"Сығанақ","street_type":"көшесі","city":"Nur-Sultan","phone_numbers":"","county":"","state":"","country":"KAZ"},"geometry":{"type":"Point","coordinates":[71.42082,51.12435]}},{"type":"Feature","properties":{"recId":"","facility_type_desc":"Residential Area/Building","seqLength":"","poi_name":"Ishim turgin kesheny","houseNumber":"","street":"Сығанақ","street_type":"көшесі","city":"Nur-Sultan","phone_numbers":"","county":"","state":"","country":"KAZ"},"geometry":{"type":"Point","coordinates":[71.41962,51.12454]}},{"type":"Feature","properties":{"recId":"","facility_type_desc":"Residential Area/Building","seqLength":"","poi_name":"Art haus turgin kesheny","houseNumber":"","street":"Сығанақ","street_type":"көшесі","city":"Nur-Sultan","phone_numbers":"","county":"","state":"","country":"KAZ"},"geometry":{"type":"Point","coordinates":[71.42086,51.12435]}},{"type":"Feature","properties":{"recId":"","facility_type_desc":"Residential Area/Building","seqLength":"","poi_name":"Alen turgin kesheny","houseNumber":"","street":"Сәкен Сейфуллин","street_type":"көшесі","city":"Nur-Sultan","phone_numbers":"","county":"","state":"","country":"KAZ"},"geometry":{"type":"Point","coordinates":[71.45157,51.17275]}},{"type":"Feature","properties":{"recId":"","facility_type_desc":"Residential Area/Building","seqLength":"","poi_name":"Zhk Aziya Plyus","houseNumber":"","street":"","street_type":"","city":"Nur-Sultan","phone_numbers":"","county":"","state":"","country":"KAZ"},"geometry":{"type":"Point","coordinates":[71.47655,51.11782]}},{"type":"Feature","properties":{"recId":"","facility_type_desc":"Residential Area/Building","seqLength":"","poi_name":"Zhk Altyn Bosaga","houseNumber":"","street":"","street_type":"","city":"Nur-Sultan","phone_numbers":"","county":"","state":"","country":"KAZ"},"geometry":{"type":"Point","coordinates":[71.40085,51.1721]}},{"type":"Feature","properties":{"recId":"","facility_type_desc":"Residential Area/Building","seqLength":"","poi_name":"Zhk Maks Royal'","houseNumber":"","street":"Айша Бибі","street_type":"көшесі","city":"Nur-Sultan","phone_numbers":"","county":"","state":"","country":"KAZ"},"geometry":{"type":"Point","coordinates":[71.39224,51.14244]}},{"type":"Feature","properties":{"recId":"","facility_type_desc":"Residential Area/Building","seqLength":"","poi_name":"Expo Plaza B","houseNumber":"","street":"","street_type":"","city":"Nur-Sultan","phone_numbers":"","county":"","state":"","country":"KAZ"},"geometry":{"type":"Point","coordinates":[71.40971,51.0971]}},{"type":"Feature","properties":{"recId":"","facility_type_desc":"Residential Area/Building","seqLength":"","poi_name":"Shahar Turgin Kesheny","houseNumber":"","street":"","street_type":"","city":"Nur-Sultan","phone_numbers":"","county":"","state":"","country":"KAZ"},"geometry":{"type":"Point","coordinates":[71.43335,51.16149]}},{"type":"Feature","properties":{"recId":"","facility_type_desc":"Residential Area/Building","seqLength":"","poi_name":"Altay Turgin Kesheny","houseNumber":"","street":"","street_type":"","city":"Nur-Sultan","phone_numbers":"","county":"","state":"","country":"KAZ"},"geometry":{"type":"Point","coordinates":[71.45413,51.17265]}},{"type":"Feature","properties":{"recId":"","facility_type_desc":"Residential Area/Building","seqLength":"","poi_name":"Edel' TK","houseNumber":"","street":"","street_type":"","city":"Nur-Sultan","phone_numbers":"","county":"","state":"","country":"KAZ"},"geometry":{"type":"Point","coordinates":[71.40956,51.16145]}},{"type":"Feature","properties":{"recId":"","facility_type_desc":"Residential Area/Building","seqLength":"","poi_name":"Zhk Merey","houseNumber":"","street":"","street_type":"","city":"Nur-Sultan","phone_numbers":"","county":"","state":"","country":"KAZ"},"geometry":{"type":"Point","coordinates":[71.47723,51.14721]}},{"type":"Feature","properties":{"recId":"","facility_type_desc":"Residential Area/Building","seqLength":"","poi_name":"Sayran Turgin kesheny","houseNumber":"","street":"Сарыарқа","street_type":"даңғылы","city":"Nur-Sultan","phone_numbers":"","county":"","state":"","country":"KAZ"},"geometry":{"type":"Point","coordinates":[71.40672,51.17398]}},{"type":"Feature","properties":{"recId":"","facility_type_desc":"Residential Area/Building","seqLength":"","poi_name":"Uspeh Turgin kesheny","houseNumber":"","street":"Сарыарқа","street_type":"даңғылы","city":"Nur-Sultan","phone_numbers":"","county":"","state":"","country":"KAZ"},"geometry":{"type":"Point","coordinates":[71.40672,51.17398]}},{"type":"Feature","properties":{"recId":"","facility_type_desc":"Residential Area/Building","seqLength":"","poi_name":"Zhk Anfilada","houseNumber":"","street":"","street_type":"","city":"Nur-Sultan","phone_numbers":"","county":"","state":"","country":"KAZ"},"geometry":{"type":"Point","coordinates":[71.47983,51.14808]}},{"type":"Feature","properties":{"recId":"","facility_type_desc":"Residential Area/Building","seqLength":"","poi_name":"Zhk Za Rekoy","houseNumber":"","street":"23-ші","street_type":"көше","city":"Nur-Sultan","phone_numbers":"","county":"","state":"","country":"KAZ"},"geometry":{"type":"Point","coordinates":[71.43713,51.09936]}},{"type":"Feature","properties":{"recId":"","facility_type_desc":"Residential Area/Building","seqLength":"","poi_name":"Zhk Sultan Apartament","houseNumber":"","street":"","street_type":"","city":"Nur-Sultan","phone_numbers":"","county":"","state":"","country":"KAZ"},"geometry":{"type":"Point","coordinates":[71.43404,51.11149]}},{"type":"Feature","properties":{"recId":"","facility_type_desc":"Residential Area/Building","seqLength":"","poi_name":"Tumar Grand Village","houseNumber":"","street":"Тельман","street_type":"","city":"Nur-Sultan","phone_numbers":"","county":"","state":"","country":"KAZ"},"geometry":{"type":"Point","coordinates":[71.48621,51.09456]}},{"type":"Feature","properties":{"recId":"","facility_type_desc":"Residential Area/Building","seqLength":"","poi_name":"Zhk Everest","houseNumber":"","street":"","street_type":"","city":"Nur-Sultan","phone_numbers":"","county":"","state":"","country":"KAZ"},"geometry":{"type":"Point","coordinates":[71.45065,51.17515]}},{"type":"Feature","properties":{"recId":"","facility_type_desc":"Residential Area/Building","seqLength":"","poi_name":"Zhk po Yanushkevicha","houseNumber":"","street":"","street_type":"","city":"Nur-Sultan","phone_numbers":"","county":"","state":"","country":"KAZ"},"geometry":{"type":"Point","coordinates":[71.46006,51.15857]}},{"type":"Feature","properties":{"recId":"","facility_type_desc":"Residential Area/Building","seqLength":"","poi_name":"Viva plaza turgin kesheny","houseNumber":"","street":"","street_type":"","city":"Nur-Sultan","phone_numbers":"","county":"","state":"","country":"KAZ"},"geometry":{"type":"Point","coordinates":[71.42299,51.17936]}},{"type":"Feature","properties":{"recId":"","facility_type_desc":"Residential Area/Building","seqLength":"","poi_name":"Zhk Altyn Uya","houseNumber":"","street":"","street_type":"","city":"Nur-Sultan","phone_numbers":"","county":"","state":"","country":"KAZ"},"geometry":{"type":"Point","coordinates":[71.48037,51.11748]}},{"type":"Feature","properties":{"recId":"","facility_type_desc":"Residential Area/Building","seqLength":"","poi_name":"Zhk Sever Vs-2","houseNumber":"","street":"23-30","street_type":"улица","city":"Nur-Sultan","phone_numbers":"","county":"","state":"","country":"KAZ"},"geometry":{"type":"Point","coordinates":[71.50743,51.12643]}},{"type":"Feature","properties":{"recId":"","facility_type_desc":"Residential Area/Building","seqLength":"","poi_name":"Diva","houseNumber":"","street":"Қайым Мұхамедханов","street_type":"көшесі","city":"Nur-Sultan","phone_numbers":"","county":"","state":"","country":"KAZ"},"geometry":{"type":"Point","coordinates":[71.38057,51.14103]}},{"type":"Feature","properties":{"recId":"","facility_type_desc":"Residential Area/Building","seqLength":"","poi_name":"Zhk Abat","houseNumber":"","street":"","street_type":"","city":"Nur-Sultan","phone_numbers":"","county":"","state":"","country":"KAZ"},"geometry":{"type":"Point","coordinates":[71.36103,51.15451]}},{"type":"Feature","properties":{"recId":"","facility_type_desc":"Residential Area/Building","seqLength":"","poi_name":"Zhk Makhabbat-2","houseNumber":"","street":"","street_type":"","city":"Nur-Sultan","phone_numbers":"","county":"","state":"","country":"KAZ"},"geometry":{"type":"Point","coordinates":[71.40414,51.17911]}},{"type":"Feature","properties":{"recId":"","facility_type_desc":"Residential Area/Building","seqLength":"","poi_name":"Zhk Nuray","houseNumber":"","street":"","street_type":"","city":"Nur-Sultan","phone_numbers":"","county":"","state":"","country":"KAZ"},"geometry":{"type":"Point","coordinates":[71.46525,51.16904]}},{"type":"Feature","properties":{"recId":"","facility_type_desc":"Residential Area/Building","seqLength":"","poi_name":"Emirat Turgin kesheny","houseNumber":"","street":"","street_type":"","city":"Nur-Sultan","phone_numbers":"","county":"","state":"","country":"KAZ"},"geometry":{"type":"Point","coordinates":[71.4024,51.16028]}},{"type":"Feature","properties":{"recId":"","facility_type_desc":"Residential Area/Building","seqLength":"","poi_name":"Zhk AK Saray","houseNumber":"","street":"","street_type":"","city":"Nur-Sultan","phone_numbers":"","county":"","state":"","country":"KAZ"},"geometry":{"type":"Point","coordinates":[71.4024,51.14411]}},{"type":"Feature","properties":{"recId":"","facility_type_desc":"Residential Area/Building","seqLength":"","poi_name":"Zhk AK Saray-2","houseNumber":"","street":"","street_type":"","city":"Nur-Sultan","phone_numbers":"","county":"","state":"","country":"KAZ"},"geometry":{"type":"Point","coordinates":[71.40252,51.14423]}},{"type":"Feature","properties":{"recId":"","facility_type_desc":"Residential Area/Building","seqLength":"","poi_name":"Zhk Zerde","houseNumber":"","street":"","street_type":"","city":"Nur-Sultan","phone_numbers":"","county":"","state":"","country":"KAZ"},"geometry":{"type":"Point","coordinates":[71.47844,51.16308]}},{"type":"Feature","properties":{"recId":"","facility_type_desc":"Residential Area/Building","seqLength":"","poi_name":"Zhastar Turgin Kesheny","houseNumber":"","street":"Макарено","street_type":"қысқа көшесі","city":"Nur-Sultan","phone_numbers":"","county":"","state":"","country":"KAZ"},"geometry":{"type":"Point","coordinates":[71.45475,51.16174]}},{"type":"Feature","properties":{"recId":"","facility_type_desc":"Residential Area/Building","seqLength":"","poi_name":"Zhk Obereg","houseNumber":"","street":"Промышленный","street_type":"кенті","city":"Nur-Sultan","phone_numbers":"","county":"","state":"","country":"KAZ"},"geometry":{"type":"Point","coordinates":[71.54085,51.13306]}},{"type":"Feature","properties":{"recId":"","facility_type_desc":"Residential Area/Building","seqLength":"","poi_name":"Zhk Altin Bulak","houseNumber":"","street":"Энергетик","street_type":"кенті","city":"Nur-Sultan","phone_numbers":"","county":"","state":"","country":"KAZ"},"geometry":{"type":"Point","coordinates":[71.45934,51.14436]}},{"type":"Feature","properties":{"recId":"","facility_type_desc":"Residential Area/Building","seqLength":"","poi_name":"Zhk Olimp Palas-2","houseNumber":"","street":"","street_type":"","city":"Nur-Sultan","phone_numbers":"","county":"","state":"","country":"KAZ"},"geometry":{"type":"Point","coordinates":[71.4272,51.11277]}},{"type":"Feature","properties":{"recId":"","facility_type_desc":"Residential Area/Building","seqLength":"","poi_name":"Keremet Turgin Kesheny","houseNumber":"","street":"Е-251","street_type":"көшесі","city":"Nur-Sultan","phone_numbers":"","county":"","state":"","country":"KAZ"},"geometry":{"type":"Point","coordinates":[71.3747,51.14435]}},{"type":"Feature","properties":{"recId":"","facility_type_desc":"Residential Area/Building","seqLength":"","poi_name":"Zhk Zhastar-4","houseNumber":"","street":"","street_type":"","city":"Nur-Sultan","phone_numbers":"","county":"","state":"","country":"KAZ"},"geometry":{"type":"Point","coordinates":[71.50767,51.15362]}},{"type":"Feature","properties":{"recId":"","facility_type_desc":"Residential Area/Building","seqLength":"","poi_name":"Rahat Tü","houseNumber":"","street":"Мұхаммед Хайдар Дулати","street_type":"көшесі","city":"Nur-Sultan","phone_numbers":"","county":"","state":"","country":"KAZ"},"geometry":{"type":"Point","coordinates":[71.44153,51.1663]}},{"type":"Feature","properties":{"recId":"","facility_type_desc":"Residential Area/Building","seqLength":"","poi_name":"Parizhskiy Kvartal Turgin Kesheny","houseNumber":"","street":"","street_type":"","city":"Nur-Sultan","phone_numbers":"","county":"","state":"","country":"KAZ"},"geometry":{"type":"Point","coordinates":[71.44508,51.1489]}},{"type":"Feature","properties":{"recId":"","facility_type_desc":"Residential Area/Building","seqLength":"","poi_name":"Aq bulaq turgin kesheny","houseNumber":"","street":"Тәуелсіздік","street_type":"даңғылы","city":"Nur-Sultan","phone_numbers":"","county":"","state":"","country":"KAZ"},"geometry":{"type":"Point","coordinates":[71.45764,51.1489]}},{"type":"Feature","properties":{"recId":"","facility_type_desc":"Residential Area/Building","seqLength":"","poi_name":"Zhk Koktal-2","houseNumber":"","street":"Нұрғиса Тілендиев","street_type":"даңғылы","city":"Nur-Sultan","phone_numbers":"","county":"","state":"","country":"KAZ"},"geometry":{"type":"Point","coordinates":[71.32437,51.19375]}},