{"type":"FeatureCollection","features":[{"type":"Feature","properties":{"recId":"","facility_type_desc":"Pharmacy","seqLength":"","poi_name":"Däryhana","houseNumber":"","street":"","street_type":"","city":"Nur-Sultan","phone_numbers":"[]","county":"","state":"","country":"KAZ"},"geometry":{"type":"Point","coordinates":[71.50552,51.1501]}},{"type":"Feature","properties":{"recId":"","facility_type_desc":"Pharmacy","seqLength":"","poi_name":"Gippokrat","houseNumber":"","street":"","street_type":"","city":"Nur-Sultan","phone_numbers":"[]","county":"","state":"","country":"KAZ"},"geometry":{"type":"Point","coordinates":[71.42185,51.18596]}},{"type":"Feature","properties":{"recId":"","facility_type_desc":"Pharmacy","seqLength":"","poi_name":"Däryhana","houseNumber":"","street":"","street_type":"","city":"Nur-Sultan","phone_numbers":"[]","county":"","state":"","country":"KAZ"},"geometry":{"type":"Point","coordinates":[71.50132,51.1534]}},{"type":"Feature","properties":{"recId":"","facility_type_desc":"Pharmacy","seqLength":"","poi_name":"Däryhana","houseNumber":"","street":"Ғабит Мүсірепов","street_type":"көшесі","city":"Nur-Sultan","phone_numbers":"[]","county":"","state":"","country":"KAZ"},"geometry":{"type":"Point","coordinates":[71.50036,51.15203]}},{"type":"Feature","properties":{"recId":"","facility_type_desc":"Pharmacy","seqLength":"","poi_name":"Zhardem","houseNumber":"","street":"Аққұм","street_type":"көшесі","city":"Nur-Sultan","phone_numbers":"[\"7172-529228\"]","county":"","state":"","country":"KAZ"},"geometry":{"type":"Point","coordinates":[71.43912,51.1078]}},{"type":"Feature","properties":{"recId":"","facility_type_desc":"Pharmacy","seqLength":"","poi_name":"Tsvetnaya","houseNumber":"","street":"Достық","street_type":"көшесі","city":"Nur-Sultan","phone_numbers":"[\"7172-558039\"]","county":"","state":"","country":"KAZ"},"geometry":{"type":"Point","coordinates":[71.42509,51.12702]}},{"type":"Feature","properties":{"recId":"","facility_type_desc":"Pharmacy","seqLength":"","poi_name":"Vita+","houseNumber":"","street":"5-ші","street_type":"шағын аудан","city":"Nur-Sultan","phone_numbers":"[]","county":"","state":"","country":"KAZ"},"geometry":{"type":"Point","coordinates":[71.4788,51.14987]}},{"type":"Feature","properties":{"recId":"","facility_type_desc":"Pharmacy","seqLength":"","poi_name":"Däryhana","houseNumber":"","street":"Әліби Жанкелдин","street_type":"көшесі","city":"Nur-Sultan","phone_numbers":"[]","county":"","state":"","country":"KAZ"},"geometry":{"type":"Point","coordinates":[71.41517,51.17326]}},{"type":"Feature","properties":{"recId":"","facility_type_desc":"Pharmacy","seqLength":"","poi_name":"Däryhana","houseNumber":"","street":"Сәкен Жүнісов","street_type":"көшесі","city":"Nur-Sultan","phone_numbers":"[]","county":"","state":"","country":"KAZ"},"geometry":{"type":"Point","coordinates":[71.42753,51.17651]}},{"type":"Feature","properties":{"recId":"","facility_type_desc":"Pharmacy","seqLength":"","poi_name":"Maksima Farm","houseNumber":"","street":"5-ші","street_type":"шағын аудан","city":"Nur-Sultan","phone_numbers":"[]","county":"","state":"","country":"KAZ"},"geometry":{"type":"Point","coordinates":[71.47772,51.14853]}},{"type":"Feature","properties":{"recId":"","facility_type_desc":"Pharmacy","seqLength":"","poi_name":"Däryhana","houseNumber":"","street":"Міржақып Дұлатұлы","street_type":"көшесі","city":"Nur-Sultan","phone_numbers":"[]","county":"","state":"","country":"KAZ"},"geometry":{"type":"Point","coordinates":[71.36048,51.20457]}},{"type":"Feature","properties":{"recId":"","facility_type_desc":"Pharmacy","seqLength":"","poi_name":"Shigis","houseNumber":"","street":"Коргалжынское","street_type":"шоссе","city":"Nur-Sultan","phone_numbers":"[\"7172-573277\"]","county":"","state":"","country":"KAZ"},"geometry":{"type":"Point","coordinates":[71.38968,51.14866]}},{"type":"Feature","properties":{"recId":"","facility_type_desc":"Pharmacy","seqLength":"","poi_name":"Pekan","houseNumber":"","street":"","street_type":"","city":"Nur-Sultan","phone_numbers":"[\"7172-336229\"]","county":"","state":"","country":"KAZ"},"geometry":{"type":"Point","coordinates":[71.5019,51.15429]}},{"type":"Feature","properties":{"recId":"","facility_type_desc":"Pharmacy","seqLength":"","poi_name":"Medical Assistance Group","houseNumber":"","street":"","street_type":"","city":"Nur-Sultan","phone_numbers":"[]","county":"","state":"","country":"KAZ"},"geometry":{"type":"Point","coordinates":[71.42657,51.12536]}},{"type":"Feature","properties":{"recId":"","facility_type_desc":"Pharmacy","seqLength":"","poi_name":"Kemelpharm","houseNumber":"","street":"","street_type":"","city":"Nur-Sultan","phone_numbers":"[]","county":"","state":"","country":"KAZ"},"geometry":{"type":"Point","coordinates":[71.40153,51.16797]}},{"type":"Feature","properties":{"recId":"","facility_type_desc":"Pharmacy","seqLength":"","poi_name":"Immuno Plyus Farm","houseNumber":"","street":"","street_type":"","city":"Nur-Sultan","phone_numbers":"[\"7172-293639\"]","county":"","state":"","country":"KAZ"},"geometry":{"type":"Point","coordinates":[71.42219,51.12503]}},{"type":"Feature","properties":{"recId":"","facility_type_desc":"Pharmacy","seqLength":"","poi_name":"Gippokrat","houseNumber":"","street":"Сакена Сейфуллина","street_type":"улица","city":"Nur-Sultan","phone_numbers":"[\"7172-396000\",\"7172-396161\"]","county":"","state":"","country":"KAZ"},"geometry":{"type":"Point","coordinates":[71.45153,51.17277]}},{"type":"Feature","properties":{"recId":"","facility_type_desc":"Pharmacy","seqLength":"","poi_name":"Däryhana","houseNumber":"","street":"Кеңжебек Кұмысбеков","street_type":"көшесі","city":"Nur-Sultan","phone_numbers":"[]","county":"","state":"","country":"KAZ"},"geometry":{"type":"Point","coordinates":[71.39917,51.16769]}},{"type":"Feature","properties":{"recId":"","facility_type_desc":"Pharmacy","seqLength":"","poi_name":"Sauliq","houseNumber":"","street":"1-ші","street_type":"шағын аудан","city":"Nur-Sultan","phone_numbers":"[]","county":"","state":"","country":"KAZ"},"geometry":{"type":"Point","coordinates":[71.46585,51.14762]}},{"type":"Feature","properties":{"recId":"","facility_type_desc":"Pharmacy","seqLength":"","poi_name":"Amanat farm","houseNumber":"","street":"Ілияс Есенберлин","street_type":"көшесі","city":"Nur-Sultan","phone_numbers":"[]","county":"","state":"","country":"KAZ"},"geometry":{"type":"Point","coordinates":[71.41107,51.18998]}},{"type":"Feature","properties":{"recId":"","facility_type_desc":"Pharmacy","seqLength":"","poi_name":"Däryhana","houseNumber":"","street":"","street_type":"","city":"Nur-Sultan","phone_numbers":"[]","county":"","state":"","country":"KAZ"},"geometry":{"type":"Point","coordinates":[71.47618,51.15733]}},{"type":"Feature","properties":{"recId":"","facility_type_desc":"Pharmacy","seqLength":"","poi_name":"FarmaKom","houseNumber":"","street":"","street_type":"","city":"Nur-Sultan","phone_numbers":"[]","county":"","state":"","country":"KAZ"},"geometry":{"type":"Point","coordinates":[71.41095,51.18204]}},{"type":"Feature","properties":{"recId":"","facility_type_desc":"Pharmacy","seqLength":"","poi_name":"Däryhana","houseNumber":"","street":"Айнакөл","street_type":"көшесі","city":"Nur-Sultan","phone_numbers":"[]","county":"","state":"","country":"KAZ"},"geometry":{"type":"Point","coordinates":[71.48944,51.12984]}},{"type":"Feature","properties":{"recId":"","facility_type_desc":"Pharmacy","seqLength":"","poi_name":"Däryhana","houseNumber":"","street":"Қорғалжын","street_type":"тас жолы","city":"Nur-Sultan","phone_numbers":"[]","county":"","state":"","country":"KAZ"},"geometry":{"type":"Point","coordinates":[71.39355,51.14812]}},{"type":"Feature","properties":{"recId":"","facility_type_desc":"Pharmacy","seqLength":"","poi_name":"Dzhemi","houseNumber":"","street":"Қорғалжын","street_type":"тас жолы","city":"Nur-Sultan","phone_numbers":"[]","county":"","state":"","country":"KAZ"},"geometry":{"type":"Point","coordinates":[71.39433,51.14802]}},{"type":"Feature","properties":{"recId":"","facility_type_desc":"Pharmacy","seqLength":"","poi_name":"Däryhana","houseNumber":"","street":"Жеңіс","street_type":"даңғылы","city":"Nur-Sultan","phone_numbers":"[]","county":"","state":"","country":"KAZ"},"geometry":{"type":"Point","coordinates":[71.41049,51.17799]}},{"type":"Feature","properties":{"recId":"","facility_type_desc":"Pharmacy","seqLength":"","poi_name":"24 Chasa","houseNumber":"","street":"Қаныш Сәтбаев","street_type":"көшесі","city":"Nur-Sultan","phone_numbers":"[]","county":"","state":"","country":"KAZ"},"geometry":{"type":"Point","coordinates":[71.4785,51.13757]}},{"type":"Feature","properties":{"recId":"","facility_type_desc":"Pharmacy","seqLength":"","poi_name":"Däryhana","houseNumber":"","street":"Әнуар Әлімжанов","street_type":"көшесі","city":"Nur-Sultan","phone_numbers":"[]","county":"","state":"","country":"KAZ"},"geometry":{"type":"Point","coordinates":[71.44656,51.17497]}},{"type":"Feature","properties":{"recId":"","facility_type_desc":"Pharmacy","seqLength":"","poi_name":"Däryhana","houseNumber":"","street":"","street_type":"","city":"Nur-Sultan","phone_numbers":"[\"7172-569629\"]","county":"","state":"","country":"KAZ"},"geometry":{"type":"Point","coordinates":[71.43929,51.18302]}},{"type":"Feature","properties":{"recId":"","facility_type_desc":"Pharmacy","seqLength":"","poi_name":"Gamma Farm","houseNumber":"","street":"","street_type":"","city":"Nur-Sultan","phone_numbers":"[]","county":"","state":"","country":"KAZ"},"geometry":{"type":"Point","coordinates":[71.43929,51.18302]}},{"type":"Feature","properties":{"recId":"","facility_type_desc":"Pharmacy","seqLength":"","poi_name":99,"houseNumber":"","street":"","street_type":"","city":"Nur-Sultan","phone_numbers":"[\"7172-381854\"]","county":"","state":"","country":"KAZ"},"geometry":{"type":"Point","coordinates":[71.40872,51.18201]}},{"type":"Feature","properties":{"recId":"","facility_type_desc":"Pharmacy","seqLength":"","poi_name":"Däryhana","houseNumber":"","street":"","street_type":"","city":"Nur-Sultan","phone_numbers":"[]","county":"","state":"","country":"KAZ"},"geometry":{"type":"Point","coordinates":[71.47699,51.16918]}},{"type":"Feature","properties":{"recId":"","facility_type_desc":"Pharmacy","seqLength":"","poi_name":"Neopharm","houseNumber":"","street":"Бауыржан Момышұлы","street_type":"көшесі","city":"Nur-Sultan","phone_numbers":"[]","county":"","state":"","country":"KAZ"},"geometry":{"type":"Point","coordinates":[71.47915,51.13908]}},{"type":"Feature","properties":{"recId":"","facility_type_desc":"Pharmacy","seqLength":"","poi_name":"Ot A Do Ya","houseNumber":"","street":"Қараөткел","street_type":"","city":"Nur-Sultan","phone_numbers":"[]","county":"","state":"","country":"KAZ"},"geometry":{"type":"Point","coordinates":[71.48215,51.14023]}},{"type":"Feature","properties":{"recId":"","facility_type_desc":"Pharmacy","seqLength":"","poi_name":"Gippokrat","houseNumber":"","street":"","street_type":"","city":"Nur-Sultan","phone_numbers":"[]","county":"","state":"","country":""},"geometry":{"type":"Point","coordinates":[71.4506,51.17394]}},{"type":"Feature","properties":{"recId":"","facility_type_desc":"Pharmacy","seqLength":"","poi_name":"Oyiq Farm","houseNumber":"","street":"Бауыржан Момышұлы","street_type":"даңғылы","city":"Nur-Sultan","phone_numbers":"[]","county":"","state":"","country":""},"geometry":{"type":"Point","coordinates":[71.47925,51.14002]}},{"type":"Feature","properties":{"recId":"","facility_type_desc":"Pharmacy","seqLength":"","poi_name":"Däryhana","houseNumber":"","street":"Кенесары","street_type":"көшесі","city":"Nur-Sultan","phone_numbers":"[]","county":"","state":"","country":""},"geometry":{"type":"Point","coordinates":[71.44858,51.16736]}},{"type":"Feature","properties":{"recId":"","facility_type_desc":"Pharmacy","seqLength":"","poi_name":"Däryhana","houseNumber":"","street":"Шәмші Қалдаяқов","street_type":"көшесі","city":"Nur-Sultan","phone_numbers":"[]","county":"","state":"","country":""},"geometry":{"type":"Point","coordinates":[71.45604,51.11908]}},{"type":"Feature","properties":{"recId":"","facility_type_desc":"Pharmacy","seqLength":"","poi_name":"Gippokrat","houseNumber":"","street":"Железнодорожный","street_type":"кенті","city":"Nur-Sultan","phone_numbers":"[]","county":"","state":"","country":""},"geometry":{"type":"Point","coordinates":[71.56771,51.1462]}},{"type":"Feature","properties":{"recId":"","facility_type_desc":"Pharmacy","seqLength":"","poi_name":"Däryhana","houseNumber":"","street":"Бұрабай","street_type":"көшесі","city":"Nur-Sultan","phone_numbers":"[]","county":"","state":"","country":""},"geometry":{"type":"Point","coordinates":[71.51573,51.14977]}},{"type":"Feature","properties":{"recId":"","facility_type_desc":"Pharmacy","seqLength":"","poi_name":"Däryhana","houseNumber":"","street":"","street_type":"","city":"Nur-Sultan","phone_numbers":"[\"7172-496021\"]","county":"","state":"","country":""},"geometry":{"type":"Point","coordinates":[71.43733,51.1679]}},{"type":"Feature","properties":{"recId":"","facility_type_desc":"Pharmacy","seqLength":"","poi_name":"Prim-A","houseNumber":"","street":"","street_type":"","city":"Nur-Sultan","phone_numbers":"[]","county":"","state":"","country":""},"geometry":{"type":"Point","coordinates":[71.4736,51.16478]}},{"type":"Feature","properties":{"recId":"","facility_type_desc":"Pharmacy","seqLength":"","poi_name":"Däryhana","houseNumber":"","street":"Шұбар","street_type":"","city":"Nur-Sultan","phone_numbers":"[]","county":"","state":"","country":""},"geometry":{"type":"Point","coordinates":[71.42447,51.14608]}},{"type":"Feature","properties":{"recId":"","facility_type_desc":"Pharmacy","seqLength":"","poi_name":"Ekofarm","houseNumber":"","street":"Александр Янушкевич","street_type":"көшесі","city":"Nur-Sultan","phone_numbers":"[]","county":"","state":"","country":""},"geometry":{"type":"Point","coordinates":[71.46384,51.16196]}},{"type":"Feature","properties":{"recId":"","facility_type_desc":"Pharmacy","seqLength":"","poi_name":"Däryhana","houseNumber":"","street":"Ілияс Есенберлин","street_type":"көшесі","city":"Nur-Sultan","phone_numbers":"[]","county":"","state":"","country":""},"geometry":{"type":"Point","coordinates":[71.41227,51.1896]}},{"type":"Feature","properties":{"recId":"","facility_type_desc":"Pharmacy","seqLength":"","poi_name":"Däryhana","houseNumber":"","street":"Шарбақты","street_type":"көшесі","city":"Nur-Sultan","phone_numbers":"[]","county":"","state":"","country":""},"geometry":{"type":"Point","coordinates":[71.53013,51.13099]}},{"type":"Feature","properties":{"recId":"","facility_type_desc":"Pharmacy","seqLength":"","poi_name":"Däryhana","houseNumber":"","street":"Петров","street_type":"көшесі","city":"Nur-Sultan","phone_numbers":"[]","county":"","state":"","country":""},"geometry":{"type":"Point","coordinates":[71.46949,51.14904]}},{"type":"Feature","properties":{"recId":"","facility_type_desc":"Pharmacy","seqLength":"","poi_name":"Medeu","houseNumber":"","street":"Петров","street_type":"көшесі","city":"Nur-Sultan","phone_numbers":"[]","county":"","state":"","country":""},"geometry":{"type":"Point","coordinates":[71.46929,51.149]}},{"type":"Feature","properties":{"recId":"","facility_type_desc":"Pharmacy","seqLength":"","poi_name":"Gippokrat","houseNumber":"","street":"Тарас Шевченко","street_type":"көшесі","city":"Nur-Sultan","phone_numbers":"[\"7172-682797\"]","county":"","state":"","country":""},"geometry":{"type":"Point","coordinates":[71.40546,51.15996]}},{"type":"Feature","properties":{"recId":"","facility_type_desc":"Pharmacy","seqLength":"","poi_name":"Däryhana","houseNumber":"","street":"Тәуелсіздік","street_type":"даңғылы","city":"Nur-Sultan","phone_numbers":"[]","county":"","state":"","country":""},"geometry":{"type":"Point","coordinates":[71.46927,51.12586]}},{"type":"Feature","properties":{"recId":"","facility_type_desc":"Pharmacy","seqLength":"","poi_name":"Däryhana","houseNumber":"","street":"Космонавтар","street_type":"көшесі","city":"Nur-Sultan","phone_numbers":"[]","county":"","state":"","country":""},"geometry":{"type":"Point","coordinates":[71.4272,51.1449]}},{"type":"Feature","properties":{"recId":"","facility_type_desc":"Pharmacy","seqLength":"","poi_name":"Europharma","houseNumber":"","street":"Абай","street_type":"даңғылы","city":"Nur-Sultan","phone_numbers":"[\"7172-216201\"]","county":"","state":"","country":""},"geometry":{"type":"Point","coordinates":[71.43739,51.16965]}},{"type":"Feature","properties":{"recId":"","facility_type_desc":"Pharmacy","seqLength":"","poi_name":"Tsvetnaya","houseNumber":"","street":"Абай","street_type":"даңғылы","city":"Nur-Sultan","phone_numbers":"[]","county":"","state":"","country":""},"geometry":{"type":"Point","coordinates":[71.43746,51.16965]}},{"type":"Feature","properties":{"recId":"","facility_type_desc":"Pharmacy","seqLength":"","poi_name":"Däryhana","houseNumber":"","street":"Сейдалина","street_type":"көшесі","city":"Nur-Sultan","phone_numbers":"[]","county":"","state":"","country":""},"geometry":{"type":"Point","coordinates":[71.37712,51.17833]}},{"type":"Feature","properties":{"recId":"","facility_type_desc":"Pharmacy","seqLength":"","poi_name":"Avitsena","houseNumber":"","street":"Жастар","street_type":"шағын ауданы","city":"Nur-Sultan","phone_numbers":"[]","county":"","state":"","country":""},"geometry":{"type":"Point","coordinates":[71.44103,51.15746]}},{"type":"Feature","properties":{"recId":"","facility_type_desc":"Pharmacy","seqLength":"","poi_name":"Däryhana","houseNumber":"","street":"","street_type":"","city":"Nur-Sultan","phone_numbers":"[]","county":"","state":"","country":""},"geometry":{"type":"Point","coordinates":[71.4521,51.16277]}},{"type":"Feature","properties":{"recId":"","facility_type_desc":"Pharmacy","seqLength":"","poi_name":"Däryhana","houseNumber":"","street":"Мұхамет-Салық Бабажанов","street_type":"көшесі","city":"Nur-Sultan","phone_numbers":"[]","county":"","state":"","country":""},"geometry":{"type":"Point","coordinates":[71.23812,51.12437]}},{"type":"Feature","properties":{"recId":"","facility_type_desc":"Pharmacy","seqLength":"","poi_name":"Salamat","houseNumber":"","street":"Мұхамет-Салық Бабажанов","street_type":"көшесі","city":"Nur-Sultan","phone_numbers":"[]","county":"","state":"","country":""},"geometry":{"type":"Point","coordinates":[71.23812,51.12437]}},{"type":"Feature","properties":{"recId":"","facility_type_desc":"Pharmacy","seqLength":"","poi_name":"Däryhana","houseNumber":"","street":"","street_type":"","city":"Nur-Sultan","phone_numbers":"[]","county":"","state":"","country":""},"geometry":{"type":"Point","coordinates":[71.4203,51.1723]}},{"type":"Feature","properties":{"recId":"","facility_type_desc":"Pharmacy","seqLength":"","poi_name":"Däryhana al'fa med","houseNumber":"","street":"Сәкен Сейфуллин","street_type":"көшесі","city":"Nur-Sultan","phone_numbers":"[]","county":"","state":"","country":""},"geometry":{"type":"Point","coordinates":[71.40115,51.16824]}},{"type":"Feature","properties":{"recId":"","facility_type_desc":"Pharmacy","seqLength":"","poi_name":"Däryhana","houseNumber":"","street":"Сәкен Сейфуллин","street_type":"көшесі","city":"Nur-Sultan","phone_numbers":"[]","county":"","state":"","country":""},"geometry":{"type":"Point","coordinates":[71.40115,51.16824]}},{"type":"Feature","properties":{"recId":"","facility_type_desc":"Pharmacy","seqLength":"","poi_name":"Däryhana","houseNumber":"","street":"Жеңіс","street_type":"даңғылы","city":"Nur-Sultan","phone_numbers":"[]","county":"","state":"","country":""},"geometry":{"type":"Point","coordinates":[71.41343,51.16784]}},{"type":"Feature","properties":{"recId":"","facility_type_desc":"Pharmacy","seqLength":"","poi_name":99,"houseNumber":"","street":"Жеңіс","street_type":"даңғылы","city":"Nur-Sultan","phone_numbers":"[]","county":"","state":"","country":""},"geometry":{"type":"Point","coordinates":[71.4134,51.16793]}},{"type":"Feature","properties":{"recId":"","facility_type_desc":"Pharmacy","seqLength":"","poi_name":"Däryhana","houseNumber":"","street":"Кенесары","street_type":"көшесі","city":"Nur-Sultan","phone_numbers":"[]","county":"","state":"","country":""},"geometry":{"type":"Point","coordinates":[71.42069,51.16464]}},{"type":"Feature","properties":{"recId":"","facility_type_desc":"Pharmacy","seqLength":"","poi_name":"Al'famed","houseNumber":"","street":"Жеңіс","street_type":"даңғылы","city":"Nur-Sultan","phone_numbers":"[]","county":"","state":"","country":""},"geometry":{"type":"Point","coordinates":[71.40715,51.18972]}},{"type":"Feature","properties":{"recId":"","facility_type_desc":"Pharmacy","seqLength":"","poi_name":"Gippokrat","houseNumber":"","street":"Сәкен Сейфуллин","street_type":"көшесі","city":"Nur-Sultan","phone_numbers":"[]","county":"","state":"","country":""},"geometry":{"type":"Point","coordinates":[71.39966,51.16833]}},{"type":"Feature","properties":{"recId":"","facility_type_desc":"Pharmacy","seqLength":"","poi_name":"Däryhana","houseNumber":"","street":"Сәкен Сейфуллин","street_type":"көшесі","city":"Nur-Sultan","phone_numbers":"[]","county":"","state":"","country":""},"geometry":{"type":"Point","coordinates":[71.40003,51.16834]}},{"type":"Feature","properties":{"recId":"","facility_type_desc":"Pharmacy","seqLength":"","poi_name":"Hrizolit Kz","houseNumber":"","street":"34-ші","street_type":"көше","city":"Nur-Sultan","phone_numbers":"[\"7172-538764\"]","county":"","state":"","country":""},"geometry":{"type":"Point","coordinates":[71.4037,51.20912]}},{"type":"Feature","properties":{"recId":"","facility_type_desc":"Pharmacy","seqLength":"","poi_name":"Däryhana","houseNumber":"","street":"","street_type":"","city":"Nur-Sultan","phone_numbers":"[]","county":"","state":"","country":""},"geometry":{"type":"Point","coordinates":[71.42217,51.11621]}},{"type":"Feature","properties":{"recId":"","facility_type_desc":"Pharmacy","seqLength":"","poi_name":"Moy Lyubimiy Doktor","houseNumber":"","street":"","street_type":"","city":"Nur-Sultan","phone_numbers":"[\"7172-469131\"]","county":"","state":"","country":""},"geometry":{"type":"Point","coordinates":[71.48781,51.1581]}},{"type":"Feature","properties":{"recId":"","facility_type_desc":"Pharmacy","seqLength":"","poi_name":"Apteka. Com","houseNumber":"","street":"Сырымбет","street_type":"көшесі","city":"Nur-Sultan","phone_numbers":"[]","county":"","state":"","country":""},"geometry":{"type":"Point","coordinates":[71.48499,51.14127]}},{"type":"Feature","properties":{"recId":"","facility_type_desc":"Pharmacy","seqLength":"","poi_name":"Zharbulova G. M.","houseNumber":"","street":"Сырымбет","street_type":"көшесі","city":"Nur-Sultan","phone_numbers":"[\"7172-404950\"]","county":"","state":"","country":""},"geometry":{"type":"Point","coordinates":[71.48499,51.14127]}},{"type":"Feature","properties":{"recId":"","facility_type_desc":"Pharmacy","seqLength":"","poi_name":"Däryhana","houseNumber":"","street":"Сырымбет","street_type":"көшесі","city":"Nur-Sultan","phone_numbers":"[]","county":"","state":"","country":""},"geometry":{"type":"Point","coordinates":[71.48504,51.1412]}},{"type":"Feature","properties":{"recId":"","facility_type_desc":"Pharmacy","seqLength":"","poi_name":"Medilab smart","houseNumber":"","street":"Қорғалжын","street_type":"тас жолы","city":"Nur-Sultan","phone_numbers":"[\"7172-797004\"]","county":"","state":"","country":""},"geometry":{"type":"Point","coordinates":[71.39178,51.14838]}},{"type":"Feature","properties":{"recId":"","facility_type_desc":"Pharmacy","seqLength":"","poi_name":"Ulibka Stolitsi","houseNumber":"","street":"Академик К. Скрябин","street_type":"бульвары","city":"Nur-Sultan","phone_numbers":"[\"7172-317234\"]","county":"","state":"","country":""},"geometry":{"type":"Point","coordinates":[71.41638,51.18038]}},{"type":"Feature","properties":{"recId":"","facility_type_desc":"Pharmacy","seqLength":"","poi_name":"Bayaristan K","houseNumber":"","street":"Бауыржан Момышұлы","street_type":"даңғылы","city":"Nur-Sultan","phone_numbers":"[\"7172-436397\"]","county":"","state":"","country":""},"geometry":{"type":"Point","coordinates":[71.48089,51.14097]}},{"type":"Feature","properties":{"recId":"","facility_type_desc":"Pharmacy","seqLength":"","poi_name":"Arna","houseNumber":"","street":"Бауыржан Момышұлы","street_type":"даңғылы","city":"Nur-Sultan","phone_numbers":"[]","county":"","state":"","country":""},"geometry":{"type":"Point","coordinates":[71.48089,51.14097]}},{"type":"Feature","properties":{"recId":"","facility_type_desc":"Pharmacy","seqLength":"","poi_name":"Däryhana","houseNumber":"","street":"Бауыржан Момышұлы","street_type":"даңғылы","city":"Nur-Sultan","phone_numbers":"[]","county":"","state":"","country":""},"geometry":{"type":"Point","coordinates":[71.48093,51.14097]}},{"type":"Feature","properties":{"recId":"","facility_type_desc":"Pharmacy","seqLength":"","poi_name":"Gippokrat","houseNumber":"","street":"","street_type":"","city":"Nur-Sultan","phone_numbers":"[]","county":"","state":"","country":""},"geometry":{"type":"Point","coordinates":[71.4409,51.17346]}},{"type":"Feature","properties":{"recId":"","facility_type_desc":"Pharmacy","seqLength":"","poi_name":"Gippokrat","houseNumber":"","street":"Республика","street_type":"даңғылы","city":"Nur-Sultan","phone_numbers":"[]","county":"","state":"","country":""},"geometry":{"type":"Point","coordinates":[71.42097,51.18803]}},{"type":"Feature","properties":{"recId":"","facility_type_desc":"Pharmacy","seqLength":"","poi_name":"Däryhana","houseNumber":"","street":"Аманкелді Иманов","street_type":"көшесі","city":"Nur-Sultan","phone_numbers":"[]","county":"","state":"","country":""},"geometry":{"type":"Point","coordinates":[71.4258,51.1624]}},{"type":"Feature","properties":{"recId":"","facility_type_desc":"Pharmacy","seqLength":"","poi_name":"Tsvetnaya","houseNumber":"","street":"Энергетик","street_type":"кенті","city":"Nur-Sultan","phone_numbers":"[]","county":"","state":"","country":""},"geometry":{"type":"Point","coordinates":[71.45552,51.14636]}},{"type":"Feature","properties":{"recId":"","facility_type_desc":"Pharmacy","seqLength":"","poi_name":"Däryhana","houseNumber":"","street":"Сәкен Сейфуллин","street_type":"көшесі","city":"Nur-Sultan","phone_numbers":"[\"7172-238480\"]","county":"","state":"","country":""},"geometry":{"type":"Point","coordinates":[71.41169,51.16977]}},{"type":"Feature","properties":{"recId":"","facility_type_desc":"Pharmacy","seqLength":"","poi_name":"Aglana","houseNumber":"","street":"Сәкен Сейфуллин","street_type":"көшесі","city":"Nur-Sultan","phone_numbers":"[\"7172-568177\"]","county":"","state":"","country":""},"geometry":{"type":"Point","coordinates":[71.41192,51.1698]}},{"type":"Feature","properties":{"recId":"","facility_type_desc":"Pharmacy","seqLength":"","poi_name":"Biosfera","houseNumber":"","street":"Сәкен Сейфуллин","street_type":"көшесі","city":"Nur-Sultan","phone_numbers":"[]","county":"","state":"","country":""},"geometry":{"type":"Point","coordinates":[71.41192,51.1698]}},{"type":"Feature","properties":{"recId":"","facility_type_desc":"Pharmacy","seqLength":"","poi_name":"Däryhana","houseNumber":"","street":"","street_type":"","city":"Nur-Sultan","phone_numbers":"[]","county":"","state":"","country":""},"geometry":{"type":"Point","coordinates":[71.46542,51.19325]}},{"type":"Feature","properties":{"recId":"","facility_type_desc":"Pharmacy","seqLength":"","poi_name":"Inkar","houseNumber":"","street":"","street_type":"","city":"Nur-Sultan","phone_numbers":"[]","county":"","state":"","country":""},"geometry":{"type":"Point","coordinates":[71.46522,51.19317]}},{"type":"Feature","properties":{"recId":"","facility_type_desc":"Pharmacy","seqLength":"","poi_name":"Ay Farmatsiya","houseNumber":"","street":"Куйши Дина","street_type":"улица","city":"Nur-Sultan","phone_numbers":"[\"7172-312219\"]","county":"","state":"","country":""},"geometry":{"type":"Point","coordinates":[71.48158,51.14904]}},{"type":"Feature","properties":{"recId":"","facility_type_desc":"Pharmacy","seqLength":"","poi_name":"Däryhana","houseNumber":"","street":"","street_type":"","city":"Nur-Sultan","phone_numbers":"[]","county":"","state":"","country":""},"geometry":{"type":"Point","coordinates":[71.47772,51.14788]}},{"type":"Feature","properties":{"recId":"","facility_type_desc":"Pharmacy","seqLength":"","poi_name":"Konis-Farm","houseNumber":"","street":"","street_type":"","city":"Nur-Sultan","phone_numbers":"[]","county":"","state":"","country":""},"geometry":{"type":"Point","coordinates":[71.43166,51.12111]}},{"type":"Feature","properties":{"recId":"","facility_type_desc":"Pharmacy","seqLength":"","poi_name":"Däryhana","houseNumber":"","street":"Шалкөде","street_type":"көшесі","city":"Nur-Sultan","phone_numbers":"[]","county":"","state":"","country":""},"geometry":{"type":"Point","coordinates":[71.52141,51.12293]}},{"type":"Feature","properties":{"recId":"","facility_type_desc":"Pharmacy","seqLength":"","poi_name":"Däryhana","houseNumber":"","street":"Шоқан Уәлиханов","street_type":"көшесі","city":"Nur-Sultan","phone_numbers":"[]","county":"","state":"","country":""},"geometry":{"type":"Point","coordinates":[71.4396,51.16813]}},{"type":"Feature","properties":{"recId":"","facility_type_desc":"Pharmacy","seqLength":"","poi_name":"Gippokrat","houseNumber":"","street":"Асан Кайгы","street_type":"улица","city":"Nur-Sultan","phone_numbers":"[\"7172-396000\",\"7172-396161\"]","county":"","state":"","country":""},"geometry":{"type":"Point","coordinates":[71.44583,51.1623]}},{"type":"Feature","properties":{"recId":"","facility_type_desc":"Pharmacy","seqLength":"","poi_name":"Däryhana","houseNumber":"","street":"Сарысу","street_type":"көшесі","city":"Nur-Sultan","phone_numbers":"[]","county":"","state":"","country":""},"geometry":{"type":"Point","coordinates":[71.47531,51.17671]}},{"type":"Feature","properties":{"recId":"","facility_type_desc":"Pharmacy","seqLength":"","poi_name":"Däryhana","houseNumber":"","street":"Абай","street_type":"даңғылы","city":"Nur-Sultan","phone_numbers":"[]","county":"","state":"","country":""},"geometry":{"type":"Point","coordinates":[71.46276,51.16624]}},{"type":"Feature","properties":{"recId":"","facility_type_desc":"Pharmacy","seqLength":"","poi_name":"Däryhana","houseNumber":"","street":"Дулат Бабатайұлы","street_type":"көшесі","city":"Nur-Sultan","phone_numbers":"[]","county":"","state":"","country":""},"geometry":{"type":"Point","coordinates":[71.34036,51.18364]}},{"type":"Feature","properties":{"recId":"","facility_type_desc":"Pharmacy","seqLength":"","poi_name":"Däryhana","houseNumber":"","street":"Қабанбай батыр","street_type":"даңғылы","city":"Nur-Sultan","phone_numbers":"[]","county":"","state":"","country":""},"geometry":{"type":"Point","coordinates":[71.41278,51.12409]}},{"type":"Feature","properties":{"recId":"","facility_type_desc":"Pharmacy","seqLength":"","poi_name":"Gamma Farm","houseNumber":"","street":"","street_type":"","city":"Nur-Sultan","phone_numbers":"[]","county":"","state":"","country":""},"geometry":{"type":"Point","coordinates":[71.41132,51.19409]}},{"type":"Feature","properties":{"recId":"","facility_type_desc":"Pharmacy","seqLength":"","poi_name":"Ansar-Medfarm","houseNumber":"","street":"","street_type":"","city":"Nur-Sultan","phone_numbers":"[\"7172-422004\"]","county":"","state":"","country":""},"geometry":{"type":"Point","coordinates":[71.42566,51.17704]}},{"type":"Feature","properties":{"recId":"","facility_type_desc":"Pharmacy","seqLength":"","poi_name":"Gippokrat","houseNumber":"","street":"Ақарыс","street_type":"көшесі","city":"Nur-Sultan","phone_numbers":"[]","county":"","state":"","country":""},"geometry":{"type":"Point","coordinates":[71.50986,51.15167]}},{"type":"Feature","properties":{"recId":"","facility_type_desc":"Pharmacy","seqLength":"","poi_name":"Oyiq farm","houseNumber":"","street":"Еңлік-Кебек","street_type":"көшесі","city":"Nur-Sultan","phone_numbers":"[]","county":"","state":"","country":""},"geometry":{"type":"Point","coordinates":[71.44152,51.17362]}},{"type":"Feature","properties":{"recId":"","facility_type_desc":"Pharmacy","seqLength":"","poi_name":99,"houseNumber":"","street":"Қарасай батыр","street_type":"көшесі","city":"Nur-Sultan","phone_numbers":"[]","county":"","state":"","country":""},"geometry":{"type":"Point","coordinates":[71.39151,51.19896]}},{"type":"Feature","properties":{"recId":"","facility_type_desc":"Pharmacy","seqLength":"","poi_name":"Sanita","houseNumber":"","street":"Ақан Сері","street_type":"көшесі","city":"Nur-Sultan","phone_numbers":"[]","county":"","state":"","country":""},"geometry":{"type":"Point","coordinates":[71.3764,51.18339]}},{"type":"Feature","properties":{"recId":"","facility_type_desc":"Pharmacy","seqLength":"","poi_name":"Däryhana","houseNumber":"","street":"Оқжетпес","street_type":"көшесі","city":"Nur-Sultan","phone_numbers":"[]","county":"","state":"","country":""},"geometry":{"type":"Point","coordinates":[71.36368,51.19719]}},{"type":"Feature","properties":{"recId":"","facility_type_desc":"Pharmacy","seqLength":"","poi_name":"Tinis","houseNumber":"","street":"Сыдық Мұхамеджанов","street_type":"көшесі","city":"Nur-Sultan","phone_numbers":"[]","county":"","state":"","country":""},"geometry":{"type":"Point","coordinates":[71.38754,51.1833]}},{"type":"Feature","properties":{"recId":"","facility_type_desc":"Pharmacy","seqLength":"","poi_name":"Europharma","houseNumber":"","street":"Бақтыораз Бейсекбаев","street_type":"көшесі","city":"Nur-Sultan","phone_numbers":"[\"7172-695188\"]","county":"","state":"","country":""},"geometry":{"type":"Point","coordinates":[71.45755,51.16876]}},{"type":"Feature","properties":{"recId":"","facility_type_desc":"Pharmacy","seqLength":"","poi_name":"Shipager","houseNumber":"","street":"Абай","street_type":"даңғылы","city":"Nur-Sultan","phone_numbers":"[]","county":"","state":"","country":""},"geometry":{"type":"Point","coordinates":[71.44042,51.16997]}},{"type":"Feature","properties":{"recId":"","facility_type_desc":"Pharmacy","seqLength":"","poi_name":"Däryhana","houseNumber":"","street":"","street_type":"","city":"Nur-Sultan","phone_numbers":"[]","county":"","state":"","country":""},"geometry":{"type":"Point","coordinates":[71.38609,51.16571]}},{"type":"Feature","properties":{"recId":"","facility_type_desc":"Pharmacy","seqLength":"","poi_name":"Däryhana","houseNumber":"","street":"","street_type":"","city":"Nur-Sultan","phone_numbers":"[]","county":"","state":"","country":""},"geometry":{"type":"Point","coordinates":[71.49753,51.15076]}},{"type":"Feature","properties":{"recId":"","facility_type_desc":"Pharmacy","seqLength":"","poi_name":"Biosfera","houseNumber":"","street":"Малика Габдуллина","street_type":"улица","city":"Nur-Sultan","phone_numbers":"[\"7172-280061\",\"7172-680537\"]","county":"","state":"","country":""},"geometry":{"type":"Point","coordinates":[71.43186,51.16455]}},{"type":"Feature","properties":{"recId":"","facility_type_desc":"Pharmacy","seqLength":"","poi_name":"Biofarm","houseNumber":"","street":"Мұхтар Әуезов","street_type":"көшесі","city":"Nur-Sultan","phone_numbers":"[]","county":"","state":"","country":""},"geometry":{"type":"Point","coordinates":[71.42291,51.17227]}},{"type":"Feature","properties":{"recId":"","facility_type_desc":"Pharmacy","seqLength":"","poi_name":"Däryhana","houseNumber":"","street":"Мұхтар Әуезов","street_type":"көшесі","city":"Nur-Sultan","phone_numbers":"[]","county":"","state":"","country":""},"geometry":{"type":"Point","coordinates":[71.42289,51.17236]}},{"type":"Feature","properties":{"recId":"","facility_type_desc":"Pharmacy","seqLength":"","poi_name":"Däryhana","houseNumber":"","street":"Малахов","street_type":"көшесі","city":"Nur-Sultan","phone_numbers":"[]","county":"","state":"","country":""},"geometry":{"type":"Point","coordinates":[71.38184,51.20955]}},{"type":"Feature","properties":{"recId":"","facility_type_desc":"Pharmacy","seqLength":"","poi_name":"Däryhana","houseNumber":"","street":"Күйші Дина","street_type":"көшесі","city":"Nur-Sultan","phone_numbers":"[]","county":"","state":"","country":""},"geometry":{"type":"Point","coordinates":[71.49048,51.15675]}},{"type":"Feature","properties":{"recId":"","facility_type_desc":"Pharmacy","seqLength":"","poi_name":"Feniks","houseNumber":"","street":"Вольфганг Гёте","street_type":"көшесі","city":"Nur-Sultan","phone_numbers":"[]","county":"","state":"","country":""},"geometry":{"type":"Point","coordinates":[71.40994,51.19402]}},{"type":"Feature","properties":{"recId":"","facility_type_desc":"Pharmacy","seqLength":"","poi_name":99,"houseNumber":"","street":"Аманкелді Иманов","street_type":"көшесі","city":"Nur-Sultan","phone_numbers":"[]","county":"","state":"","country":""},"geometry":{"type":"Point","coordinates":[71.42546,51.16236]}},{"type":"Feature","properties":{"recId":"","facility_type_desc":"Pharmacy","seqLength":"","poi_name":"Gippokrat","houseNumber":"","street":"Аманкелді Иманов","street_type":"көшесі","city":"Nur-Sultan","phone_numbers":"[]","county":"","state":"","country":""},"geometry":{"type":"Point","coordinates":[71.42535,51.16234]}},{"type":"Feature","properties":{"recId":"","facility_type_desc":"Pharmacy","seqLength":"","poi_name":"Däryhana","houseNumber":"","street":"Ғабит Мүсірепов","street_type":"көшесі","city":"Nur-Sultan","phone_numbers":"[]","county":"","state":"","country":""},"geometry":{"type":"Point","coordinates":[71.50566,51.15748]}},{"type":"Feature","properties":{"recId":"","facility_type_desc":"Pharmacy","seqLength":"","poi_name":"Däryhana","houseNumber":"","street":"","street_type":"","city":"Nur-Sultan","phone_numbers":"[]","county":"","state":"","country":""},"geometry":{"type":"Point","coordinates":[71.49109,51.15372]}},{"type":"Feature","properties":{"recId":"","facility_type_desc":"Pharmacy","seqLength":"","poi_name":"Däryhana","houseNumber":"","street":"","street_type":"","city":"Nur-Sultan","phone_numbers":"[]","county":"","state":"","country":""},"geometry":{"type":"Point","coordinates":[71.40622,51.16505]}},{"type":"Feature","properties":{"recId":"","facility_type_desc":"Pharmacy","seqLength":"","poi_name":"Europharma","houseNumber":"","street":"","street_type":"","city":"Nur-Sultan","phone_numbers":"[\"7172-978410\"]","county":"","state":"","country":""},"geometry":{"type":"Point","coordinates":[71.39227,51.16764]}},{"type":"Feature","properties":{"recId":"","facility_type_desc":"Pharmacy","seqLength":"","poi_name":"Murat-Farm","houseNumber":"","street":"Бөгенбай батыр","street_type":"даңғылы","city":"Nur-Sultan","phone_numbers":"[\"7172-317752\"]","county":"","state":"","country":""},"geometry":{"type":"Point","coordinates":[71.41431,51.17626]}},{"type":"Feature","properties":{"recId":"","facility_type_desc":"Pharmacy","seqLength":"","poi_name":"Gippokrat","houseNumber":"","street":"Абай","street_type":"даңғылы","city":"Nur-Sultan","phone_numbers":"[]","county":"","state":"","country":""},"geometry":{"type":"Point","coordinates":[71.437,51.1696]}},{"type":"Feature","properties":{"recId":"","facility_type_desc":"Pharmacy","seqLength":"","poi_name":"Däryhana","houseNumber":"","street":"Қаныш Сәтбаев","street_type":"көшесі","city":"Nur-Sultan","phone_numbers":"[]","county":"","state":"","country":""},"geometry":{"type":"Point","coordinates":[71.47746,51.13901]}},{"type":"Feature","properties":{"recId":"","facility_type_desc":"Pharmacy","seqLength":"","poi_name":"Däryhana","houseNumber":"","street":"Қаныш Сәтбаев","street_type":"көшесі","city":"Nur-Sultan","phone_numbers":"[]","county":"","state":"","country":""},"geometry":{"type":"Point","coordinates":[71.47742,51.13913]}},{"type":"Feature","properties":{"recId":"","facility_type_desc":"Pharmacy","seqLength":"","poi_name":"Glyukoza","houseNumber":"","street":"","street_type":"","city":"Nur-Sultan","phone_numbers":"[]","county":"","state":"","country":""},"geometry":{"type":"Point","coordinates":[71.43791,51.16726]}},{"type":"Feature","properties":{"recId":"","facility_type_desc":"Pharmacy","seqLength":"","poi_name":"Feniks Fk","houseNumber":"","street":"","street_type":"","city":"Nur-Sultan","phone_numbers":"[]","county":"","state":"","country":""},"geometry":{"type":"Point","coordinates":[71.44013,51.17097]}},{"type":"Feature","properties":{"recId":"","facility_type_desc":"Pharmacy","seqLength":"","poi_name":"Ms Pharm","houseNumber":"","street":"Әлия Молдағұлова","street_type":"көшесі","city":"Nur-Sultan","phone_numbers":"[]","county":"","state":"","country":""},"geometry":{"type":"Point","coordinates":[71.42016,51.1866]}},{"type":"Feature","properties":{"recId":"","facility_type_desc":"Pharmacy","seqLength":"","poi_name":"Däryhana","houseNumber":"","street":"","street_type":"","city":"Nur-Sultan","phone_numbers":"[]","county":"","state":"","country":""},"geometry":{"type":"Point","coordinates":[71.50675,51.15786]}},{"type":"Feature","properties":{"recId":"","facility_type_desc":"Pharmacy","seqLength":"","poi_name":"Doktor Plyus","houseNumber":"","street":"","street_type":"","city":"Nur-Sultan","phone_numbers":"[\"7172-398276\"]","county":"","state":"","country":""},"geometry":{"type":"Point","coordinates":[71.41569,51.18451]}},{"type":"Feature","properties":{"recId":"","facility_type_desc":"Pharmacy","seqLength":"","poi_name":"Däryhana","houseNumber":"","street":"","street_type":"","city":"Nur-Sultan","phone_numbers":"[]","county":"","state":"","country":""},"geometry":{"type":"Point","coordinates":[71.45195,51.16137]}},{"type":"Feature","properties":{"recId":"","facility_type_desc":"Pharmacy","seqLength":"","poi_name":"Nur-A","houseNumber":"","street":"","street_type":"","city":"Nur-Sultan","phone_numbers":"[\"7172-628595\"]","county":"","state":"","country":""},"geometry":{"type":"Point","coordinates":[71.46313,51.16674]}},{"type":"Feature","properties":{"recId":"","facility_type_desc":"Pharmacy","seqLength":"","poi_name":"Däryhana","houseNumber":"","street":"Әлия Молдағұлова","street_type":"көшесі","city":"Nur-Sultan","phone_numbers":"[]","county":"","state":"","country":""},"geometry":{"type":"Point","coordinates":[71.40592,51.18499]}},{"type":"Feature","properties":{"recId":"","facility_type_desc":"Pharmacy","seqLength":"","poi_name":"Däryhana","houseNumber":"","street":"Самал","street_type":"шағын ауданы","city":"Nur-Sultan","phone_numbers":"[]","county":"","state":"","country":""},"geometry":{"type":"Point","coordinates":[71.42963,51.15326]}},{"type":"Feature","properties":{"recId":"","facility_type_desc":"Pharmacy","seqLength":"","poi_name":"Maksima farm","houseNumber":"","street":"Самал","street_type":"шағын ауданы","city":"Nur-Sultan","phone_numbers":"[]","county":"","state":"","country":""},"geometry":{"type":"Point","coordinates":[71.42946,51.15315]}},{"type":"Feature","properties":{"recId":"","facility_type_desc":"Pharmacy","seqLength":"","poi_name":"Däryhana 9","houseNumber":"","street":"Әлмұқан Сембинов","street_type":"көшесі","city":"Nur-Sultan","phone_numbers":"[]","county":"","state":"","country":""},"geometry":{"type":"Point","coordinates":[71.44974,51.16905]}},{"type":"Feature","properties":{"recId":"","facility_type_desc":"Pharmacy","seqLength":"","poi_name":"Däryhana","houseNumber":"","street":"Әлмұқан Сембинов","street_type":"көшесі","city":"Nur-Sultan","phone_numbers":"[]","county":"","state":"","country":""},"geometry":{"type":"Point","coordinates":[71.44976,51.16907]}},{"type":"Feature","properties":{"recId":"","facility_type_desc":"Pharmacy","seqLength":"","poi_name":"Europharma","houseNumber":"","street":"Жәнібек Тархан","street_type":"көшесі","city":"Nur-Sultan","phone_numbers":"[]","county":"","state":"","country":""},"geometry":{"type":"Point","coordinates":[71.45706,51.15884]}},{"type":"Feature","properties":{"recId":"","facility_type_desc":"Pharmacy","seqLength":"","poi_name":"Däryhana","houseNumber":"","street":"","street_type":"","city":"Nur-Sultan","phone_numbers":"[]","county":"","state":"","country":""},"geometry":{"type":"Point","coordinates":[71.42615,51.12721]}},{"type":"Feature","properties":{"recId":"","facility_type_desc":"Pharmacy","seqLength":"","poi_name":"Tsvetnaya","houseNumber":"","street":"","street_type":"","city":"Nur-Sultan","phone_numbers":"[]","county":"","state":"","country":""},"geometry":{"type":"Point","coordinates":[71.42627,51.1275]}},{"type":"Feature","properties":{"recId":"","facility_type_desc":"Pharmacy","seqLength":"","poi_name":"Aspirin","houseNumber":"","street":"","street_type":"","city":"Nur-Sultan","phone_numbers":"[\"7172-998783\"]","county":"","state":"","country":""},"geometry":{"type":"Point","coordinates":[71.49174,51.12639]}},{"type":"Feature","properties":{"recId":"","facility_type_desc":"Pharmacy","seqLength":"","poi_name":"Däryhana","houseNumber":"","street":"5-ші","street_type":"шағын аудан","city":"Nur-Sultan","phone_numbers":"[]","county":"","state":"","country":""},"geometry":{"type":"Point","coordinates":[71.47756,51.14817]}},{"type":"Feature","properties":{"recId":"","facility_type_desc":"Pharmacy","seqLength":"","poi_name":"Europharma","houseNumber":"","street":"5-ші","street_type":"шағын аудан","city":"Nur-Sultan","phone_numbers":"[]","county":"","state":"","country":""},"geometry":{"type":"Point","coordinates":[71.47737,51.14811]}},{"type":"Feature","properties":{"recId":"","facility_type_desc":"Pharmacy","seqLength":"","poi_name":"Medtehnika","houseNumber":"","street":"Шолпан Иманбаева","street_type":"көшесі","city":"Nur-Sultan","phone_numbers":"[]","county":"","state":"","country":""},"geometry":{"type":"Point","coordinates":[71.43473,51.16471]}},{"type":"Feature","properties":{"recId":"","facility_type_desc":"Pharmacy","seqLength":"","poi_name":"Ars","houseNumber":"","street":"","street_type":"","city":"Nur-Sultan","phone_numbers":"[]","county":"","state":"","country":""},"geometry":{"type":"Point","coordinates":[71.4076,51.16323]}},{"type":"Feature","properties":{"recId":"","facility_type_desc":"Pharmacy","seqLength":"","poi_name":"Däryhana","houseNumber":"","street":"Алаш","street_type":"тас жолы","city":"Nur-Sultan","phone_numbers":"[]","county":"","state":"","country":""},"geometry":{"type":"Point","coordinates":[71.46699,51.19499]}},{"type":"Feature","properties":{"recId":"","facility_type_desc":"Pharmacy","seqLength":"","poi_name":"Qazpharm","houseNumber":"","street":"Алаш","street_type":"тас жолы","city":"Nur-Sultan","phone_numbers":"[]","county":"","state":"","country":""},"geometry":{"type":"Point","coordinates":[71.46791,51.19533]}},{"type":"Feature","properties":{"recId":"","facility_type_desc":"Pharmacy","seqLength":"","poi_name":"Immuno Plyus","houseNumber":"","street":"","street_type":"","city":"Nur-Sultan","phone_numbers":"[]","county":"","state":"","country":""},"geometry":{"type":"Point","coordinates":[71.50494,51.15792]}},{"type":"Feature","properties":{"recId":"","facility_type_desc":"Pharmacy","seqLength":"","poi_name":"Europharma","houseNumber":"","street":"","street_type":"","city":"Nur-Sultan","phone_numbers":"[\"7172-695378\"]","county":"","state":"","country":""},"geometry":{"type":"Point","coordinates":[71.48251,51.14871]}},{"type":"Feature","properties":{"recId":"","facility_type_desc":"Pharmacy","seqLength":"","poi_name":"Däryhana","houseNumber":"","street":"","street_type":"","city":"Nur-Sultan","phone_numbers":"[]","county":"","state":"","country":""},"geometry":{"type":"Point","coordinates":[71.43352,51.17035]}},{"type":"Feature","properties":{"recId":"","facility_type_desc":"Pharmacy","seqLength":"","poi_name":"Däryhana","houseNumber":"","street":"Аманкелді Иманов","street_type":"көшесі","city":"Nur-Sultan","phone_numbers":"[]","county":"","state":"","country":""},"geometry":{"type":"Point","coordinates":[71.43419,51.16343]}},{"type":"Feature","properties":{"recId":"","facility_type_desc":"Pharmacy","seqLength":"","poi_name":"Tsvetnaya","houseNumber":"","street":"","street_type":"","city":"Nur-Sultan","phone_numbers":"[]","county":"","state":"","country":""},"geometry":{"type":"Point","coordinates":[71.42333,51.18087]}},{"type":"Feature","properties":{"recId":"","facility_type_desc":"Pharmacy","seqLength":"","poi_name":"Alma","houseNumber":"","street":"Алаш","street_type":"тас жолы","city":"Nur-Sultan","phone_numbers":"[]","county":"","state":"","country":""},"geometry":{"type":"Point","coordinates":[71.46449,51.19332]}},{"type":"Feature","properties":{"recId":"","facility_type_desc":"Pharmacy","seqLength":"","poi_name":"Darumen","houseNumber":"","street":"Алаш","street_type":"тас жолы","city":"Nur-Sultan","phone_numbers":"[]","county":"","state":"","country":""},"geometry":{"type":"Point","coordinates":[71.46449,51.19332]}},{"type":"Feature","properties":{"recId":"","facility_type_desc":"Pharmacy","seqLength":"","poi_name":"Al'fa Med Plyus","houseNumber":"","street":"Әлия Молдағұлова","street_type":"көшесі","city":"Nur-Sultan","phone_numbers":"[]","county":"","state":"","country":""},"geometry":{"type":"Point","coordinates":[71.4187,51.18643]}},{"type":"Feature","properties":{"recId":"","facility_type_desc":"Pharmacy","seqLength":"","poi_name":"Shakura Ospan","houseNumber":"","street":"Шәймерден Қосшығұлұлы","street_type":"көшесі","city":"Nur-Sultan","phone_numbers":"[\"7172-206463\"]","county":"","state":"","country":""},"geometry":{"type":"Point","coordinates":[71.38552,51.17048]}},{"type":"Feature","properties":{"recId":"","facility_type_desc":"Pharmacy","seqLength":"","poi_name":"Däryhana","houseNumber":"","street":"Шәймерден Қосшығұлұлы","street_type":"көшесі","city":"Nur-Sultan","phone_numbers":"[]","county":"","state":"","country":""},"geometry":{"type":"Point","coordinates":[71.38562,51.17045]}},{"type":"Feature","properties":{"recId":"","facility_type_desc":"Pharmacy","seqLength":"","poi_name":"Arhimedes Farm","houseNumber":"","street":"Шұбар","street_type":"","city":"Nur-Sultan","phone_numbers":"[\"7172-999595\"]","county":"","state":"","country":""},"geometry":{"type":"Point","coordinates":[71.42272,51.13609]}},{"type":"Feature","properties":{"recId":"","facility_type_desc":"Pharmacy","seqLength":"","poi_name":"Däryhana","houseNumber":"","street":"Шәймерден Қосшығұлұлы","street_type":"көшесі","city":"Nur-Sultan","phone_numbers":"[]","county":"","state":"","country":""},"geometry":{"type":"Point","coordinates":[71.38948,51.16918]}},{"type":"Feature","properties":{"recId":"","facility_type_desc":"Pharmacy","seqLength":"","poi_name":"Däryhana","houseNumber":"","street":"","street_type":"","city":"Nur-Sultan","phone_numbers":"[]","county":"","state":"","country":""},"geometry":{"type":"Point","coordinates":[71.44057,51.19002]}},{"type":"Feature","properties":{"recId":"","facility_type_desc":"Pharmacy","seqLength":"","poi_name":"Gippokrat","houseNumber":"","street":"","street_type":"","city":"Nur-Sultan","phone_numbers":"[]","county":"","state":"","country":""},"geometry":{"type":"Point","coordinates":[71.50048,51.15417]}},{"type":"Feature","properties":{"recId":"","facility_type_desc":"Pharmacy","seqLength":"","poi_name":"Saulik Farma","houseNumber":"","street":"","street_type":"","city":"Nur-Sultan","phone_numbers":"[]","county":"","state":"","country":""},"geometry":{"type":"Point","coordinates":[71.41995,51.12389]}},{"type":"Feature","properties":{"recId":"","facility_type_desc":"Pharmacy","seqLength":"","poi_name":"Däryhana","houseNumber":"","street":"","street_type":"","city":"Nur-Sultan","phone_numbers":"[\"7172-356624\"]","county":"","state":"","country":""},"geometry":{"type":"Point","coordinates":[71.41995,51.12389]}},{"type":"Feature","properties":{"recId":"","facility_type_desc":"Pharmacy","seqLength":"","poi_name":"Däryhana","houseNumber":"","street":"Ғабит Мүсірепов","street_type":"көшесі","city":"Nur-Sultan","phone_numbers":"[]","county":"","state":"","country":""},"geometry":{"type":"Point","coordinates":[71.5023,51.15401]}},{"type":"Feature","properties":{"recId":"","facility_type_desc":"Pharmacy","seqLength":"","poi_name":"Biosfera","houseNumber":"","street":"Сәкен Сейфуллин","street_type":"көшесі","city":"Nur-Sultan","phone_numbers":"[]","county":"","state":"","country":""},"geometry":{"type":"Point","coordinates":[71.42234,51.17102]}},{"type":"Feature","properties":{"recId":"","facility_type_desc":"Pharmacy","seqLength":"","poi_name":"Däryhana","houseNumber":"","street":"Ғабиден Мұстафин","street_type":"көшесі","city":"Nur-Sultan","phone_numbers":"[]","county":"","state":"","country":""},"geometry":{"type":"Point","coordinates":[71.50505,51.14855]}},{"type":"Feature","properties":{"recId":"","facility_type_desc":"Pharmacy","seqLength":"","poi_name":"Samal-Farm","houseNumber":"","street":"Самал","street_type":"шағын ауданы","city":"Nur-Sultan","phone_numbers":"[\"7172-438548\"]","county":"","state":"","country":""},"geometry":{"type":"Point","coordinates":[71.42908,51.1556]}},{"type":"Feature","properties":{"recId":"","facility_type_desc":"Pharmacy","seqLength":"","poi_name":"Gippokrat","houseNumber":"","street":"Жеңіс","street_type":"даңғылы","city":"Nur-Sultan","phone_numbers":"[\"7172-396000\",\"7172-396161\",\"7172-403304\"]","county":"","state":"","country":""},"geometry":{"type":"Point","coordinates":[71.41485,51.16361]}},{"type":"Feature","properties":{"recId":"","facility_type_desc":"Pharmacy","seqLength":"","poi_name":"Gippokrat","houseNumber":"","street":"Ілияс Есенберлин","street_type":"көшесі","city":"Nur-Sultan","phone_numbers":"[]","county":"","state":"","country":""},"geometry":{"type":"Point","coordinates":[71.41047,51.19017]}},{"type":"Feature","properties":{"recId":"","facility_type_desc":"Pharmacy","seqLength":"","poi_name":"Däryhana","houseNumber":"","street":"Кенесары Хана","street_type":"улица","city":"Nur-Sultan","phone_numbers":"[\"7172-403298\"]","county":"","state":"","country":""},"geometry":{"type":"Point","coordinates":[71.4167,51.16405]}},{"type":"Feature","properties":{"recId":"","facility_type_desc":"Pharmacy","seqLength":"","poi_name":"Tsvetnaya","houseNumber":"","street":"","street_type":"","city":"Nur-Sultan","phone_numbers":"[]","county":"","state":"","country":""},"geometry":{"type":"Point","coordinates":[71.41961,51.17532]}},{"type":"Feature","properties":{"recId":"","facility_type_desc":"Pharmacy","seqLength":"","poi_name":"Däryhana","houseNumber":"","street":"Күйші Дина","street_type":"көшесі","city":"Nur-Sultan","phone_numbers":"[]","county":"","state":"","country":""},"geometry":{"type":"Point","coordinates":[71.46246,51.14611]}},{"type":"Feature","properties":{"recId":"","facility_type_desc":"Pharmacy","seqLength":"","poi_name":"Gippokrat","houseNumber":"","street":"Біржан Сал","street_type":"көшесі","city":"Nur-Sultan","phone_numbers":"[]","county":"","state":"","country":""},"geometry":{"type":"Point","coordinates":[71.40709,51.19224]}},{"type":"Feature","properties":{"recId":"","facility_type_desc":"Pharmacy","seqLength":"","poi_name":"Däryhana","houseNumber":"","street":"Біржан Сал","street_type":"көшесі","city":"Nur-Sultan","phone_numbers":"[]","county":"","state":"","country":""},"geometry":{"type":"Point","coordinates":[71.40724,51.19236]}},{"type":"Feature","properties":{"recId":"","facility_type_desc":"Pharmacy","seqLength":"","poi_name":"Gippokrat","houseNumber":"","street":"Жеңіс","street_type":"даңғылы","city":"Nur-Sultan","phone_numbers":"[]","county":"","state":"","country":""},"geometry":{"type":"Point","coordinates":[71.40906,51.18308]}},{"type":"Feature","properties":{"recId":"","facility_type_desc":"Pharmacy","seqLength":"","poi_name":"Sanita","houseNumber":"","street":"Әубәкір Ысмайылов","street_type":"көшесі","city":"Nur-Sultan","phone_numbers":"[]","county":"","state":"","country":""},"geometry":{"type":"Point","coordinates":[71.43153,51.15846]}},{"type":"Feature","properties":{"recId":"","facility_type_desc":"Pharmacy","seqLength":"","poi_name":"Däryhana","houseNumber":"","street":"Көкіл","street_type":"көшесі","city":"Nur-Sultan","phone_numbers":"[]","county":"","state":"","country":""},"geometry":{"type":"Point","coordinates":[71.64563,51.11584]}},{"type":"Feature","properties":{"recId":"","facility_type_desc":"Pharmacy","seqLength":"","poi_name":"Alem+","houseNumber":"","street":"Шоқан Уәлиханов","street_type":"көшесі","city":"Nur-Sultan","phone_numbers":"[\"7172-227390\"]","county":"","state":"","country":""},"geometry":{"type":"Point","coordinates":[71.43576,51.17978]}},{"type":"Feature","properties":{"recId":"","facility_type_desc":"Pharmacy","seqLength":"","poi_name":"Älem Plyus","houseNumber":"","street":"Шоқан Уәлиханов","street_type":"көшесі","city":"Nur-Sultan","phone_numbers":"[]","county":"","state":"","country":""},"geometry":{"type":"Point","coordinates":[71.43593,51.17949]}},{"type":"Feature","properties":{"recId":"","facility_type_desc":"Pharmacy","seqLength":"","poi_name":"Biopharma","houseNumber":"","street":"Күйші Дина","street_type":"көшесі","city":"Nur-Sultan","phone_numbers":"[]","county":"","state":"","country":""},"geometry":{"type":"Point","coordinates":[71.47941,51.14843]}},{"type":"Feature","properties":{"recId":"","facility_type_desc":"Pharmacy","seqLength":"","poi_name":"Shipager","houseNumber":"","street":"Күйші Дина","street_type":"көшесі","city":"Nur-Sultan","phone_numbers":"[]","county":"","state":"","country":""},"geometry":{"type":"Point","coordinates":[71.47975,51.14853]}},{"type":"Feature","properties":{"recId":"","facility_type_desc":"Pharmacy","seqLength":"","poi_name":"Däryhana","houseNumber":"","street":"Күйші Дина","street_type":"көшесі","city":"Nur-Sultan","phone_numbers":"[]","county":"","state":"","country":""},"geometry":{"type":"Point","coordinates":[71.47975,51.14853]}},{"type":"Feature","properties":{"recId":"","facility_type_desc":"Pharmacy","seqLength":"","poi_name":"Garmoniya","houseNumber":"","street":"Бауыржан Момышұлы","street_type":"даңғылы","city":"Nur-Sultan","phone_numbers":"[]","county":"","state":"","country":""},"geometry":{"type":"Point","coordinates":[71.47027,51.13751]}},{"type":"Feature","properties":{"recId":"","facility_type_desc":"Pharmacy","seqLength":"","poi_name":"Gippokrat","houseNumber":"","street":"Бауыржан Момышұлы","street_type":"даңғылы","city":"Nur-Sultan","phone_numbers":"[]","county":"","state":"","country":""},"geometry":{"type":"Point","coordinates":[71.4704,51.13755]}},{"type":"Feature","properties":{"recId":"","facility_type_desc":"Pharmacy","seqLength":"","poi_name":"Däryhana","houseNumber":"","street":"Бауыржан Момышұлы","street_type":"даңғылы","city":"Nur-Sultan","phone_numbers":"[]","county":"","state":"","country":""},"geometry":{"type":"Point","coordinates":[71.4704,51.13755]}},{"type":"Feature","properties":{"recId":"","facility_type_desc":"Pharmacy","seqLength":"","poi_name":"Biosfera","houseNumber":"","street":"Бауыржан Момышұлы","street_type":"даңғылы","city":"Nur-Sultan","phone_numbers":"[]","county":"","state":"","country":""},"geometry":{"type":"Point","coordinates":[71.4704,51.13755]}},{"type":"Feature","properties":{"recId":"","facility_type_desc":"Pharmacy","seqLength":"","poi_name":"Däryhana","houseNumber":"","street":"2-ші","street_type":"шағын аудан","city":"Nur-Sultan","phone_numbers":"[]","county":"","state":"","country":""},"geometry":{"type":"Point","coordinates":[71.46357,51.15062]}},{"type":"Feature","properties":{"recId":"","facility_type_desc":"Pharmacy","seqLength":"","poi_name":"Däryhana","houseNumber":"","street":"Сұлтанманмұт Торайғыров","street_type":"көшесі","city":"Nur-Sultan","phone_numbers":"[]","county":"","state":"","country":""},"geometry":{"type":"Point","coordinates":[71.42808,51.17317]}},{"type":"Feature","properties":{"recId":"","facility_type_desc":"Pharmacy","seqLength":"","poi_name":"Favorit Farm","houseNumber":"","street":"","street_type":"","city":"Nur-Sultan","phone_numbers":"[\"7172-617004\"]","county":"","state":"","country":""},"geometry":{"type":"Point","coordinates":[71.45766,51.1615]}},{"type":"Feature","properties":{"recId":"","facility_type_desc":"Pharmacy","seqLength":"","poi_name":"Al'fa Med","houseNumber":"","street":"","street_type":"","city":"Nur-Sultan","phone_numbers":"[]","county":"","state":"","country":""},"geometry":{"type":"Point","coordinates":[71.46222,51.16286]}},{"type":"Feature","properties":{"recId":"","facility_type_desc":"Pharmacy","seqLength":"","poi_name":"Däryhana","houseNumber":"","street":"","street_type":"","city":"Nur-Sultan","phone_numbers":"[]","county":"","state":"","country":""},"geometry":{"type":"Point","coordinates":[71.40407,51.1604]}},{"type":"Feature","properties":{"recId":"","facility_type_desc":"Pharmacy","seqLength":"","poi_name":"Däryhana","houseNumber":"","street":"","street_type":"","city":"Nur-Sultan","phone_numbers":"[]","county":"","state":"","country":""},"geometry":{"type":"Point","coordinates":[71.43013,51.13332]}},{"type":"Feature","properties":{"recId":"","facility_type_desc":"Pharmacy","seqLength":"","poi_name":"Al'famed","houseNumber":"","street":"Ғабит Мүсірепов","street_type":"көшесі","city":"Nur-Sultan","phone_numbers":"[\"7172-233841\"]","county":"","state":"","country":""},"geometry":{"type":"Point","coordinates":[71.50183,51.15354]}},{"type":"Feature","properties":{"recId":"","facility_type_desc":"Pharmacy","seqLength":"","poi_name":"Senym-A","houseNumber":"","street":"Ғабит Мүсірепов","street_type":"көшесі","city":"Nur-Sultan","phone_numbers":"[\"7172-497930\"]","county":"","state":"","country":""},"geometry":{"type":"Point","coordinates":[71.50191,51.15354]}},{"type":"Feature","properties":{"recId":"","facility_type_desc":"Pharmacy","seqLength":"","poi_name":"Däryhana","houseNumber":"","street":"Жеңіс","street_type":"даңғылы","city":"Nur-Sultan","phone_numbers":"[]","county":"","state":"","country":""},"geometry":{"type":"Point","coordinates":[71.4151,51.16092]}},{"type":"Feature","properties":{"recId":"","facility_type_desc":"Pharmacy","seqLength":"","poi_name":"Däryhana","houseNumber":"","street":"Шұғыла","street_type":"көшесі","city":"Nur-Sultan","phone_numbers":"[]","county":"","state":"","country":""},"geometry":{"type":"Point","coordinates":[71.35063,51.18007]}},{"type":"Feature","properties":{"recId":"","facility_type_desc":"Pharmacy","seqLength":"","poi_name":"Däryhana","houseNumber":"","street":"Бейімбет Майлин","street_type":"көшесі","city":"Nur-Sultan","phone_numbers":"[]","county":"","state":"","country":""},"geometry":{"type":"Point","coordinates":[71.46922,51.14348]}},{"type":"Feature","properties":{"recId":"","facility_type_desc":"Pharmacy","seqLength":"","poi_name":"Gippokrat","houseNumber":"","street":"Отрар","street_type":"көшесі","city":"Nur-Sultan","phone_numbers":"[]","county":"","state":"","country":""},"geometry":{"type":"Point","coordinates":[71.4421,51.1692]}},{"type":"Feature","properties":{"recId":"","facility_type_desc":"Pharmacy","seqLength":"","poi_name":"Däryhana","houseNumber":"","street":"","street_type":"","city":"Nur-Sultan","phone_numbers":"[]","county":"","state":"","country":""},"geometry":{"type":"Point","coordinates":[71.46802,51.1382]}},{"type":"Feature","properties":{"recId":"","facility_type_desc":"Pharmacy","seqLength":"","poi_name":"Apteka. Com","houseNumber":"","street":"","street_type":"","city":"Nur-Sultan","phone_numbers":"[]","county":"","state":"","country":""},"geometry":{"type":"Point","coordinates":[71.43012,51.11526]}},{"type":"Feature","properties":{"recId":"","facility_type_desc":"Pharmacy","seqLength":"","poi_name":"Aspekt","houseNumber":"","street":"","street_type":"","city":"Nur-Sultan","phone_numbers":"[\"7172-445435\"]","county":"","state":"","country":""},"geometry":{"type":"Point","coordinates":[71.4123,51.16936]}},{"type":"Feature","properties":{"recId":"","facility_type_desc":"Pharmacy","seqLength":"","poi_name":"Tsvetnaya","houseNumber":"","street":"Абылай хан","street_type":"даңғылы","city":"Nur-Sultan","phone_numbers":"[]","county":"","state":"","country":""},"geometry":{"type":"Point","coordinates":[71.47423,51.159]}},{"type":"Feature","properties":{"recId":"","facility_type_desc":"Pharmacy","seqLength":"","poi_name":"Medeu-Farm","houseNumber":"","street":"2-ші","street_type":"шағын аудан","city":"Nur-Sultan","phone_numbers":"[]","county":"","state":"","country":""},"geometry":{"type":"Point","coordinates":[71.46271,51.1507]}},{"type":"Feature","properties":{"recId":"","facility_type_desc":"Pharmacy","seqLength":"","poi_name":"Gippokrat","houseNumber":"","street":"Жаңайдар Жирентаев","street_type":"көшесі","city":"Nur-Sultan","phone_numbers":"[]","county":"","state":"","country":""},"geometry":{"type":"Point","coordinates":[71.47418,51.15052]}},{"type":"Feature","properties":{"recId":"","facility_type_desc":"Pharmacy","seqLength":"","poi_name":"Däryhana","houseNumber":"","street":"Егемен Қазақстан Газетасы","street_type":"көшесі","city":"Nur-Sultan","phone_numbers":"[]","county":"","state":"","country":""},"geometry":{"type":"Point","coordinates":[71.45138,51.16582]}},{"type":"Feature","properties":{"recId":"","facility_type_desc":"Pharmacy","seqLength":"","poi_name":"Tsvetnaya","houseNumber":"","street":"","street_type":"","city":"Nur-Sultan","phone_numbers":"[]","county":"","state":"","country":""},"geometry":{"type":"Point","coordinates":[71.43859,51.17534]}},{"type":"Feature","properties":{"recId":"","facility_type_desc":"Pharmacy","seqLength":"","poi_name":"Sybyr deñsauligi","houseNumber":"","street":"","street_type":"","city":"Nur-Sultan","phone_numbers":"[]","county":"","state":"","country":""},"geometry":{"type":"Point","coordinates":[71.43859,51.17534]}},{"type":"Feature","properties":{"recId":"","facility_type_desc":"Pharmacy","seqLength":"","poi_name":"Mukanov S.S.","houseNumber":"","street":"","street_type":"","city":"Nur-Sultan","phone_numbers":"[]","county":"","state":"","country":""},"geometry":{"type":"Point","coordinates":[71.43666,51.17933]}},{"type":"Feature","properties":{"recId":"","facility_type_desc":"Pharmacy","seqLength":"","poi_name":"Sanario","houseNumber":"","street":"","street_type":"","city":"Nur-Sultan","phone_numbers":"[]","county":"","state":"","country":""},"geometry":{"type":"Point","coordinates":[71.43055,51.11551]}},{"type":"Feature","properties":{"recId":"","facility_type_desc":"Pharmacy","seqLength":"","poi_name":"Salamat","houseNumber":"","street":"Рақымжан Қошқарбаев","street_type":"даңғылы","city":"Nur-Sultan","phone_numbers":"[]","county":"","state":"","country":""},"geometry":{"type":"Point","coordinates":[71.50235,51.13028]}},{"type":"Feature","properties":{"recId":"","facility_type_desc":"Pharmacy","seqLength":"","poi_name":"Apteka. Com","houseNumber":"","street":"Сарайшык","street_type":"улица","city":"Nur-Sultan","phone_numbers":"[]","county":"","state":"","country":""},"geometry":{"type":"Point","coordinates":[71.42323,51.13545]}},{"type":"Feature","properties":{"recId":"","facility_type_desc":"Pharmacy","seqLength":"","poi_name":"Däryhana","houseNumber":"","street":"Сарайшык","street_type":"улица","city":"Nur-Sultan","phone_numbers":"[]","county":"","state":"","country":""},"geometry":{"type":"Point","coordinates":[71.42323,51.13545]}},{"type":"Feature","properties":{"recId":"","facility_type_desc":"Pharmacy","seqLength":"","poi_name":"Däryhana","houseNumber":"","street":"Абылай хан","street_type":"даңғылы","city":"Nur-Sultan","phone_numbers":"[]","county":"","state":"","country":""},"geometry":{"type":"Point","coordinates":[71.48241,51.1559]}},{"type":"Feature","properties":{"recId":"","facility_type_desc":"Pharmacy","seqLength":"","poi_name":"Apteka. Com","houseNumber":"","street":"5-ші","street_type":"шағын аудан","city":"Nur-Sultan","phone_numbers":"[]","county":"","state":"","country":""},"geometry":{"type":"Point","coordinates":[71.47421,51.1549]}},{"type":"Feature","properties":{"recId":"","facility_type_desc":"Pharmacy","seqLength":"","poi_name":"Däryhana","houseNumber":"","street":"Отрар","street_type":"көшесі","city":"Nur-Sultan","phone_numbers":"[]","county":"","state":"","country":""},"geometry":{"type":"Point","coordinates":[71.43312,51.16814]}},{"type":"Feature","properties":{"recId":"","facility_type_desc":"Pharmacy","seqLength":"","poi_name":"Däryhana","houseNumber":"","street":"Шәкәрім Құдайбердіұлы","street_type":"даңғылы","city":"Nur-Sultan","phone_numbers":"[]","county":"","state":"","country":""},"geometry":{"type":"Point","coordinates":[71.49439,51.1582]}},{"type":"Feature","properties":{"recId":"","facility_type_desc":"Pharmacy","seqLength":"","poi_name":"Ot A Do Ya","houseNumber":"","street":"Александра Янушкевича","street_type":"улица","city":"Nur-Sultan","phone_numbers":"[]","county":"","state":"","country":""},"geometry":{"type":"Point","coordinates":[71.46143,51.15899]}},{"type":"Feature","properties":{"recId":"","facility_type_desc":"Pharmacy","seqLength":"","poi_name":"U-Ka Farm B.Z.","houseNumber":"","street":"","street_type":"","city":"Nur-Sultan","phone_numbers":"[]","county":"","state":"","country":""},"geometry":{"type":"Point","coordinates":[71.43187,51.18198]}},{"type":"Feature","properties":{"recId":"","facility_type_desc":"Pharmacy","seqLength":"","poi_name":"Däryhana","houseNumber":"","street":"Сабыр Рақымов","street_type":"көшесі","city":"Nur-Sultan","phone_numbers":"[]","county":"","state":"","country":""},"geometry":{"type":"Point","coordinates":[71.4379,51.16509]}},{"type":"Feature","properties":{"recId":"","facility_type_desc":"Pharmacy","seqLength":"","poi_name":"Europharma","houseNumber":"","street":"Беимбета Майлина","street_type":"улица","city":"Nur-Sultan","phone_numbers":"[\"7172-695378\",\"7172-696060\"]","county":"","state":"","country":""},"geometry":{"type":"Point","coordinates":[71.47913,51.1463]}},{"type":"Feature","properties":{"recId":"","facility_type_desc":"Pharmacy","seqLength":"","poi_name":"Däryhana","houseNumber":"","street":"","street_type":"","city":"Nur-Sultan","phone_numbers":"[]","county":"","state":"","country":""},"geometry":{"type":"Point","coordinates":[71.3884,51.16862]}},{"type":"Feature","properties":{"recId":"","facility_type_desc":"Pharmacy","seqLength":"","poi_name":"Gippokrat","houseNumber":"","street":"Сауран","street_type":"көшесі","city":"Nur-Sultan","phone_numbers":"[]","county":"","state":"","country":""},"geometry":{"type":"Point","coordinates":[71.42021,51.12062]}},{"type":"Feature","properties":{"recId":"","facility_type_desc":"Pharmacy","seqLength":"","poi_name":"Däryhana","houseNumber":"","street":"Сауран","street_type":"көшесі","city":"Nur-Sultan","phone_numbers":"[]","county":"","state":"","country":""},"geometry":{"type":"Point","coordinates":[71.42009,51.12042]}},{"type":"Feature","properties":{"recId":"","facility_type_desc":"Pharmacy","seqLength":"","poi_name":"Däryhana","houseNumber":"","street":"Сарыарқа","street_type":"даңғылы","city":"Nur-Sultan","phone_numbers":"[]","county":"","state":"","country":""},"geometry":{"type":"Point","coordinates":[71.40571,51.17665]}},{"type":"Feature","properties":{"recId":"","facility_type_desc":"Pharmacy","seqLength":"","poi_name":"Al'famed","houseNumber":"","street":"Кенесары","street_type":"көшесі","city":"Nur-Sultan","phone_numbers":"[]","county":"","state":"","country":""},"geometry":{"type":"Point","coordinates":[71.4011,51.16208]}},{"type":"Feature","properties":{"recId":"","facility_type_desc":"Pharmacy","seqLength":"","poi_name":"Zhit' Zdorovo","houseNumber":"","street":"Ыбырай Алтынсарин","street_type":"көшесі","city":"Nur-Sultan","phone_numbers":"[\"7172-385996\"]","county":"","state":"","country":""},"geometry":{"type":"Point","coordinates":[71.41128,51.18903]}},{"type":"Feature","properties":{"recId":"","facility_type_desc":"Pharmacy","seqLength":"","poi_name":"Biosfera","houseNumber":"","street":"Аманкелді Иманов","street_type":"көшесі","city":"Nur-Sultan","phone_numbers":"[]","county":"","state":"","country":""},"geometry":{"type":"Point","coordinates":[71.43778,51.16384]}},{"type":"Feature","properties":{"recId":"","facility_type_desc":"Pharmacy","seqLength":"","poi_name":99,"houseNumber":"","street":"Александр Кравцов","street_type":"көшесі","city":"Nur-Sultan","phone_numbers":"[]","county":"","state":"","country":""},"geometry":{"type":"Point","coordinates":[71.44185,51.15801]}},{"type":"Feature","properties":{"recId":"","facility_type_desc":"Pharmacy","seqLength":"","poi_name":"Däryhana","houseNumber":"","street":"Александр Кравцов","street_type":"көшесі","city":"Nur-Sultan","phone_numbers":"[]","county":"","state":"","country":""},"geometry":{"type":"Point","coordinates":[71.44125,51.15801]}},{"type":"Feature","properties":{"recId":"","facility_type_desc":"Pharmacy","seqLength":"","poi_name":"Gippokrat","houseNumber":"","street":"","street_type":"","city":"Nur-Sultan","phone_numbers":"[]","county":"","state":"","country":""},"geometry":{"type":"Point","coordinates":[71.47358,51.14515]}},{"type":"Feature","properties":{"recId":"","facility_type_desc":"Pharmacy","seqLength":"","poi_name":"Däryhana","houseNumber":"","street":"","street_type":"","city":"Nur-Sultan","phone_numbers":"[\"7172-359473\"]","county":"","state":"","country":""},"geometry":{"type":"Point","coordinates":[71.4736,51.14512]}},{"type":"Feature","properties":{"recId":"","facility_type_desc":"Pharmacy","seqLength":"","poi_name":"Family Medical Company","houseNumber":"","street":"","street_type":"","city":"Nur-Sultan","phone_numbers":"[\"7172-302602\"]","county":"","state":"","country":""},"geometry":{"type":"Point","coordinates":[71.42108,51.05804]}},{"type":"Feature","properties":{"recId":"","facility_type_desc":"Pharmacy","seqLength":"","poi_name":"Aysham Däryhanasi","houseNumber":"","street":"Сәкен Сейфуллин","street_type":"көшесі","city":"Nur-Sultan","phone_numbers":"[\"7172-569996\"]","county":"","state":"","country":""},"geometry":{"type":"Point","coordinates":[71.40529,51.16896]}},{"type":"Feature","properties":{"recId":"","facility_type_desc":"Pharmacy","seqLength":"","poi_name":"Däryhana","houseNumber":"","street":"Сәкен Сейфуллин","street_type":"көшесі","city":"Nur-Sultan","phone_numbers":"[]","county":"","state":"","country":""},"geometry":{"type":"Point","coordinates":[71.40537,51.16901]}},{"type":"Feature","properties":{"recId":"","facility_type_desc":"Pharmacy","seqLength":"","poi_name":"Arna","houseNumber":"","street":"Сәкен Сейфуллин","street_type":"көшесі","city":"Nur-Sultan","phone_numbers":"[]","county":"","state":"","country":""},"geometry":{"type":"Point","coordinates":[71.40545,51.16902]}},{"type":"Feature","properties":{"recId":"","facility_type_desc":"Pharmacy","seqLength":"","poi_name":"Däryhana","houseNumber":"","street":"Желтоқсан","street_type":"көшесі","city":"Nur-Sultan","phone_numbers":"[]","county":"","state":"","country":""},"geometry":{"type":"Point","coordinates":[71.41439,51.1729]}},{"type":"Feature","properties":{"recId":"","facility_type_desc":"Pharmacy","seqLength":"","poi_name":"Uroplyus","houseNumber":"","street":"Хантау","street_type":"көшесі","city":"Nur-Sultan","phone_numbers":"[]","county":"","state":"","country":""},"geometry":{"type":"Point","coordinates":[71.5084,51.14887]}},{"type":"Feature","properties":{"recId":"","facility_type_desc":"Pharmacy","seqLength":"","poi_name":"Gippokrat","houseNumber":"","street":"","street_type":"","city":"Nur-Sultan","phone_numbers":"[]","county":"","state":"","country":""},"geometry":{"type":"Point","coordinates":[71.41973,51.18826]}},{"type":"Feature","properties":{"recId":"","facility_type_desc":"Pharmacy","seqLength":"","poi_name":"Däryhana","houseNumber":"","street":"Александр Пушкин","street_type":"көшесі","city":"Nur-Sultan","phone_numbers":"[]","county":"","state":"","country":""},"geometry":{"type":"Point","coordinates":[71.45701,51.15656]}},{"type":"Feature","properties":{"recId":"","facility_type_desc":"Pharmacy","seqLength":"","poi_name":"Farmakom Impeks","houseNumber":"","street":"","street_type":"","city":"Nur-Sultan","phone_numbers":"[]","county":"","state":"","country":""},"geometry":{"type":"Point","coordinates":[71.50985,51.15486]}},{"type":"Feature","properties":{"recId":"","facility_type_desc":"Pharmacy","seqLength":"","poi_name":"Däryhana","houseNumber":"","street":"","street_type":"","city":"Nur-Sultan","phone_numbers":"[]","county":"","state":"","country":""},"geometry":{"type":"Point","coordinates":[71.50985,51.15486]}},{"type":"Feature","properties":{"recId":"","facility_type_desc":"Pharmacy","seqLength":"","poi_name":"Vita Pharm","houseNumber":"","street":"Петров","street_type":"көшесі","city":"Nur-Sultan","phone_numbers":"[]","county":"","state":"","country":""},"geometry":{"type":"Point","coordinates":[71.46875,51.14899]}},{"type":"Feature","properties":{"recId":"","facility_type_desc":"Pharmacy","seqLength":"","poi_name":"Däryhana","houseNumber":"","street":"Республика","street_type":"даңғылы","city":"Nur-Sultan","phone_numbers":"[\"7172-396975\"]","county":"","state":"","country":""},"geometry":{"type":"Point","coordinates":[71.42292,51.18068]}},{"type":"Feature","properties":{"recId":"","facility_type_desc":"Pharmacy","seqLength":"","poi_name":"Däryhana","houseNumber":"","street":"Аманкелді Иманов","street_type":"көшесі","city":"Nur-Sultan","phone_numbers":"[\"7172-372448\"]","county":"","state":"","country":""},"geometry":{"type":"Point","coordinates":[71.43898,51.16401]}},{"type":"Feature","properties":{"recId":"","facility_type_desc":"Pharmacy","seqLength":"","poi_name":"Aist","houseNumber":"","street":"Бақтыораз Бейсекбаев","street_type":"көшесі","city":"Nur-Sultan","phone_numbers":"[]","county":"","state":"","country":""},"geometry":{"type":"Point","coordinates":[71.45719,51.16835]}},{"type":"Feature","properties":{"recId":"","facility_type_desc":"Pharmacy","seqLength":"","poi_name":"Däryhana","houseNumber":"","street":"","street_type":"","city":"Nur-Sultan","phone_numbers":"[]","county":"","state":"","country":""},"geometry":{"type":"Point","coordinates":[71.4759,51.14279]}},{"type":"Feature","properties":{"recId":"","facility_type_desc":"Pharmacy","seqLength":"","poi_name":"Däryhana","houseNumber":"","street":"Мариям Жагорқызы","street_type":"көшесі","city":"Nur-Sultan","phone_numbers":"[]","county":"","state":"","country":""},"geometry":{"type":"Point","coordinates":[71.40895,51.13939]}},{"type":"Feature","properties":{"recId":"","facility_type_desc":"Pharmacy","seqLength":"","poi_name":"Europharma","houseNumber":"","street":"Шәкәрім Құдайбердіұлы","street_type":"көшесі","city":"Nur-Sultan","phone_numbers":"[\"7172-542899\"]","county":"","state":"","country":""},"geometry":{"type":"Point","coordinates":[71.52726,51.14559]}},{"type":"Feature","properties":{"recId":"","facility_type_desc":"Pharmacy","seqLength":"","poi_name":"Alan Farm","houseNumber":"","street":"","street_type":"","city":"Nur-Sultan","phone_numbers":"[]","county":"","state":"","country":""},"geometry":{"type":"Point","coordinates":[71.41132,51.19409]}},{"type":"Feature","properties":{"recId":"","facility_type_desc":"Pharmacy","seqLength":"","poi_name":"Däryhana","houseNumber":"","street":"Тәуелсіздік","street_type":"даңғылы","city":"Nur-Sultan","phone_numbers":"[]","county":"","state":"","country":""},"geometry":{"type":"Point","coordinates":[71.46929,51.133]}},{"type":"Feature","properties":{"recId":"","facility_type_desc":"Pharmacy","seqLength":"","poi_name":"Däryhana","houseNumber":"","street":"Ғабит Мүсірепов","street_type":"көшесі","city":"Nur-Sultan","phone_numbers":"[]","county":"","state":"","country":""},"geometry":{"type":"Point","coordinates":[71.49935,51.15088]}},{"type":"Feature","properties":{"recId":"","facility_type_desc":"Pharmacy","seqLength":"","poi_name":"Tsentral'naya","houseNumber":"","street":"","street_type":"","city":"Nur-Sultan","phone_numbers":"[\"7172-767991\",\"7172-797692\"]","county":"","state":"","country":""},"geometry":{"type":"Point","coordinates":[71.43271,51.11453]}},{"type":"Feature","properties":{"recId":"","facility_type_desc":"Pharmacy","seqLength":"","poi_name":"Europharma","houseNumber":"","street":"","street_type":"","city":"Nur-Sultan","phone_numbers":"[\"7172-695236\"]","county":"","state":"","country":""},"geometry":{"type":"Point","coordinates":[71.41684,51.12876]}},{"type":"Feature","properties":{"recId":"","facility_type_desc":"Pharmacy","seqLength":"","poi_name":"Däryhana","houseNumber":"","street":"","street_type":"","city":"Nur-Sultan","phone_numbers":"[]","county":"","state":"","country":""},"geometry":{"type":"Point","coordinates":[71.49726,51.16098]}},{"type":"Feature","properties":{"recId":"","facility_type_desc":"Pharmacy","seqLength":"","poi_name":"Däryhana","houseNumber":"","street":"","street_type":"","city":"Nur-Sultan","phone_numbers":"[]","county":"","state":"","country":""},"geometry":{"type":"Point","coordinates":[71.4926,51.15349]}},{"type":"Feature","properties":{"recId":"","facility_type_desc":"Pharmacy","seqLength":"","poi_name":"Apteka. Com","houseNumber":"","street":"","street_type":"","city":"Nur-Sultan","phone_numbers":"[]","county":"","state":"","country":""},"geometry":{"type":"Point","coordinates":[71.47773,51.12576]}},{"type":"Feature","properties":{"recId":"","facility_type_desc":"Pharmacy","seqLength":"","poi_name":"Däryhana","houseNumber":"","street":"","street_type":"","city":"Nur-Sultan","phone_numbers":"[]","county":"","state":"","country":""},"geometry":{"type":"Point","coordinates":[71.45132,51.15448]}},{"type":"Feature","properties":{"recId":"","facility_type_desc":"Pharmacy","seqLength":"","poi_name":"Doktor Plyus","houseNumber":"","street":"Бейбітшілік","street_type":"көшесі","city":"Nur-Sultan","phone_numbers":"[]","county":"","state":"","country":""},"geometry":{"type":"Point","coordinates":[71.41815,51.17778]}},{"type":"Feature","properties":{"recId":"","facility_type_desc":"Pharmacy","seqLength":"","poi_name":"Däryhana","houseNumber":"","street":"","street_type":"","city":"Nur-Sultan","phone_numbers":"[]","county":"","state":"","country":""},"geometry":{"type":"Point","coordinates":[71.40433,51.1748]}},{"type":"Feature","properties":{"recId":"","facility_type_desc":"Pharmacy","seqLength":"","poi_name":"Biosfera","houseNumber":"","street":"","street_type":"","city":"Nur-Sultan","phone_numbers":"[]","county":"","state":"","country":""},"geometry":{"type":"Point","coordinates":[71.404,51.17473]}},{"type":"Feature","properties":{"recId":"","facility_type_desc":"Pharmacy","seqLength":"","poi_name":"Ot A Do Ya","houseNumber":"","street":"","street_type":"","city":"Nur-Sultan","phone_numbers":"[]","county":"","state":"","country":""},"geometry":{"type":"Point","coordinates":[71.40442,51.16113]}},{"type":"Feature","properties":{"recId":"","facility_type_desc":"Pharmacy","seqLength":"","poi_name":"Feniks Fk","houseNumber":"","street":"","street_type":"","city":"Nur-Sultan","phone_numbers":"[]","county":"","state":"","country":""},"geometry":{"type":"Point","coordinates":[71.40442,51.16113]}},{"type":"Feature","properties":{"recId":"","facility_type_desc":"Pharmacy","seqLength":"","poi_name":"Gazhayip Nur","houseNumber":"","street":"","street_type":"","city":"Nur-Sultan","phone_numbers":"[]","county":"","state":"","country":""},"geometry":{"type":"Point","coordinates":[71.50197,51.15437]}},{"type":"Feature","properties":{"recId":"","facility_type_desc":"Pharmacy","seqLength":"","poi_name":"Däryhana","houseNumber":"","street":"","street_type":"","city":"Nur-Sultan","phone_numbers":"[]","county":"","state":"","country":""},"geometry":{"type":"Point","coordinates":[71.49943,51.15102]}},{"type":"Feature","properties":{"recId":"","facility_type_desc":"Pharmacy","seqLength":"","poi_name":"Al'famed","houseNumber":"","street":"","street_type":"","city":"Nur-Sultan","phone_numbers":"[\"7172-397953\"]","county":"","state":"","country":""},"geometry":{"type":"Point","coordinates":[71.41538,51.18557]}},{"type":"Feature","properties":{"recId":"","facility_type_desc":"Pharmacy","seqLength":"","poi_name":99,"houseNumber":"","street":"","street_type":"","city":"Nur-Sultan","phone_numbers":"[]","county":"","state":"","country":""},"geometry":{"type":"Point","coordinates":[71.41538,51.18557]}},{"type":"Feature","properties":{"recId":"","facility_type_desc":"Pharmacy","seqLength":"","poi_name":"Medeu","houseNumber":"","street":"Республики","street_type":"проспект","city":"Nur-Sultan","phone_numbers":"[\"7172-324651\"]","county":"","state":"","country":""},"geometry":{"type":"Point","coordinates":[71.42529,51.17271]}},{"type":"Feature","properties":{"recId":"","facility_type_desc":"Pharmacy","seqLength":"","poi_name":"Däryhana","houseNumber":"","street":"Жеңіс","street_type":"даңғылы","city":"Nur-Sultan","phone_numbers":"[]","county":"","state":"","country":""},"geometry":{"type":"Point","coordinates":[71.40944,51.18175]}},{"type":"Feature","properties":{"recId":"","facility_type_desc":"Pharmacy","seqLength":"","poi_name":"Gippokrat","houseNumber":"","street":"Жеңіс","street_type":"даңғылы","city":"Nur-Sultan","phone_numbers":"[]","county":"","state":"","country":""},"geometry":{"type":"Point","coordinates":[71.40942,51.18196]}},{"type":"Feature","properties":{"recId":"","facility_type_desc":"Pharmacy","seqLength":"","poi_name":"Däryhana","houseNumber":"","street":"Мұхтар Әуезов","street_type":"көшесі","city":"Nur-Sultan","phone_numbers":"[]","county":"","state":"","country":""},"geometry":{"type":"Point","coordinates":[71.41982,51.18322]}},{"type":"Feature","properties":{"recId":"","facility_type_desc":"Pharmacy","seqLength":"","poi_name":"Däryhana","houseNumber":"","street":"Бауыржан Момышұлы","street_type":"даңғылы","city":"Nur-Sultan","phone_numbers":"[]","county":"","state":"","country":""},"geometry":{"type":"Point","coordinates":[71.485,51.14173]}},{"type":"Feature","properties":{"recId":"","facility_type_desc":"Pharmacy","seqLength":"","poi_name":"Däryhana","houseNumber":"","street":"Конституция","street_type":"көшесі","city":"Nur-Sultan","phone_numbers":"[]","county":"","state":"","country":""},"geometry":{"type":"Point","coordinates":[71.39691,51.19488]}},{"type":"Feature","properties":{"recId":"","facility_type_desc":"Pharmacy","seqLength":"","poi_name":"Europharma","houseNumber":"","street":"","street_type":"","city":"Nur-Sultan","phone_numbers":"[\"7172-201762\"]","county":"","state":"","country":""},"geometry":{"type":"Point","coordinates":[71.43302,51.16583]}},{"type":"Feature","properties":{"recId":"","facility_type_desc":"Pharmacy","seqLength":"","poi_name":"Däryhana","houseNumber":"","street":"Сығанақ","street_type":"көшесі","city":"Nur-Sultan","phone_numbers":"[]","county":"","state":"","country":""},"geometry":{"type":"Point","coordinates":[71.42014,51.12446]}},{"type":"Feature","properties":{"recId":"","facility_type_desc":"Pharmacy","seqLength":"","poi_name":"Änel","houseNumber":"","street":"Жеңіс","street_type":"даңғылы","city":"Nur-Sultan","phone_numbers":"[]","county":"","state":"","country":""},"geometry":{"type":"Point","coordinates":[71.40748,51.18869]}},{"type":"Feature","properties":{"recId":"","facility_type_desc":"Pharmacy","seqLength":"","poi_name":"Anel'","houseNumber":"","street":"Жеңіс","street_type":"даңғылы","city":"Nur-Sultan","phone_numbers":"[\"7172-389119\"]","county":"","state":"","country":""},"geometry":{"type":"Point","coordinates":[71.40744,51.18881]}},{"type":"Feature","properties":{"recId":"","facility_type_desc":"Pharmacy","seqLength":"","poi_name":"Fortuna+L","houseNumber":"","street":"","street_type":"","city":"Nur-Sultan","phone_numbers":"[\"7172-315073\"]","county":"","state":"","country":""},"geometry":{"type":"Point","coordinates":[71.41981,51.18147]}},{"type":"Feature","properties":{"recId":"","facility_type_desc":"Pharmacy","seqLength":"","poi_name":"Däryhana","houseNumber":"","street":"Аманкелді Иманов","street_type":"көшесі","city":"Nur-Sultan","phone_numbers":"[]","county":"","state":"","country":""},"geometry":{"type":"Point","coordinates":[71.45585,51.16183]}},{"type":"Feature","properties":{"recId":"","facility_type_desc":"Pharmacy","seqLength":"","poi_name":"Elit Farm","houseNumber":"","street":"Отрар","street_type":"көшесі","city":"Nur-Sultan","phone_numbers":"[]","county":"","state":"","country":""},"geometry":{"type":"Point","coordinates":[71.43842,51.16877]}},{"type":"Feature","properties":{"recId":"","facility_type_desc":"Pharmacy","seqLength":"","poi_name":"Gippokrat","houseNumber":"","street":"","street_type":"","city":"Nur-Sultan","phone_numbers":"[]","county":"","state":"","country":""},"geometry":{"type":"Point","coordinates":[71.45501,51.16007]}},{"type":"Feature","properties":{"recId":"","facility_type_desc":"Pharmacy","seqLength":"","poi_name":"Ümyt","houseNumber":"","street":"Абай","street_type":"даңғылы","city":"Nur-Sultan","phone_numbers":"[]","county":"","state":"","country":""},"geometry":{"type":"Point","coordinates":[71.46136,51.16669]}},{"type":"Feature","properties":{"recId":"","facility_type_desc":"Pharmacy","seqLength":"","poi_name":"Däryhana","houseNumber":"","street":"Сәкен Сейфуллин","street_type":"көшесі","city":"Nur-Sultan","phone_numbers":"[]","county":"","state":"","country":""},"geometry":{"type":"Point","coordinates":[71.45136,51.17282]}},{"type":"Feature","properties":{"recId":"","facility_type_desc":"Pharmacy","seqLength":"","poi_name":"Däryhana","houseNumber":"","street":"","street_type":"","city":"Nur-Sultan","phone_numbers":"[]","county":"","state":"","country":""},"geometry":{"type":"Point","coordinates":[71.4271,51.12496]}},{"type":"Feature","properties":{"recId":"","facility_type_desc":"Pharmacy","seqLength":"","poi_name":"366 Pharm","houseNumber":"","street":"Бурлин Тұрғын кешені","street_type":"","city":"Nur-Sultan","phone_numbers":"[]","county":"","state":"","country":""},"geometry":{"type":"Point","coordinates":[71.40828,51.16718]}},{"type":"Feature","properties":{"recId":"","facility_type_desc":"Pharmacy","seqLength":"","poi_name":"Europharma","houseNumber":"","street":"Ағыбай батыр","street_type":"көшесі","city":"Nur-Sultan","phone_numbers":"[]","county":"","state":"","country":""},"geometry":{"type":"Point","coordinates":[71.43556,51.16255]}},{"type":"Feature","properties":{"recId":"","facility_type_desc":"Pharmacy","seqLength":"","poi_name":"Däryhana","houseNumber":"","street":"","street_type":"","city":"Nur-Sultan","phone_numbers":"[]","county":"","state":"","country":""},"geometry":{"type":"Point","coordinates":[71.48557,51.15993]}},{"type":"Feature","properties":{"recId":"","facility_type_desc":"Pharmacy","seqLength":"","poi_name":"Europharma","houseNumber":"","street":"Достық","street_type":"көшесі","city":"Nur-Sultan","phone_numbers":"[]","county":"","state":"","country":""},"geometry":{"type":"Point","coordinates":[71.43539,51.12483]}},{"type":"Feature","properties":{"recId":"","facility_type_desc":"Pharmacy","seqLength":"","poi_name":"Aspirin-A","houseNumber":"","street":"Жастар","street_type":"шағын ауданы","city":"Nur-Sultan","phone_numbers":"[\"7172-997610\"]","county":"","state":"","country":""},"geometry":{"type":"Point","coordinates":[71.44352,51.15333]}},{"type":"Feature","properties":{"recId":"","facility_type_desc":"Pharmacy","seqLength":"","poi_name":"Däryhana","houseNumber":"","street":"Мұхтар Әуезов","street_type":"көшесі","city":"Nur-Sultan","phone_numbers":"[]","county":"","state":"","country":""},"geometry":{"type":"Point","coordinates":[71.42036,51.1814]}},{"type":"Feature","properties":{"recId":"","facility_type_desc":"Pharmacy","seqLength":"","poi_name":"Al'fa med","houseNumber":"","street":"Мұхтар Әуезов","street_type":"көшесі","city":"Nur-Sultan","phone_numbers":"[]","county":"","state":"","country":""},"geometry":{"type":"Point","coordinates":[71.42029,51.18149]}},{"type":"Feature","properties":{"recId":"","facility_type_desc":"Pharmacy","seqLength":"","poi_name":"Däryhana","houseNumber":"","street":"Мұхтар Әуезов","street_type":"көшесі","city":"Nur-Sultan","phone_numbers":"[]","county":"","state":"","country":""},"geometry":{"type":"Point","coordinates":[71.42392,51.16868]}},{"type":"Feature","properties":{"recId":"","facility_type_desc":"Pharmacy","seqLength":"","poi_name":"Al'famed","houseNumber":"","street":"Мұхтар Әуезов","street_type":"көшесі","city":"Nur-Sultan","phone_numbers":"[]","county":"","state":"","country":""},"geometry":{"type":"Point","coordinates":[71.42388,51.16882]}},{"type":"Feature","properties":{"recId":"","facility_type_desc":"Pharmacy","seqLength":"","poi_name":"Zhardem","houseNumber":"","street":"Манас","street_type":"көшесі","city":"Nur-Sultan","phone_numbers":"[]","county":"","state":"","country":""},"geometry":{"type":"Point","coordinates":[71.48762,51.15583]}},{"type":"Feature","properties":{"recId":"","facility_type_desc":"Pharmacy","seqLength":"","poi_name":"Däryhana","houseNumber":"","street":"Манас","street_type":"көшесі","city":"Nur-Sultan","phone_numbers":"[]","county":"","state":"","country":""},"geometry":{"type":"Point","coordinates":[71.48723,51.15535]}},{"type":"Feature","properties":{"recId":"","facility_type_desc":"Pharmacy","seqLength":"","poi_name":"Europharma","houseNumber":"","street":"Бейбітшілік","street_type":"көшесі","city":"Nur-Sultan","phone_numbers":"[\"7172-336240\"]","county":"","state":"","country":""},"geometry":{"type":"Point","coordinates":[71.41866,51.17574]}},{"type":"Feature","properties":{"recId":"","facility_type_desc":"Pharmacy","seqLength":"","poi_name":"Däryhana","houseNumber":"","street":"Бейбітшілік","street_type":"көшесі","city":"Nur-Sultan","phone_numbers":"[]","county":"","state":"","country":""},"geometry":{"type":"Point","coordinates":[71.4176,51.17955]}},{"type":"Feature","properties":{"recId":"","facility_type_desc":"Pharmacy","seqLength":"","poi_name":"Pul's","houseNumber":"","street":"Бейбітшілік","street_type":"көшесі","city":"Nur-Sultan","phone_numbers":"[]","county":"","state":"","country":""},"geometry":{"type":"Point","coordinates":[71.41758,51.17977]}},{"type":"Feature","properties":{"recId":"","facility_type_desc":"Pharmacy","seqLength":"","poi_name":"Maksima Farm","houseNumber":"","street":"Бейбітшілік","street_type":"көшесі","city":"Nur-Sultan","phone_numbers":"[]","county":"","state":"","country":""},"geometry":{"type":"Point","coordinates":[71.41759,51.17973]}},{"type":"Feature","properties":{"recId":"","facility_type_desc":"Pharmacy","seqLength":"","poi_name":"Pro Pharm","houseNumber":"","street":"Достық","street_type":"көшесі","city":"Nur-Sultan","phone_numbers":"[]","county":"","state":"","country":""},"geometry":{"type":"Point","coordinates":[71.42199,51.12752]}},{"type":"Feature","properties":{"recId":"","facility_type_desc":"Pharmacy","seqLength":"","poi_name":"Swisskazmed","houseNumber":"","street":"Достық","street_type":"көшесі","city":"Nur-Sultan","phone_numbers":"[]","county":"","state":"","country":""},"geometry":{"type":"Point","coordinates":[71.42228,51.12747]}},{"type":"Feature","properties":{"recId":"","facility_type_desc":"Pharmacy","seqLength":"","poi_name":"Natoni","houseNumber":"","street":"Достық","street_type":"көшесі","city":"Nur-Sultan","phone_numbers":"[]","county":"","state":"","country":""},"geometry":{"type":"Point","coordinates":[71.42127,51.12763]}},{"type":"Feature","properties":{"recId":"","facility_type_desc":"Pharmacy","seqLength":"","poi_name":"Däryhana","houseNumber":"","street":"Шәкәрім Құдайбердіұлы","street_type":"даңғылы","city":"Nur-Sultan","phone_numbers":"[]","county":"","state":"","country":""},"geometry":{"type":"Point","coordinates":[71.50035,51.1559]}},{"type":"Feature","properties":{"recId":"","facility_type_desc":"Pharmacy","seqLength":"","poi_name":"Gippokrat","houseNumber":"","street":"Сәкен Сейфуллин","street_type":"көшесі","city":"Nur-Sultan","phone_numbers":"[]","county":"","state":"","country":""},"geometry":{"type":"Point","coordinates":[71.41631,51.17031]}},{"type":"Feature","properties":{"recId":"","facility_type_desc":"Pharmacy","seqLength":"","poi_name":"Feniks","houseNumber":"","street":"Сәкен Сейфуллин","street_type":"көшесі","city":"Nur-Sultan","phone_numbers":"[]","county":"","state":"","country":""},"geometry":{"type":"Point","coordinates":[71.41611,51.17032]}},{"type":"Feature","properties":{"recId":"","facility_type_desc":"Pharmacy","seqLength":"","poi_name":"Däryhana","houseNumber":"","street":"Үшқоныр","street_type":"көшесі","city":"Nur-Sultan","phone_numbers":"[]","county":"","state":"","country":""},"geometry":{"type":"Point","coordinates":[71.41287,51.20438]}},{"type":"Feature","properties":{"recId":"","facility_type_desc":"Pharmacy","seqLength":"","poi_name":"Gippokrat","houseNumber":"","street":"Ағадыр","street_type":"көшесі","city":"Nur-Sultan","phone_numbers":"[]","county":"","state":"","country":""},"geometry":{"type":"Point","coordinates":[71.42038,51.19808]}},{"type":"Feature","properties":{"recId":"","facility_type_desc":"Pharmacy","seqLength":"","poi_name":"Romashka","houseNumber":"","street":"Тарас Шевченко","street_type":"көшесі","city":"Nur-Sultan","phone_numbers":"[\"7172-208210\",\"7172-263056\"]","county":"","state":"","country":""},"geometry":{"type":"Point","coordinates":[71.40576,51.15999]}},{"type":"Feature","properties":{"recId":"","facility_type_desc":"Pharmacy","seqLength":"","poi_name":"Denc","houseNumber":"","street":"Қажымұқан Мұңайтпасов","street_type":"көшесі","city":"Nur-Sultan","phone_numbers":"[\"7172-358779\"]","county":"","state":"","country":""},"geometry":{"type":"Point","coordinates":[71.46306,51.15287]}},{"type":"Feature","properties":{"recId":"","facility_type_desc":"Pharmacy","seqLength":"","poi_name":"New Pharmacy","houseNumber":"","street":"","street_type":"","city":"Nur-Sultan","phone_numbers":"[]","county":"","state":"","country":""},"geometry":{"type":"Point","coordinates":[71.44891,51.09183]}},{"type":"Feature","properties":{"recId":"","facility_type_desc":"Pharmacy","seqLength":"","poi_name":"Däryhana","houseNumber":"","street":"","street_type":"","city":"Nur-Sultan","phone_numbers":"[]","county":"","state":"","country":""},"geometry":{"type":"Point","coordinates":[71.48512,51.15511]}},{"type":"Feature","properties":{"recId":"","facility_type_desc":"Pharmacy","seqLength":"","poi_name":"Tsentral'naya Däryhana","houseNumber":"","street":"","street_type":"","city":"Nur-Sultan","phone_numbers":"[]","county":"","state":"","country":""},"geometry":{"type":"Point","coordinates":[71.40387,51.17562]}},{"type":"Feature","properties":{"recId":"","facility_type_desc":"Pharmacy","seqLength":"","poi_name":"Gippokrat","houseNumber":"","street":"Алатау","street_type":"шағын ауданы","city":"Nur-Sultan","phone_numbers":"[]","county":"","state":"","country":""},"geometry":{"type":"Point","coordinates":[71.45035,51.16334]}},{"type":"Feature","properties":{"recId":"","facility_type_desc":"Pharmacy","seqLength":"","poi_name":"Dubl'","houseNumber":"","street":"Бөгенбай батыр","street_type":"даңғылы","city":"Nur-Sultan","phone_numbers":"[\"7172-227726\"]","county":"","state":"","country":""},"geometry":{"type":"Point","coordinates":[71.43311,51.17855]}},{"type":"Feature","properties":{"recId":"","facility_type_desc":"Pharmacy","seqLength":"","poi_name":99,"houseNumber":"","street":"4-ші","street_type":"шағын аудан","city":"Nur-Sultan","phone_numbers":"[\"7172-312913\"]","county":"","state":"","country":""},"geometry":{"type":"Point","coordinates":[71.46955,51.15238]}},{"type":"Feature","properties":{"recId":"","facility_type_desc":"Pharmacy","seqLength":"","poi_name":"Tinis","houseNumber":"","street":"Сырдария","street_type":"көшесі","city":"Nur-Sultan","phone_numbers":"[]","county":"","state":"","country":""},"geometry":{"type":"Point","coordinates":[71.44466,51.17558]}},{"type":"Feature","properties":{"recId":"","facility_type_desc":"Pharmacy","seqLength":"","poi_name":"Ekotel'","houseNumber":"","street":"Григорий Потанин","street_type":"көшесі","city":"Nur-Sultan","phone_numbers":"[\"7172-393445\"]","county":"","state":"","country":""},"geometry":{"type":"Point","coordinates":[71.40466,51.18156]}},